<?xml version="1.0" encoding="UTF-8" standalone="yes"?>
<gpx xmlns="http://www.topografix.com/GPX/1/1" xmlns:gpxtrx="http://www.garmin.com/xmlschemas/GpxExtensions/v3" xmlns:rcxx="http://www.routeconverter.de/xmlschemas/RouteCatalogExtensions/1.0" xmlns:xsi="http://www.w3.org/2001/XMLSchema-instance" xmlns:gpxtpx="http://www.garmin.com/xmlschemas/TrackPointExtension/v1" xmlns:gpxx="http://www.garmin.com/xmlschemas/WaypointExtension/v1" xmlns:nmea="http://trekbuddy.net/2009/01/gpx/nmea" creator="Generated by Christian Pesch's RouteConverter. See http://www.routeconverter.com" version="1.1">
    <trk>
        <name>A - Villa Dominico</name>
        <desc>&lt;a href=&quot;http://www.masmapas.com/colectivo-10-palermo-recoleta-plaza-san-martin-pqe-lezama-sarandi-wilde-villa-dominico&quot;&gt;Mas info sobre la linea de colectivos 10 (Colectivo 10 - Palermo - Recoleta - Plaza San Martin - Pqe Lezama - Sarandi - Wilde - Villa DomíNico)&lt;/a&gt;</desc>
        <trkseg>
            <trkpt lon="-58.4233295917511" lat="-34.57130221916202">
                <ele>0.0</ele>
                <name>Av. Del Libertador</name>
            </trkpt>
            <trkpt lon="-58.41556191444346" lat="-34.57480050525603">
                <time>2012-01-03T20:07:25.561Z</time>
                <name>Av. Sarmiento</name>
            </trkpt>
            <trkpt lon="-58.41545462608258" lat="-34.57531289020922">
                <ele>18.0</ele>
                <time>2012-01-03T20:07:25.561Z</time>
                <name>Av. Sarmiento</name>
            </trkpt>
            <trkpt lon="-58.42051863670349" lat="-34.580736764794025">
                <ele>0.0</ele>
                <name>Plaza Italia</name>
            </trkpt>
            <trkpt lon="-58.421360850333656" lat="-34.5806175130265">
                <ele>8.0</ele>
                <time>2012-01-03T20:07:41.827Z</time>
                <name>Plaza Italia</name>
            </trkpt>
            <trkpt lon="-58.42178195714871" lat="-34.58117622045722">
                <ele>9.0</ele>
                <time>2012-01-03T20:07:41.827Z</time>
                <name>Plaza Italia</name>
            </trkpt>
            <trkpt lon="-58.42079088091759" lat="-34.58186190005526">
                <ele>9.0</ele>
                <time>2012-01-03T20:07:41.827Z</time>
                <name>Plaza Italia</name>
            </trkpt>
            <trkpt lon="-58.42014513909726" lat="-34.58135674375494">
                <ele>9.0</ele>
                <time>2012-01-03T20:07:41.827Z</time>
                <name>Av. Gral. Las Heras</name>
            </trkpt>
            <trkpt lon="-58.41113090515137" lat="-34.581991090024715">
                <ele>0.0</ele>
                <name>Av. Gral. Las Heras</name>
            </trkpt>
            <trkpt lon="-58.406184911727905" lat="-34.58349272209367">
                <ele>0.0</ele>
                <name>Av. Gral. Las Heras</name>
            </trkpt>
            <trkpt lon="-58.401936292648315" lat="-34.58343089072054">
                <ele>0.0</ele>
                <name>Av. Gral. Las Heras</name>
            </trkpt>
            <trkpt lon="-58.39005947113037" lat="-34.59327033319214">
                <ele>0.0</ele>
                <name>Montevideo</name>
            </trkpt>
            <trkpt lon="-58.389941453933716" lat="-34.595796249839736">
                <ele>0.0</ele>
                <name>Av. Santa Fe</name>
            </trkpt>
            <trkpt lon="-58.37767000000001" lat="-34.595081">
                <ele>0.0</ele>
                <name>Av. Santa Fe</name>
            </trkpt>
            <trkpt lon="-58.376948833465576" lat="-34.59582274506187">
                <ele>0.0</ele>
                <name>Maipú</name>
            </trkpt>
            <trkpt lon="-58.37639093399048" lat="-34.608168598973805">
                <ele>41.0</ele>
                <time>2011-07-13T20:48:40.564Z</time>
                <name>Chacabuco</name>
            </trkpt>
            <trkpt lon="-58.375446796417236" lat="-34.62457391024212">
                <ele>0.0</ele>
                <name>Chacabuco</name>
            </trkpt>
            <trkpt lon="-58.37457776069641" lat="-34.626798708123175">
                <ele>0.0</ele>
                <name>Av. Caseros</name>
            </trkpt>
            <trkpt lon="-58.37258219718933" lat="-34.6267457374383">
                <ele>0.0</ele>
                <name>Bolivar</name>
            </trkpt>
            <trkpt lon="-58.37162733078003" lat="-34.630974457363294">
                <ele>0.0</ele>
                <name>Pi y Margall</name>
            </trkpt>
            <trkpt lon="-58.370522260665894" lat="-34.6307802411288">
                <ele>0.0</ele>
                <name>Av. Regimiento de Patricios</name>
            </trkpt>
            <trkpt lon="-58.37029695510864" lat="-34.63363164290443">
                <ele>0.0</ele>
                <name>Av. Regimiento de Patricios</name>
            </trkpt>
            <trkpt lon="-58.368204832077026" lat="-34.64733112904415">
                <ele>0.0</ele>
                <name>Av. Gral. Iriarte</name>
            </trkpt>
            <trkpt lon="-58.37494254112244" lat="-34.648557970021514">
                <ele>0.0</ele>
                <name>Herrera</name>
            </trkpt>
            <trkpt lon="-58.37453484535217" lat="-34.64980244483853">
                <ele>0.0</ele>
                <name>Au. 9 de Julio</name>
            </trkpt>
            <trkpt lon="-58.37336540222168" lat="-34.65034082886376">
                <ele>0.0</ele>
                <name>Au. 9 de Julio</name>
            </trkpt>
            <trkpt lon="-58.37253928184509" lat="-34.651885353794334">
                <ele>0.0</ele>
                <name>Au. 9 de Julio</name>
            </trkpt>
            <trkpt lon="-58.37111234664917" lat="-34.65603336403099">
                <ele>0.0</ele>
                <name>Au. 9 de Julio</name>
            </trkpt>
            <trkpt lon="-58.370479345321655" lat="-34.657224775403925">
                <ele>0.0</ele>
                <name>Au. 9 de Julio</name>
            </trkpt>
            <trkpt lon="-58.37032914161682" lat="-34.65860149610444">
                <ele>0.0</ele>
                <name>Au. 9 de Julio</name>
            </trkpt>
            <trkpt lon="-58.37006092071533" lat="-34.658963322749734">
                <ele>0.0</ele>
                <name>Maipú</name>
            </trkpt>
            <trkpt lon="-58.370312" lat="-34.65963">
                <ele>0.0</ele>
                <name>Av. Manuel Belgrano</name>
            </trkpt>
            <trkpt lon="-58.36841940879822" lat="-34.661451941265774">
                <ele>0.0</ele>
                <name>Av. Manuel Belgrano</name>
            </trkpt>
            <trkpt lon="-58.36488962173462" lat="-34.66685251583984">
                <ele>0.0</ele>
                <name>Italia</name>
            </trkpt>
            <trkpt lon="-58.36140275001526" lat="-34.66439053285443">
                <ele>16.0</ele>
                <time>2011-07-13T20:52:07.790Z</time>
                <name>12 de Octubre</name>
            </trkpt>
            <trkpt lon="-58.357399" lat="-34.661469">
                <ele>0.0</ele>
                <name>Av. Gral. Roca</name>
            </trkpt>
            <trkpt lon="-58.35615634918213" lat="-34.6618578790403">
                <ele>0.0</ele>
                <name>Gral Lamadrid</name>
            </trkpt>
            <trkpt lon="-58.35365653038025" lat="-34.660066443015715">
                <ele>0.0</ele>
                <name>Ricardo Gutierrez</name>
            </trkpt>
            <trkpt lon="-58.350995779037476" lat="-34.663569855601864">
                <ele>0.0</ele>
                <name>Ricardo Gutierrez</name>
            </trkpt>
            <trkpt lon="-58.344998359680176" lat="-34.67013504601513">
                <ele>0.0</ele>
                <name>Hernán Cortes</name>
            </trkpt>
            <trkpt lon="-58.347519636154175" lat="-34.671776262327505">
                <ele>0.0</ele>
                <name>Av. Gral. Roca</name>
            </trkpt>
            <trkpt lon="-58.34493398666382" lat="-34.67458213747453">
                <ele>0.0</ele>
                <name>Gral. Escalada</name>
            </trkpt>
            <trkpt lon="-58.34607124328613" lat="-34.67525270991465">
                <ele>0.0</ele>
                <name>José Manuel Estrada</name>
            </trkpt>
            <trkpt lon="-58.34582448005676" lat="-34.6755262313247">
                <ele>0.0</ele>
                <name>Gral. Escalada</name>
            </trkpt>
            <trkpt lon="-58.34807753562927" lat="-34.67680559366793">
                <ele>0.0</ele>
                <name>Av. Bartolomé Mitre</name>
            </trkpt>
            <trkpt lon="-58.3438503742218" lat="-34.68264629341126">
                <ele>0.0</ele>
                <name>Av. Bartolomé Mitre</name>
            </trkpt>
            <trkpt lon="-58.3404815196991" lat="-34.68658985615586">
                <ele>0.0</ele>
                <name>Av. Bartolomé Mitre</name>
            </trkpt>
            <trkpt lon="-58.337295055389404" lat="-34.68926290260605">
                <ele>0.0</ele>
                <name>Av. Bartolomé Mitre</name>
            </trkpt>
            <trkpt lon="-58.33033204078674" lat="-34.694158852951">
                <ele>0.0</ele>
                <name>Centenario Uruguayo</name>
            </trkpt>
            <trkpt lon="-58.35034132003784" lat="-34.711587849252396">
                <ele>0.0</ele>
                <name>Camacuá</name>
            </trkpt>
            <trkpt lon="-58.34691882133484" lat="-34.714180716087654">
                <ele>0.0</ele>
                <name>Camacuá y Bv. de Los Italianos</name>
            </trkpt>
        </trkseg>
    </trk>
    <trk>
        <name>A - Palermo</name>
        <desc>&lt;a href=&quot;http://www.masmapas.com/colectivo-10-palermo-recoleta-plaza-san-martin-pqe-lezama-sarandi-wilde-villa-dominico&quot;&gt;Mas info sobre la linea de colectivos 10 (Colectivo 10 - Palermo - Recoleta - Plaza San Martin - Pqe Lezama - Sarandi - Wilde - Villa DomíNico)&lt;/a&gt;</desc>
        <trkseg>
            <trkpt lon="-58.34691882133484" lat="-34.714207173493534">
                <ele>0.0</ele>
                <name>Bv. de Los Italianos</name>
            </trkpt>
            <trkpt lon="-58.34769129753113" lat="-34.714886244014586">
                <ele>0.0</ele>
                <name>Camino Gral. Belgrano</name>
            </trkpt>
            <trkpt lon="-58.350909948349" lat="-34.712072915555645">
                <ele>0.0</ele>
                <name>Centenario Urugayo</name>
            </trkpt>
            <trkpt lon="-58.3398699760437" lat="-34.70240633058087">
                <ele>0.0</ele>
                <name>Av. Larralde</name>
            </trkpt>
            <trkpt lon="-58.33709120750427" lat="-34.70453201777259">
                <ele>0.0</ele>
                <name>Matanza</name>
            </trkpt>
            <trkpt lon="-58.336018323898315" lat="-34.703623535738664">
                <ele>0.0</ele>
                <name>Gral. Arredondo</name>
            </trkpt>
            <trkpt lon="-58.339611" lat="-34.700668">
                <ele>0.0</ele>
                <name>Gral. Pico</name>
            </trkpt>
            <trkpt lon="-58.333303928375244" lat="-34.69541146398952">
                <ele>0.0</ele>
                <name>Av. Manuel Belgrano</name>
            </trkpt>
            <trkpt lon="-58.33511710166931" lat="-34.69396478475593">
                <ele>0.0</ele>
                <name>Posadas</name>
            </trkpt>
            <trkpt lon="-58.33287477493286" lat="-34.69201525627801">
                <ele>0.0</ele>
                <name>Av. Mitre</name>
            </trkpt>
            <trkpt lon="-58.33710193634033" lat="-34.68908646655704">
                <ele>0.0</ele>
                <name>Av. Mitre</name>
            </trkpt>
            <trkpt lon="-58.34034204483032" lat="-34.68633401550122">
                <ele>0.0</ele>
                <name>Av. Mitre</name>
            </trkpt>
            <trkpt lon="-58.346768617630005" lat="-34.67841138601703">
                <ele>0.0</ele>
                <name>Cmte. Craig</name>
            </trkpt>
            <trkpt lon="-58.34438681602478" lat="-34.67693794036855">
                <ele>0.0</ele>
                <name>Av. Debenedetti</name>
            </trkpt>
            <trkpt lon="-58.34421515464783" lat="-34.669561495012815">
                <ele>0.0</ele>
                <name>Estanislao de Campo</name>
            </trkpt>
            <trkpt lon="-58.3459210395813" lat="-34.66777022554623">
                <ele>0.0</ele>
                <name>Estanislao de Campo</name>
            </trkpt>
            <trkpt lon="-58.35310935974121" lat="-34.65831909372266">
                <ele>0.0</ele>
                <name>12 de Octubre</name>
            </trkpt>
            <trkpt lon="-58.357002" lat="-34.661118">
                <ele>0.0</ele>
                <name>Av. Gral. Roca</name>
            </trkpt>
            <trkpt lon="-58.357475996017456" lat="-34.660287065306825">
                <ele>0.0</ele>
                <name>Laprida</name>
            </trkpt>
            <trkpt lon="-58.36238980293274" lat="-34.663878713586335">
                <ele>0.0</ele>
                <name>Av. Mitre</name>
            </trkpt>
            <trkpt lon="-58.36440682411194" lat="-34.66288153938039">
                <ele>0.0</ele>
                <name>Av. Mitre</name>
            </trkpt>
            <trkpt lon="-58.37009310722351" lat="-34.6587691720633">
                <ele>0.0</ele>
                <name>Au. 9 de Julio</name>
            </trkpt>
            <trkpt lon="-58.37029695510864" lat="-34.65744540526016">
                <ele>0.0</ele>
                <name>Au. 9 de Julio</name>
            </trkpt>
            <trkpt lon="-58.371015787124634" lat="-34.65600688802818">
                <ele>0.0</ele>
                <name>Au. 9 de Julio</name>
            </trkpt>
            <trkpt lon="-58.3724319934845" lat="-34.651426412248625">
                <ele>0.0</ele>
                <name>Au. 9 de Julio</name>
            </trkpt>
            <trkpt lon="-58.37261438369751" lat="-34.64908753605678">
                <ele>10.0</ele>
                <time>2011-07-13T20:59:52.773Z</time>
                <name>Av. Manuel Montes de Oca</name>
            </trkpt>
            <trkpt lon="-58.373096" lat="-34.64666">
                <ele>0.0</ele>
                <name>California</name>
            </trkpt>
            <trkpt lon="-58.368473052978516" lat="-34.64568060211018">
                <ele>0.0</ele>
                <name>Av. Patricios</name>
            </trkpt>
            <trkpt lon="-58.370457887649536" lat="-34.63172483399729">
                <ele>0.0</ele>
                <name>Tomas Liberti</name>
            </trkpt>
            <trkpt lon="-58.37140202522278" lat="-34.63182194106567">
                <ele>0.0</ele>
                <name>Ruy Díaz de Guzmán</name>
            </trkpt>
            <trkpt lon="-58.37160587310791" lat="-34.63101859735319">
                <ele>0.0</ele>
                <name>Piedras</name>
            </trkpt>
            <trkpt lon="-58.37368726730347" lat="-34.62973852811144">
                <ele>0.0</ele>
                <name>Piedras</name>
            </trkpt>
            <trkpt lon="-58.37628364562988" lat="-34.626286656752846">
                <ele>0.0</ele>
                <name>Piedras</name>
            </trkpt>
            <trkpt lon="-58.37709903717041" lat="-34.62348797532694">
                <ele>0.0</ele>
                <name>Piedras</name>
            </trkpt>
            <trkpt lon="-58.3778178691864" lat="-34.60821275109452">
                <ele>41.0</ele>
                <time>2011-07-13T21:01:03.145Z</time>
                <name>Esmeralda</name>
            </trkpt>
            <trkpt lon="-58.37852597236633" lat="-34.59514269835216">
                <ele>0.0</ele>
                <name>Av. Santa Fe</name>
            </trkpt>
            <trkpt lon="-58.38575720787048" lat="-34.59568143711287">
                <ele>38.0</ele>
                <time>2011-07-13T21:01:50.296Z</time>
                <name>Av. Santa Fe</name>
            </trkpt>
            <trkpt lon="-58.39333176612854" lat="-34.595840408538585">
                <ele>0.0</ele>
                <name>Av. Callao</name>
            </trkpt>
            <trkpt lon="-58.39282751083374" lat="-34.59266975429625">
                <ele>0.0</ele>
                <name>Av. Callao</name>
            </trkpt>
            <trkpt lon="-58.39189410209656" lat="-34.59179537431838">
                <ele>43.0</ele>
                <time>2011-07-13T21:02:21.037Z</time>
                <name>Av. Gral. Las Heras</name>
            </trkpt>
            <trkpt lon="-58.39727997779846" lat="-34.58742333639354">
                <ele>0.0</ele>
                <name>Av. Gral. Las Heras</name>
            </trkpt>
            <trkpt lon="-58.399951457977295" lat="-34.58500315992031">
                <ele>0.0</ele>
                <name>Av. Gral. Las Heras</name>
            </trkpt>
            <trkpt lon="-58.40202212333679" lat="-34.583439723776664">
                <ele>18.0</ele>
                <time>2011-07-13T21:02:55.154Z</time>
                <name>Av. Gral. Las Heras</name>
            </trkpt>
            <trkpt lon="-58.40615272521973" lat="-34.58345738988609">
                <ele>0.0</ele>
                <name>Av. Gral. Las Heras</name>
            </trkpt>
            <trkpt lon="-58.41102230688483" lat="-34.58186733910692">
                <ele>0.0</ele>
                <name>Av. Gral. Las Heras</name>
            </trkpt>
            <trkpt lon="-58.42006802558899" lat="-34.58137276305144">
                <ele>0.0</ele>
                <name>Pza. Italia</name>
            </trkpt>
            <trkpt lon="-58.420668840408325" lat="-34.58071909810629">
                <ele>0.0</ele>
                <name>Pza. Italia</name>
            </trkpt>
            <trkpt lon="-58.42175245285034" lat="-34.580754431478006">
                <ele>0.0</ele>
                <name>Av. Santa Fe</name>
            </trkpt>
            <trkpt lon="-58.42524" lat="-34.578617">
                <ele>0.0</ele>
                <name>Godoy Cruz</name>
            </trkpt>
            <trkpt lon="-58.4223210811615" lat="-34.57551609517551">
                <ele>0.0</ele>
                <name>Av. Cervino</name>
            </trkpt>
            <trkpt lon="-58.42499256134033" lat="-34.57455319474554">
                <ele>0.0</ele>
                <name>Av. Int. Bullrich</name>
            </trkpt>
            <trkpt lon="-58.42326400000001" lat="-34.571205">
                <ele>0.0</ele>
                <name>Av. Int. Bullrich y Av. del Libertador</name>
            </trkpt>
        </trkseg>
    </trk>
</gpx>
