<?xml version="1.0" encoding="UTF-8" standalone="yes"?>
<gpx xmlns="http://www.topografix.com/GPX/1/1" xmlns:gpxtrx="http://www.garmin.com/xmlschemas/GpxExtensions/v3" xmlns:rcxx="http://www.routeconverter.de/xmlschemas/RouteCatalogExtensions/1.0" xmlns:xsi="http://www.w3.org/2001/XMLSchema-instance" xmlns:gpxtpx="http://www.garmin.com/xmlschemas/TrackPointExtension/v1" xmlns:gpxx="http://www.garmin.com/xmlschemas/WaypointExtension/v1" xmlns:nmea="http://trekbuddy.net/2009/01/gpx/nmea" creator="Generated by Christian Pesch's RouteConverter. See http://www.routeconverter.com" version="1.1">
    <trk>
        <name>A - Liniers</name>
        <trkseg>
            <trkpt lon="-58.4088134765625" lat="-34.609281225256595">
                <ele>24.0</ele>
                <time>2011-08-29T17:48:04.747Z</time>
                <name>Mitre</name>
            </trkpt>
            <trkpt lon="-58.40609908103943" lat="-34.60912227955762">
                <ele>24.0</ele>
                <time>2011-08-29T17:48:15.930Z</time>
                <name>Pueyrredón</name>
            </trkpt>
            <trkpt lon="-58.40601325035095" lat="-34.61003179805726">
                <ele>24.0</ele>
                <time>2011-08-29T17:48:23.380Z</time>
                <name>Av. Rivadavia</name>
            </trkpt>
            <trkpt lon="-58.41975688934326" lat="-34.61108258857862">
                <ele>38.0</ele>
                <time>2011-08-29T17:49:34.524Z</time>
                <name>Av. Rivadavia</name>
            </trkpt>
            <trkpt lon="-58.42104434967041" lat="-34.611400472166466">
                <ele>32.0</ele>
                <time>2011-08-29T17:49:46.971Z</time>
                <name>Av. Rivadavia</name>
            </trkpt>
            <trkpt lon="-58.44522714614868" lat="-34.6221548162837">
                <ele>27.0</ele>
                <time>2011-08-29T17:50:16.247Z</time>
                <name>Av. Rivadavia</name>
            </trkpt>
            <trkpt lon="-58.459882736206055" lat="-34.627893428039144">
                <ele>31.0</ele>
                <time>2011-08-29T17:50:25.219Z</time>
                <name>Av. Rivadavia</name>
            </trkpt>
            <trkpt lon="-58.477842807769775" lat="-34.632872455720666">
                <ele>32.0</ele>
                <time>2011-08-29T17:50:28.131Z</time>
                <name>San Nicolas</name>
            </trkpt>
            <trkpt lon="-58.478357791900635" lat="-34.63176014567167">
                <ele>26.0</ele>
                <time>2011-08-29T17:50:28.386Z</time>
                <name>Yerbal</name>
            </trkpt>
            <trkpt lon="-58.47938776016235" lat="-34.63209560582862">
                <ele>27.0</ele>
                <time>2011-08-29T17:50:28.612Z</time>
                <name>Ensenada</name>
            </trkpt>
            <trkpt lon="-58.47747802734375" lat="-34.63645646442098">
                <ele>27.0</ele>
                <time>2011-08-29T17:50:28.879Z</time>
                <name>Av. Juan B. Alberdi</name>
            </trkpt>
            <trkpt lon="-58.49537372589111" lat="-34.6448597395831">
                <ele>27.0</ele>
                <time>2011-08-29T17:50:29.433Z</time>
                <name>Av. Bruix</name>
            </trkpt>
            <trkpt lon="-58.48670482635498" lat="-34.647066340839736">
                <ele>25.0</ele>
                <time>2011-08-29T17:50:29.586Z</time>
                <name>Av. Directorio</name>
            </trkpt>
            <trkpt lon="-58.49887132644653" lat="-34.65732185261303">
                <ele>21.0</ele>
                <time>2011-08-29T17:50:29.723Z</time>
                <name>Oliden</name>
            </trkpt>
            <trkpt lon="-58.504085540771484" lat="-34.652997393925176">
                <ele>22.0</ele>
                <time>2011-08-29T17:50:29.723Z</time>
                <name>Av. Juan B. Alberdi</name>
            </trkpt>
            <trkpt lon="-58.50470781326294" lat="-34.65363283873038">
                <ele>29.0</ele>
                <time>2011-08-29T17:50:45.883Z</time>
                <name>Av. Juan B. Alberdi</name>
            </trkpt>
            <trkpt lon="-58.51052284240723" lat="-34.65783371238061">
                <ele>30.0</ele>
                <time>2011-08-29T17:51:02.043Z</time>
                <name>Av. Juan B. Alberdi</name>
            </trkpt>
            <trkpt lon="-58.51421356201172" lat="-34.66012821731644">
                <ele>26.0</ele>
                <time>2011-08-29T17:51:34.364Z</time>
                <name>Montiel</name>
            </trkpt>
            <trkpt lon="-58.52560758590698" lat="-34.651426412248625">
                <ele>27.0</ele>
                <time>2011-08-29T17:52:13.823Z</time>
                <name>Montiel</name>
            </trkpt>
            <trkpt lon="-58.52642297744751" lat="-34.639139955752896">
                <ele>31.0</ele>
                <time>2011-08-29T17:52:24.681Z</time>
                <name>Montiel</name>
            </trkpt>
        </trkseg>
    </trk>
    <trk>
        <name>A - Plaza de Miserere (Once)</name>
        <trkseg>
            <trkpt lon="-58.529040813446045" lat="-34.64053463077299">
                <ele>31.0</ele>
                <time>2011-08-29T17:52:24.681Z</time>
                <name>Av. Gral. Paz Este</name>
            </trkpt>
            <trkpt lon="-58.529062271118164" lat="-34.63940476926948">
                <ele>28.0</ele>
                <time>2011-08-29T17:52:19.252Z</time>
                <name>Av. Rivadavia</name>
            </trkpt>
            <trkpt lon="-58.525071144104004" lat="-34.6390516843928">
                <ele>27.0</ele>
                <time>2011-08-29T17:52:16.537Z</time>
                <name>Carhué</name>
            </trkpt>
            <trkpt lon="-58.524792194366455" lat="-34.642811961082224">
                <ele>27.0</ele>
                <time>2011-08-29T17:52:13.823Z</time>
                <name>Ventura Bosch</name>
            </trkpt>
            <trkpt lon="-58.52743148803711" lat="-34.64290022843985">
                <ele>28.0</ele>
                <time>2011-08-29T17:51:54.093Z</time>
                <name>José León Suárez</name>
            </trkpt>
            <trkpt lon="-58.526809215545654" lat="-34.652467852866316">
                <ele>28.0</ele>
                <time>2011-08-29T17:51:44.228Z</time>
                <name>José León Suárez</name>
            </trkpt>
            <trkpt lon="-58.52292537689209" lat="-34.65548619158741">
                <ele>29.0</ele>
                <time>2011-08-29T17:51:39.296Z</time>
                <name>Av. Emilio Castro</name>
            </trkpt>
            <trkpt lon="-58.52187395095825" lat="-34.65495666642842">
                <ele>27.0</ele>
                <time>2011-08-29T17:51:36.830Z</time>
                <name>Molina</name>
            </trkpt>
            <trkpt lon="-58.51537227630615" lat="-34.65986346998913">
                <ele>26.0</ele>
                <time>2011-08-29T17:51:34.364Z</time>
                <name>Zequeira</name>
            </trkpt>
            <trkpt lon="-58.515543937683105" lat="-34.66004879320705">
                <ele>26.0</ele>
                <time>2011-08-29T17:51:18.203Z</time>
                <name>Lasserre</name>
            </trkpt>
            <trkpt lon="-58.51493239402771" lat="-34.66057828583171">
                <ele>26.0</ele>
                <time>2011-08-29T17:51:10.123Z</time>
                <name>Av. Juan B. Alberdi</name>
            </trkpt>
            <trkpt lon="-58.51045846939087" lat="-34.657886663210604">
                <ele>30.0</ele>
                <time>2011-08-29T17:51:02.043Z</time>
                <name>Av. Juan B. Alberdi</name>
            </trkpt>
            <trkpt lon="-58.50468635559082" lat="-34.6537387457243">
                <ele>29.0</ele>
                <time>2011-08-29T17:50:45.883Z</time>
                <name>Murguiondo</name>
            </trkpt>
            <trkpt lon="-58.50175738334656" lat="-34.65656288231116">
                <ele>22.0</ele>
                <time>2011-08-29T17:50:29.723Z</time>
                <name>Murguiondo</name>
            </trkpt>
            <trkpt lon="-58.499804735183716" lat="-34.65818671727494">
                <ele>21.0</ele>
                <time>2011-08-29T17:50:29.723Z</time>
                <name>Av. Directorio</name>
            </trkpt>
            <trkpt lon="-58.47990274429321" lat="-34.64131140162726">
                <ele>25.0</ele>
                <time>2011-08-29T17:50:29.586Z</time>
                <name>Av. Directorio</name>
            </trkpt>
            <trkpt lon="-58.476115465164185" lat="-34.63892810433082">
                <ele>27.0</ele>
                <time>2011-08-29T17:50:29.433Z</time>
                <name>Acosta</name>
            </trkpt>
            <trkpt lon="-58.48093271255493" lat="-34.635044065687964">
                <ele>27.0</ele>
                <time>2011-08-29T17:50:28.879Z</time>
                <name>Falcón</name>
            </trkpt>
            <trkpt lon="-58.47979545593262" lat="-34.634814548622195">
                <ele>27.0</ele>
                <time>2011-08-29T17:50:28.612Z</time>
                <name>Candelaria</name>
            </trkpt>
            <trkpt lon="-58.480353355407715" lat="-34.6335433656819">
                <ele>32.0</ele>
                <time>2011-08-29T17:50:28.131Z</time>
                <name>Av. Rivadavia</name>
            </trkpt>
            <trkpt lon="-58.47355127334595" lat="-34.63179545733102">
                <ele>34.0</ele>
                <time>2011-08-29T17:50:26.675Z</time>
                <name>Av. Rivadavia</name>
            </trkpt>
            <trkpt lon="-58.459861278533936" lat="-34.62805233779416">
                <ele>31.0</ele>
                <time>2011-08-29T17:50:25.219Z</time>
                <name>Av. Rivadavia</name>
            </trkpt>
            <trkpt lon="-58.44522714614868" lat="-34.6221548162837">
                <ele>27.0</ele>
                <time>2011-08-29T17:50:16.247Z</time>
                <name>Av. Rivadavia</name>
            </trkpt>
            <trkpt lon="-58.441171646118164" lat="-34.62084812306072">
                <ele>31.0</ele>
                <time>2011-08-29T17:50:01.609Z</time>
                <name>Del Barco Centenera</name>
            </trkpt>
            <trkpt lon="-58.44093561172485" lat="-34.621925263558595">
                <ele>41.0</ele>
                <time>2011-08-29T17:49:54.290Z</time>
                <name>Guayaquil</name>
            </trkpt>
            <trkpt lon="-58.4382963180542" lat="-34.62162507826766">
                <ele>41.0</ele>
                <time>2011-08-29T17:49:50.630Z</time>
                <name>Guayaquil</name>
            </trkpt>
            <trkpt lon="-58.43698740005493" lat="-34.62106002065673">
                <ele>38.0</ele>
                <time>2011-08-29T17:49:48.800Z</time>
                <name>Riglos</name>
            </trkpt>
            <trkpt lon="-58.43681573867798" lat="-34.62144849817755">
                <ele>33.0</ele>
                <time>2011-08-29T17:49:47.885Z</time>
                <name>Formosa</name>
            </trkpt>
            <trkpt lon="-58.435142040252686" lat="-34.62128957577519">
                <ele>34.0</ele>
                <time>2011-08-29T17:49:47.428Z</time>
                <name>Av. José Maria Moreno</name>
            </trkpt>
            <trkpt lon="-58.436408042907715" lat="-34.61830530970833">
                <ele>32.0</ele>
                <time>2011-08-29T17:49:47.199Z</time>
                <name>Av. Acoyte</name>
            </trkpt>
            <trkpt lon="-58.43760967254639" lat="-34.61586837380732">
                <ele>34.0</ele>
                <time>2011-08-29T17:49:47.085Z</time>
                <name>Av. Acoyte</name>
            </trkpt>
            <trkpt lon="-58.43775987625122" lat="-34.614102433519136">
                <ele>29.0</ele>
                <time>2011-08-29T17:49:47.028Z</time>
                <name>Avellaneda</name>
            </trkpt>
            <trkpt lon="-58.430335521698" lat="-34.61088832578685">
                <ele>27.0</ele>
                <time>2011-08-29T17:49:46.999Z</time>
                <name>Bartolomé Mitre</name>
            </trkpt>
            <trkpt lon="-58.42128038406372" lat="-34.609793381550055">
                <ele>28.0</ele>
                <time>2011-08-29T17:49:46.985Z</time>
                <name>Bartolomé Mitre</name>
            </trkpt>
            <trkpt lon="-58.40604543685913" lat="-34.60889269078857">
                <ele>24.0</ele>
                <time>2011-08-29T17:48:15.930Z</time>
                <name>Bartolomé Mitre</name>
            </trkpt>
        </trkseg>
    </trk>
    <trk>
        <name>B - San Justo</name>
        <trkseg>
            <trkpt lon="-58.4088134765625" lat="-34.609281225256595">
                <ele>24.0</ele>
                <time>2011-08-29T17:48:04.747Z</time>
                <name>Mitre</name>
            </trkpt>
            <trkpt lon="-58.40609908103943" lat="-34.60912227955762">
                <ele>24.0</ele>
                <time>2011-08-29T17:48:15.930Z</time>
                <name>Pueyrredón</name>
            </trkpt>
            <trkpt lon="-58.40601325035095" lat="-34.61003179805726">
                <ele>24.0</ele>
                <time>2011-08-29T17:48:23.380Z</time>
                <name>Av. Rivadavia</name>
            </trkpt>
            <trkpt lon="-58.41975688934326" lat="-34.61108258857862">
                <ele>38.0</ele>
                <time>2011-08-29T17:49:34.524Z</time>
                <name>Av. Rivadavia</name>
            </trkpt>
            <trkpt lon="-58.42104434967041" lat="-34.611400472166466">
                <ele>32.0</ele>
                <time>2011-08-29T17:49:46.971Z</time>
                <name>Av. Rivadavia</name>
            </trkpt>
            <trkpt lon="-58.44522714614868" lat="-34.6221548162837">
                <ele>27.0</ele>
                <time>2011-08-29T17:50:16.247Z</time>
                <name>Av. Rivadavia</name>
            </trkpt>
            <trkpt lon="-58.459882736206055" lat="-34.627893428039144">
                <ele>31.0</ele>
                <time>2011-08-29T17:50:25.219Z</time>
                <name>Av. Rivadavia</name>
            </trkpt>
            <trkpt lon="-58.477842807769775" lat="-34.632872455720666">
                <ele>32.0</ele>
                <time>2011-08-29T17:50:28.131Z</time>
                <name>San Nicolas</name>
            </trkpt>
            <trkpt lon="-58.478357791900635" lat="-34.63176014567167">
                <ele>26.0</ele>
                <time>2011-08-29T17:50:28.386Z</time>
                <name>Yerbal</name>
            </trkpt>
            <trkpt lon="-58.47938776016235" lat="-34.63209560582862">
                <ele>27.0</ele>
                <time>2011-08-29T17:50:28.612Z</time>
                <name>Ensenada</name>
            </trkpt>
            <trkpt lon="-58.47747802734375" lat="-34.63645646442098">
                <ele>27.0</ele>
                <time>2011-08-29T17:50:28.879Z</time>
                <name>Av. Juan B. Alberdi</name>
            </trkpt>
            <trkpt lon="-58.49537372589111" lat="-34.6448597395831">
                <ele>27.0</ele>
                <time>2011-08-29T17:50:29.433Z</time>
                <name>Av. Bruix</name>
            </trkpt>
            <trkpt lon="-58.48670482635498" lat="-34.647066340839736">
                <ele>25.0</ele>
                <time>2011-08-29T17:50:29.586Z</time>
                <name>Av. Directorio</name>
            </trkpt>
            <trkpt lon="-58.49887132644653" lat="-34.65732185261303">
                <ele>21.0</ele>
                <time>2011-08-29T17:50:29.723Z</time>
                <name>Oliden</name>
            </trkpt>
            <trkpt lon="-58.504085540771484" lat="-34.652997393925176">
                <ele>22.0</ele>
                <time>2011-08-29T17:50:29.723Z</time>
                <name>Av. Juan B. Alberdi</name>
            </trkpt>
            <trkpt lon="-58.50470781326294" lat="-34.65363283873038">
                <ele>29.0</ele>
                <time>2011-08-29T17:50:45.883Z</time>
                <name>Av. Juan B. Alberdi</name>
            </trkpt>
            <trkpt lon="-58.51052284240723" lat="-34.65783371238061">
                <ele>30.0</ele>
                <time>2011-08-29T17:51:02.043Z</time>
                <name>Av. Juan B. Alberdi</name>
            </trkpt>
            <trkpt lon="-58.51560831069946" lat="-34.66086950533317">
                <ele>26.0</ele>
                <time>2011-08-29T17:51:34.364Z</time>
                <name>Av. Juan B. Alberdi</name>
            </trkpt>
            <trkpt lon="-58.51859092712402" lat="-34.66252855448474">
                <ele>27.0</ele>
                <time>2011-08-29T17:52:13.823Z</time>
                <name>Av. Juan Manuel de Rosas</name>
            </trkpt>
            <trkpt lon="-58.526272773742676" lat="-34.665387688899955">
                <ele>27.0</ele>
                <time>2011-08-29T17:52:19.252Z</time>
                <name>Av. Juan Manuel de Rosas</name>
            </trkpt>
            <trkpt lon="-58.53419065475464" lat="-34.66867027711466">
                <ele>31.0</ele>
                <time>2011-08-29T17:52:24.681Z</time>
                <name>Av. Juan Manuel de Rosas</name>
            </trkpt>
            <trkpt lon="-58.545981645584106" lat="-34.67640855229707">
                <ele>33.0</ele>
                <time>2011-08-29T17:52:26.346Z</time>
                <name>Argentina</name>
            </trkpt>
            <trkpt lon="-58.547730445861816" lat="-34.67514683041664">
                <ele>30.0</ele>
                <time>2011-08-29T17:52:26.704Z</time>
                <name>Nazca</name>
            </trkpt>
            <trkpt lon="-58.548524379730225" lat="-34.67589680727799">
                <ele>31.0</ele>
                <time>2011-08-29T17:52:26.867Z</time>
                <name>Constitución</name>
            </trkpt>
            <trkpt lon="-58.54693651199341" lat="-34.67705264067135">
                <ele>31.0</ele>
                <time>2011-08-29T17:52:26.876Z</time>
                <name>Constitución</name>
            </trkpt>
        </trkseg>
    </trk>
    <trk>
        <name>B - Plaza de Miserere (Once)</name>
        <trkseg>
            <trkpt lon="-58.54695796966553" lat="-34.67719381005672">
                <ele>31.0</ele>
                <time>2011-08-29T17:52:24.681Z</time>
                <name>Av. Juan Manuel de Rosas</name>
            </trkpt>
            <trkpt lon="-58.53412628173828" lat="-34.668829108729305">
                <ele>28.0</ele>
                <time>2011-08-29T17:52:19.252Z</time>
                <name>Av. Juan Manuel de Rosas</name>
            </trkpt>
            <trkpt lon="-58.527560234069824" lat="-34.66604068724111">
                <ele>27.0</ele>
                <time>2011-08-29T17:52:16.537Z</time>
                <name>Av. Juan Manuel de Rosas</name>
            </trkpt>
            <trkpt lon="-58.52425575256348" lat="-34.66464644130287">
                <ele>27.0</ele>
                <time>2011-08-29T17:52:15.180Z</time>
                <name>Av. Juan Manuel de Rosas</name>
            </trkpt>
            <trkpt lon="-58.51799011230469" lat="-34.66240500941601">
                <ele>27.0</ele>
                <time>2011-08-29T17:52:13.823Z</time>
                <name>Av. Juan B. Alberdi</name>
            </trkpt>
            <trkpt lon="-58.51493239402771" lat="-34.66057828583171">
                <ele>26.0</ele>
                <time>2011-08-29T17:51:10.123Z</time>
                <name>Av. Juan B. Alberdi</name>
            </trkpt>
            <trkpt lon="-58.51045846939087" lat="-34.657886663210604">
                <ele>30.0</ele>
                <time>2011-08-29T17:51:02.043Z</time>
                <name>Av. Juan B. Alberdi</name>
            </trkpt>
            <trkpt lon="-58.50468635559082" lat="-34.6537387457243">
                <ele>29.0</ele>
                <time>2011-08-29T17:50:45.883Z</time>
                <name>Murguiondo</name>
            </trkpt>
            <trkpt lon="-58.50175738334656" lat="-34.65656288231116">
                <ele>22.0</ele>
                <time>2011-08-29T17:50:29.723Z</time>
                <name>Murguiondo</name>
            </trkpt>
            <trkpt lon="-58.499804735183716" lat="-34.65818671727494">
                <ele>21.0</ele>
                <time>2011-08-29T17:50:29.723Z</time>
                <name>Av. Directorio</name>
            </trkpt>
            <trkpt lon="-58.47990274429321" lat="-34.64131140162726">
                <ele>25.0</ele>
                <time>2011-08-29T17:50:29.586Z</time>
                <name>Av. Directorio</name>
            </trkpt>
            <trkpt lon="-58.476115465164185" lat="-34.63892810433082">
                <ele>27.0</ele>
                <time>2011-08-29T17:50:29.433Z</time>
                <name>Acosta</name>
            </trkpt>
            <trkpt lon="-58.48093271255493" lat="-34.635044065687964">
                <ele>27.0</ele>
                <time>2011-08-29T17:50:28.879Z</time>
                <name>Falcón</name>
            </trkpt>
            <trkpt lon="-58.47979545593262" lat="-34.634814548622195">
                <ele>27.0</ele>
                <time>2011-08-29T17:50:28.612Z</time>
                <name>Candelaria</name>
            </trkpt>
            <trkpt lon="-58.480353355407715" lat="-34.6335433656819">
                <ele>32.0</ele>
                <time>2011-08-29T17:50:28.131Z</time>
                <name>Av. Rivadavia</name>
            </trkpt>
            <trkpt lon="-58.47355127334595" lat="-34.63179545733102">
                <ele>34.0</ele>
                <time>2011-08-29T17:50:26.675Z</time>
                <name>Av. Rivadavia</name>
            </trkpt>
            <trkpt lon="-58.459861278533936" lat="-34.62805233779416">
                <ele>31.0</ele>
                <time>2011-08-29T17:50:25.219Z</time>
                <name>Av. Rivadavia</name>
            </trkpt>
            <trkpt lon="-58.44522714614868" lat="-34.6221548162837">
                <ele>27.0</ele>
                <time>2011-08-29T17:50:16.247Z</time>
                <name>Av. Rivadavia</name>
            </trkpt>
            <trkpt lon="-58.441171646118164" lat="-34.62084812306072">
                <ele>31.0</ele>
                <time>2011-08-29T17:50:01.609Z</time>
                <name>Del Barco Centenera</name>
            </trkpt>
            <trkpt lon="-58.44093561172485" lat="-34.621925263558595">
                <ele>41.0</ele>
                <time>2011-08-29T17:49:54.290Z</time>
                <name>Guayaquil</name>
            </trkpt>
            <trkpt lon="-58.4382963180542" lat="-34.62162507826766">
                <ele>41.0</ele>
                <time>2011-08-29T17:49:50.630Z</time>
                <name>Guayaquil</name>
            </trkpt>
            <trkpt lon="-58.43698740005493" lat="-34.62106002065673">
                <ele>38.0</ele>
                <time>2011-08-29T17:49:48.800Z</time>
                <name>Riglos</name>
            </trkpt>
            <trkpt lon="-58.43681573867798" lat="-34.62144849817755">
                <ele>33.0</ele>
                <time>2011-08-29T17:49:47.885Z</time>
                <name>Formosa</name>
            </trkpt>
            <trkpt lon="-58.435142040252686" lat="-34.62128957577519">
                <ele>34.0</ele>
                <time>2011-08-29T17:49:47.428Z</time>
                <name>Av. José Maria Moreno</name>
            </trkpt>
            <trkpt lon="-58.436408042907715" lat="-34.61830530970833">
                <ele>32.0</ele>
                <time>2011-08-29T17:49:47.199Z</time>
                <name>Av. Acoyte</name>
            </trkpt>
            <trkpt lon="-58.43760967254639" lat="-34.61586837380732">
                <ele>34.0</ele>
                <time>2011-08-29T17:49:47.085Z</time>
                <name>Av. Acoyte</name>
            </trkpt>
            <trkpt lon="-58.43775987625122" lat="-34.614102433519136">
                <ele>29.0</ele>
                <time>2011-08-29T17:49:47.028Z</time>
                <name>Avellaneda</name>
            </trkpt>
            <trkpt lon="-58.430335521698" lat="-34.61088832578685">
                <ele>27.0</ele>
                <time>2011-08-29T17:49:46.999Z</time>
                <name>Bartolomé Mitre</name>
            </trkpt>
            <trkpt lon="-58.42128038406372" lat="-34.609793381550055">
                <ele>28.0</ele>
                <time>2011-08-29T17:49:46.985Z</time>
                <name>Bartolomé Mitre</name>
            </trkpt>
            <trkpt lon="-58.40604543685913" lat="-34.60889269078857">
                <ele>24.0</ele>
                <time>2011-08-29T17:48:15.930Z</time>
                <name>Bartolomé Mitre</name>
            </trkpt>
        </trkseg>
    </trk>
</gpx>
