<?xml version="1.0" encoding="UTF-8" standalone="yes"?>
<gpx xmlns="http://www.topografix.com/GPX/1/1" xmlns:gpxtrx="http://www.garmin.com/xmlschemas/GpxExtensions/v3" xmlns:rcxx="http://www.routeconverter.de/xmlschemas/RouteCatalogExtensions/1.0" xmlns:xsi="http://www.w3.org/2001/XMLSchema-instance" xmlns:gpxtpx="http://www.garmin.com/xmlschemas/TrackPointExtension/v1" xmlns:gpxx="http://www.garmin.com/xmlschemas/WaypointExtension/v1" xmlns:nmea="http://trekbuddy.net/2009/01/gpx/nmea" creator="Generated by Christian Pesch's RouteConverter. See http://www.routeconverter.com" version="1.1">
    <trk>
        <name>A y B - Ciudad Universitaria por Av. Del Libertador</name>
        <desc>&lt;a href=&quot;http://www.masmapas.com/colectivo-107-av-san-juan-bautista-de-la-salle-y-av-eva-peron-ciudad-universitaria&quot;&gt;Mas info sobre la linea de colectivos 107 (Colectivo 107 - Av. San Juan Bautista De La Salle Y Av. Eva Peron - Ciudad Universitaria )&lt;/a&gt;</desc>
        <trkseg>
            <trkpt lon="-58.475611209869385" lat="-34.65490371372645">
                <ele>0.0</ele>
                <name>Av. Eva Perón</name>
            </trkpt>
            <trkpt lon="-58.47874402999878" lat="-34.657718985466204">
                <ele>0.0</ele>
                <name>Av. Olivera</name>
            </trkpt>
            <trkpt lon="-58.484086990356445" lat="-34.64811666240812">
                <ele>0.0</ele>
                <name>Av. Olivera</name>
            </trkpt>
            <trkpt lon="-58.48454833030701" lat="-34.645301064532454">
                <ele>0.0</ele>
                <name>Av. Olivera</name>
            </trkpt>
            <trkpt lon="-58.4872841835022" lat="-34.636509428905605">
                <ele>0.0</ele>
                <name>Falcón</name>
            </trkpt>
            <trkpt lon="-58.48629713058472" lat="-34.63627108845845">
                <ele>0.0</ele>
                <name>Carrasco</name>
            </trkpt>
            <trkpt lon="-58.49751949310303" lat="-34.627460838830714">
                <ele>0.0</ele>
                <name>Cesar Díaz</name>
            </trkpt>
            <trkpt lon="-58.49822759628296" lat="-34.62801702454157">
                <ele>0.0</ele>
                <name>Bermudez</name>
            </trkpt>
            <trkpt lon="-58.525049686431885" lat="-34.60742683983539">
                <ele>0.0</ele>
                <name>Av. Salvador Maria del Carril</name>
            </trkpt>
            <trkpt lon="-58.518043756484985" lat="-34.60298497682878">
                <ele>0.0</ele>
                <name>Gutiérrez</name>
            </trkpt>
            <trkpt lon="-58.516316413879395" lat="-34.6029319909454">
                <ele>31.0</ele>
                <time>2011-08-29T19:01:44.690Z</time>
                <name>Nueva York</name>
            </trkpt>
            <trkpt lon="-58.51562976837158" lat="-34.60255225779187">
                <ele>32.0</ele>
                <time>2011-08-29T19:01:44.690Z</time>
                <name>Gutiérrez</name>
            </trkpt>
            <trkpt lon="-58.51295828819275" lat="-34.60237563712885">
                <ele>0.0</ele>
                <name>Gualeguaychú</name>
            </trkpt>
            <trkpt lon="-58.51375222206116" lat="-34.60143071020121">
                <ele>0.0</ele>
                <name>Nueva York</name>
            </trkpt>
            <trkpt lon="-58.51070523262024" lat="-34.59954082409229">
                <ele>0.0</ele>
                <name>Bahia Blanca</name>
            </trkpt>
            <trkpt lon="-58.51199269294739" lat="-34.59806597655389">
                <ele>0.0</ele>
                <name>Av. Enciso</name>
            </trkpt>
            <trkpt lon="-58.51091980934143" lat="-34.59159223421832">
                <ele>0.0</ele>
                <name>Av. Mosconi</name>
            </trkpt>
            <trkpt lon="-58.49342107772827" lat="-34.580895764814635">
                <ele>28.0</ele>
                <time>2011-08-29T19:03:11.814Z</time>
                <name>Av. Olazabal</name>
            </trkpt>
            <trkpt lon="-58.486855030059814" lat="-34.57704434543639">
                <ele>0.0</ele>
                <name>Bucarelli</name>
            </trkpt>
            <trkpt lon="-58.488346338272095" lat="-34.57541008833506">
                <ele>0.0</ele>
                <name>Av. Monroe</name>
            </trkpt>
            <trkpt lon="-58.48875403404236" lat="-34.57563093576677">
                <ele>0.0</ele>
                <name>Bucarelli</name>
            </trkpt>
            <trkpt lon="-58.48938703536987" lat="-34.57490655399694">
                <ele>0.0</ele>
                <name>Av. Roosevelt</name>
            </trkpt>
            <trkpt lon="-58.486125469207764" lat="-34.57298072786391">
                <ele>0.0</ele>
                <name>Colodrero</name>
            </trkpt>
            <trkpt lon="-58.48850727081299" lat="-34.56999472574752">
                <ele>0.0</ele>
                <name>Breton</name>
            </trkpt>
            <trkpt lon="-58.486608266830444" lat="-34.568943415454825">
                <ele>27.0</ele>
                <time>2011-08-29T19:04:06.851Z</time>
                <name>Breton</name>
            </trkpt>
            <trkpt lon="-58.48668336868286" lat="-34.568837400233754">
                <ele>0.0</ele>
                <name>Breton</name>
            </trkpt>
            <trkpt lon="-58.48519206047058" lat="-34.567927430693686">
                <ele>0.0</ele>
                <name>Valdenegro</name>
            </trkpt>
            <trkpt lon="-58.48438739776611" lat="-34.56889040786119">
                <ele>0.0</ele>
                <name>Huapi</name>
            </trkpt>
            <trkpt lon="-58.47402334213257" lat="-34.56265294509898">
                <ele>0.0</ele>
                <name>Av. Melián</name>
            </trkpt>
            <trkpt lon="-58.471394777297974" lat="-34.56547134669211">
                <ele>0.0</ele>
                <name>Av. Monroe</name>
            </trkpt>
            <trkpt lon="-58.46647024154663" lat="-34.562237686634774">
                <ele>0.0</ele>
                <name>Av. Balbín</name>
            </trkpt>
            <trkpt lon="-58.465129137039185" lat="-34.562803144458435">
                <ele>0.0</ele>
                <name>Encalada</name>
            </trkpt>
            <trkpt lon="-58.455365896224976" lat="-34.557024691248884">
                <ele>0.0</ele>
                <name>O'Higgins</name>
            </trkpt>
            <trkpt lon="-58.45381021499634" lat="-34.55889787295873">
                <ele>0.0</ele>
                <name>Mendoza</name>
            </trkpt>
            <trkpt lon="-58.44196557998657" lat="-34.551802532754046">
                <ele>0.0</ele>
                <name>Dragones</name>
            </trkpt>
            <trkpt lon="-58.4402596950531" lat="-34.55371117691234">
                <ele>0.0</ele>
                <name>Echeverría</name>
            </trkpt>
            <trkpt lon="-58.436676263809204" lat="-34.55159045847819">
                <ele>0.0</ele>
                <name>:ign:Puente</name>
            </trkpt>
            <trkpt lon="-58.437159061431885" lat="-34.55042404029887">
                <ele>0.0</ele>
                <name>:ign:Puente</name>
            </trkpt>
            <trkpt lon="-58.437384366989136" lat="-34.54813533893088">
                <ele>0.0</ele>
                <name>Güiraldes</name>
            </trkpt>
            <trkpt lon="-58.43882203102112" lat="-34.54542239516342">
                <ele>0.0</ele>
                <name>Güiraldes</name>
            </trkpt>
            <trkpt lon="-58.441128730773926" lat="-34.54533402417229">
                <ele>0.0</ele>
                <name>Güiraldes</name>
            </trkpt>
            <trkpt lon="-58.44107508659363" lat="-34.54323960421733">
                <ele>0.0</ele>
                <name>Ciudad Universitaria</name>
            </trkpt>
            <trkpt lon="-58.44230890274048" lat="-34.542921459866356">
                <ele>0.0</ele>
                <name>Ciudad Universitaria</name>
            </trkpt>
            <trkpt lon="-58.445892333984375" lat="-34.54185213244068">
                <ele>0.0</ele>
                <name>Ciudad Universitaria</name>
            </trkpt>
        </trkseg>
    </trk>
    <trk>
        <name>A - Av. Eva Perón y Av. de La Salle por Av. Del Libertador</name>
        <desc>&lt;a href=&quot;http://www.masmapas.com/colectivo-107-av-san-juan-bautista-de-la-salle-y-av-eva-peron-ciudad-universitaria&quot;&gt;Mas info sobre la linea de colectivos 107 (Colectivo 107 - Av. San Juan Bautista De La Salle Y Av. Eva Peron - Ciudad Universitaria )&lt;/a&gt;</desc>
        <trkseg>
            <trkpt lon="-58.446139097213745" lat="-34.54167538278283">
                <ele>0.0</ele>
                <name>Ciudad Universitaria</name>
            </trkpt>
            <trkpt lon="-58.44105362892151" lat="-34.543398675936785">
                <ele>0.0</ele>
                <name>Güiraldes</name>
            </trkpt>
            <trkpt lon="-58.44120383262634" lat="-34.54575820407397">
                <ele>0.0</ele>
                <name>Cantilo</name>
            </trkpt>
            <trkpt lon="-58.44178318977356" lat="-34.54593494506159">
                <ele>0.0</ele>
                <name>:2way:Cantilo</name>
            </trkpt>
            <trkpt lon="-58.45003366470337" lat="-34.541224669456504">
                <ele>0.0</ele>
                <name>Cantilo</name>
            </trkpt>
            <trkpt lon="-58.449883460998535" lat="-34.54061487695398">
                <ele>0.0</ele>
                <name>Puente</name>
            </trkpt>
            <trkpt lon="-58.44882130622864" lat="-34.540597201742365">
                <ele>0.0</ele>
                <name>:ign:Puente</name>
            </trkpt>
            <trkpt lon="-58.44820976257324" lat="-34.54126885714543">
                <ele>0.0</ele>
                <name>:ign:Puente</name>
            </trkpt>
            <trkpt lon="-58.44971179962158" lat="-34.543168905577765">
                <ele>0.0</ele>
                <name>Av. Udaondo</name>
            </trkpt>
            <trkpt lon="-58.454636335372925" lat="-34.54903668829617">
                <ele>0.0</ele>
                <name>Av. Del Libertador</name>
            </trkpt>
            <trkpt lon="-58.45108509063721" lat="-34.55298660419327">
                <ele>0.0</ele>
                <name>Av. Monroe</name>
            </trkpt>
            <trkpt lon="-58.47048282623291" lat="-34.56480872167683">
                <ele>0.0</ele>
                <name>Roque Pérez</name>
            </trkpt>
            <trkpt lon="-58.47225308418274" lat="-34.56300635492477">
                <ele>0.0</ele>
                <name>Dr. Rivera</name>
            </trkpt>
            <trkpt lon="-58.47415208816528" lat="-34.56411958606033">
                <ele>0.0</ele>
                <name>Washington</name>
            </trkpt>
            <trkpt lon="-58.47502112388611" lat="-34.56315655364599">
                <ele>0.0</ele>
                <name>Ugarte</name>
            </trkpt>
            <trkpt lon="-58.47818613052368" lat="-34.565091442329106">
                <ele>23.0</ele>
                <time>2011-08-29T19:10:06.567Z</time>
                <name>Huapi</name>
            </trkpt>
            <trkpt lon="-58.485267162323" lat="-34.56939397863647">
                <ele>0.0</ele>
                <name>Huapi</name>
            </trkpt>
            <trkpt lon="-58.4866726398468" lat="-34.57005656711549">
                <ele>0.0</ele>
                <name>Pacheco</name>
            </trkpt>
            <trkpt lon="-58.48550319671631" lat="-34.571531911827776">
                <ele>0.0</ele>
                <name>Cullen</name>
            </trkpt>
            <trkpt lon="-58.488110303878784" lat="-34.57298072786391">
                <ele>0.0</ele>
                <name>Av. Triunvirato</name>
            </trkpt>
            <trkpt lon="-58.48647952079773" lat="-34.574288174321346">
                <ele>0.0</ele>
                <name>Av. Monroe</name>
            </trkpt>
            <trkpt lon="-58.495320081710815" lat="-34.579491254109186">
                <ele>28.0</ele>
                <time>2011-08-29T19:10:55.649Z</time>
                <name>Griveo</name>
            </trkpt>
            <trkpt lon="-58.4956419467926" lat="-34.579508921057894">
                <ele>25.0</ele>
                <time>2011-08-29T19:10:55.649Z</time>
                <name>Griveo</name>
            </trkpt>
            <trkpt lon="-58.51441740989685" lat="-34.59111529464004">
                <ele>0.0</ele>
                <name>San Nicolas</name>
            </trkpt>
            <trkpt lon="-58.51137042045593" lat="-34.59436549529553">
                <ele>0.0</ele>
                <name>Av. Enciso</name>
            </trkpt>
            <trkpt lon="-58.512057065963745" lat="-34.59806597655389">
                <ele>0.0</ele>
                <name>Pareja</name>
            </trkpt>
            <trkpt lon="-58.513827323913574" lat="-34.59919640096305">
                <ele>0.0</ele>
                <name>Mercedes</name>
            </trkpt>
            <trkpt lon="-58.512539" lat="-34.600517">
                <ele>0.0</ele>
                <name>Av. Enciso</name>
            </trkpt>
            <trkpt lon="-58.51274371147156" lat="-34.60186343508191">
                <ele>0.0</ele>
                <name>Asunción</name>
            </trkpt>
            <trkpt lon="-58.51317286491394" lat="-34.60209304328671">
                <ele>0.0</ele>
                <name>Gualeguaychú</name>
            </trkpt>
            <trkpt lon="-58.51373076438904" lat="-34.60132473641733">
                <ele>0.0</ele>
                <name>Nueva York</name>
            </trkpt>
            <trkpt lon="-58.51886987686157" lat="-34.604512721925936">
                <ele>0.0</ele>
                <name>Juárez</name>
            </trkpt>
            <trkpt lon="-58.51949214935303" lat="-34.603770930128945">
                <ele>0.0</ele>
                <name>Av. Salvador Maria del Carril</name>
            </trkpt>
            <trkpt lon="-58.523311614990234" lat="-34.60612874539818">
                <ele>0.0</ele>
                <name>Av. Salvador Maria del Carril</name>
            </trkpt>
            <trkpt lon="-58.52664828300476" lat="-34.60838052893909">
                <ele>0.0</ele>
                <name>Cervantes</name>
            </trkpt>
            <trkpt lon="-58.52051138877869" lat="-34.6131929596147">
                <ele>27.0</ele>
                <time>2011-08-29T19:12:59.574Z</time>
                <name>Cervantes</name>
            </trkpt>
            <trkpt lon="-58.49903225898743" lat="-34.62964141860432">
                <ele>0.0</ele>
                <name>Remedios de Escalada</name>
            </trkpt>
            <trkpt lon="-58.49697232246399" lat="-34.627919913019454">
                <ele>0.0</ele>
                <name>Carrasco</name>
            </trkpt>
            <trkpt lon="-58.48770260810852" lat="-34.635247099485994">
                <ele>0.0</ele>
                <name>Av. Olivera</name>
            </trkpt>
            <trkpt lon="-58.484580516815186" lat="-34.645327543954714">
                <ele>0.0</ele>
                <name>Av. Olivera</name>
            </trkpt>
            <trkpt lon="-58.484086990356445" lat="-34.64823140261358">
                <ele>0.0</ele>
                <name>Av. Olivera</name>
            </trkpt>
            <trkpt lon="-58.4796667098999" lat="-34.65621869581387">
                <ele>0.0</ele>
                <name>Primera Junta</name>
            </trkpt>
            <trkpt lon="-58.48018169403076" lat="-34.65675703816624">
                <ele>0.0</ele>
                <name>Escalada</name>
            </trkpt>
            <trkpt lon="-58.47878694534302" lat="-34.657869012937695">
                <ele>0.0</ele>
                <name>Av. Eva Perón</name>
            </trkpt>
            <trkpt lon="-58.47543954849243" lat="-34.654930190081664">
                <ele>0.0</ele>
                <name>Av. Eva Perón</name>
            </trkpt>
        </trkseg>
    </trk>
    <trk>
        <name>B - Av. Eva Perón y Av. de La Salle por Av. Figueroa Alcorta</name>
        <trkseg>
            <trkpt lon="-58.446139097213745" lat="-34.54167538278283">
                <ele>0.0</ele>
                <name>Ciudad Universitaria</name>
            </trkpt>
            <trkpt lon="-58.44105362892151" lat="-34.543398675936785">
                <ele>0.0</ele>
                <name>Güiraldes</name>
            </trkpt>
            <trkpt lon="-58.44120383262634" lat="-34.54575820407397">
                <ele>0.0</ele>
                <name>Cantilo</name>
            </trkpt>
            <trkpt lon="-58.44178318977356" lat="-34.54593494506159">
                <ele>0.0</ele>
                <name>:2way:Cantilo</name>
            </trkpt>
            <trkpt lon="-58.45003366470337" lat="-34.541224669456504">
                <ele>0.0</ele>
                <name>Cantilo</name>
            </trkpt>
            <trkpt lon="-58.449883460998535" lat="-34.54061487695398">
                <ele>0.0</ele>
                <name>Puente</name>
            </trkpt>
            <trkpt lon="-58.44882130622864" lat="-34.540597201742365">
                <ele>0.0</ele>
                <name>:ign:Puente</name>
            </trkpt>
            <trkpt lon="-58.44820976257324" lat="-34.54126885714543">
                <ele>0.0</ele>
                <name>:ign:Puente</name>
            </trkpt>
            <trkpt lon="-58.44971179962158" lat="-34.543168905577765">
                <ele>0.0</ele>
                <name>Av. Udaondo</name>
            </trkpt>
            <trkpt lon="-58.45217943191528" lat="-34.546261914899176">
                <ele>0.0</ele>
                <name>Av. Figueroa Alcorta</name>
            </trkpt>
            <trkpt lon="-58.44110727310181" lat="-34.547958602616376">
                <ele>9.0</ele>
                <time>2011-08-29T19:17:40.827Z</time>
                <name>Av. Figueroa Alcorta</name>
            </trkpt>
            <trkpt lon="-58.43894004821777" lat="-34.549248769080904">
                <ele>12.0</ele>
                <time>2011-08-29T19:17:40.827Z</time>
                <name>Av. Figueroa Alcorta</name>
            </trkpt>
            <trkpt lon="-58.43758821487427" lat="-34.55064495408798">
                <ele>8.0</ele>
                <time>2011-08-29T19:17:40.827Z</time>
                <name>Juramento</name>
            </trkpt>
            <trkpt lon="-58.43878984451294" lat="-34.55141372950206">
                <ele>10.0</ele>
                <time>2011-08-29T19:17:40.827Z</time>
                <name>Castaneda</name>
            </trkpt>
            <trkpt lon="-58.43804955482483" lat="-34.55232387971777">
                <ele>8.0</ele>
                <time>2011-08-29T19:17:40.827Z</time>
                <name>Echeverria</name>
            </trkpt>
            <trkpt lon="-58.439143896102905" lat="-34.55297776790165">
                <ele>11.0</ele>
                <time>2011-08-29T19:17:40.827Z</time>
                <name>:2way:Ramsay</name>
            </trkpt>
            <trkpt lon="-58.44318866729736" lat="-34.54826789092043">
                <ele>0.0</ele>
                <name>Av. Monroe</name>
            </trkpt>
            <trkpt lon="-58.45808029174805" lat="-34.557113049824615">
                <ele>18.0</ele>
                <time>2011-08-29T19:18:54.725Z</time>
                <name>Av. Monroe</name>
            </trkpt>
            <trkpt lon="-58.47048282623291" lat="-34.56480872167683">
                <ele>0.0</ele>
                <name>Roque Pérez</name>
            </trkpt>
            <trkpt lon="-58.47225308418274" lat="-34.56300635492477">
                <ele>0.0</ele>
                <name>Dr. Rivera</name>
            </trkpt>
            <trkpt lon="-58.47415208816528" lat="-34.56411958606033">
                <ele>0.0</ele>
                <name>Washington</name>
            </trkpt>
            <trkpt lon="-58.47502112388611" lat="-34.56315655364599">
                <ele>0.0</ele>
                <name>Ugarte</name>
            </trkpt>
            <trkpt lon="-58.47818613052368" lat="-34.565091442329106">
                <ele>23.0</ele>
                <time>2011-08-29T19:10:06.567Z</time>
                <name>Huapi</name>
            </trkpt>
            <trkpt lon="-58.485267162323" lat="-34.56939397863647">
                <ele>0.0</ele>
                <name>Huapi</name>
            </trkpt>
            <trkpt lon="-58.4866726398468" lat="-34.57005656711549">
                <ele>0.0</ele>
                <name>Pacheco</name>
            </trkpt>
            <trkpt lon="-58.48550319671631" lat="-34.571531911827776">
                <ele>0.0</ele>
                <name>Cullen</name>
            </trkpt>
            <trkpt lon="-58.488110303878784" lat="-34.57298072786391">
                <ele>0.0</ele>
                <name>Av. Triunvirato</name>
            </trkpt>
            <trkpt lon="-58.48647952079773" lat="-34.574288174321346">
                <ele>0.0</ele>
                <name>Av. Monroe</name>
            </trkpt>
            <trkpt lon="-58.495320081710815" lat="-34.579491254109186">
                <ele>28.0</ele>
                <time>2011-08-29T19:10:55.649Z</time>
                <name>Griveo</name>
            </trkpt>
            <trkpt lon="-58.4956419467926" lat="-34.579508921057894">
                <ele>25.0</ele>
                <time>2011-08-29T19:10:55.649Z</time>
                <name>Griveo</name>
            </trkpt>
            <trkpt lon="-58.51441740989685" lat="-34.59111529464004">
                <ele>0.0</ele>
                <name>San Nicolas</name>
            </trkpt>
            <trkpt lon="-58.51137042045593" lat="-34.59436549529553">
                <ele>0.0</ele>
                <name>Av. Enciso</name>
            </trkpt>
            <trkpt lon="-58.512057065963745" lat="-34.59806597655389">
                <ele>0.0</ele>
                <name>Pareja</name>
            </trkpt>
            <trkpt lon="-58.513827323913574" lat="-34.59919640096305">
                <ele>0.0</ele>
                <name>Mercedes</name>
            </trkpt>
            <trkpt lon="-58.512539" lat="-34.600517">
                <ele>0.0</ele>
                <name>Av. Enciso</name>
            </trkpt>
            <trkpt lon="-58.51274371147156" lat="-34.60186343508191">
                <ele>0.0</ele>
                <name>Asunción</name>
            </trkpt>
            <trkpt lon="-58.51317286491394" lat="-34.60209304328671">
                <ele>0.0</ele>
                <name>Gualeguaychú</name>
            </trkpt>
            <trkpt lon="-58.51373076438904" lat="-34.60132473641733">
                <ele>0.0</ele>
                <name>Nueva York</name>
            </trkpt>
            <trkpt lon="-58.51886987686157" lat="-34.604512721925936">
                <ele>0.0</ele>
                <name>Juárez</name>
            </trkpt>
            <trkpt lon="-58.51949214935303" lat="-34.603770930128945">
                <ele>0.0</ele>
                <name>Av. Salvador Maria del Carril</name>
            </trkpt>
            <trkpt lon="-58.523311614990234" lat="-34.60612874539818">
                <ele>0.0</ele>
                <name>Av. Salvador Maria del Carril</name>
            </trkpt>
            <trkpt lon="-58.52664828300476" lat="-34.60838052893909">
                <ele>0.0</ele>
                <name>Cervantes</name>
            </trkpt>
            <trkpt lon="-58.52051138877869" lat="-34.6131929596147">
                <ele>27.0</ele>
                <time>2011-08-29T19:12:59.574Z</time>
                <name>Cervantes</name>
            </trkpt>
            <trkpt lon="-58.49903225898743" lat="-34.62964141860432">
                <ele>0.0</ele>
                <name>Remedios de Escalada</name>
            </trkpt>
            <trkpt lon="-58.49697232246399" lat="-34.627919913019454">
                <ele>0.0</ele>
                <name>Carrasco</name>
            </trkpt>
            <trkpt lon="-58.48770260810852" lat="-34.635247099485994">
                <ele>0.0</ele>
                <name>Av. Olivera</name>
            </trkpt>
            <trkpt lon="-58.484580516815186" lat="-34.645327543954714">
                <ele>0.0</ele>
                <name>Av. Olivera</name>
            </trkpt>
            <trkpt lon="-58.484086990356445" lat="-34.64823140261358">
                <ele>0.0</ele>
                <name>Av. Olivera</name>
            </trkpt>
            <trkpt lon="-58.4796667098999" lat="-34.65621869581387">
                <ele>0.0</ele>
                <name>Primera Junta</name>
            </trkpt>
            <trkpt lon="-58.48018169403076" lat="-34.65675703816624">
                <ele>0.0</ele>
                <name>Escalada</name>
            </trkpt>
            <trkpt lon="-58.47878694534302" lat="-34.657869012937695">
                <ele>0.0</ele>
                <name>Av. Eva Perón</name>
            </trkpt>
            <trkpt lon="-58.47543954849243" lat="-34.654930190081664">
                <ele>0.0</ele>
                <name>Av. Eva Perón</name>
            </trkpt>
        </trkseg>
    </trk>
</gpx>
