<?xml version="1.0" encoding="UTF-8" standalone="yes"?>
<gpx xmlns="http://www.topografix.com/GPX/1/1" xmlns:gpxtrx="http://www.garmin.com/xmlschemas/GpxExtensions/v3" xmlns:rcxx="http://www.routeconverter.de/xmlschemas/RouteCatalogExtensions/1.0" xmlns:xsi="http://www.w3.org/2001/XMLSchema-instance" xmlns:gpxtpx="http://www.garmin.com/xmlschemas/TrackPointExtension/v1" xmlns:gpxx="http://www.garmin.com/xmlschemas/WaypointExtension/v1" xmlns:nmea="http://trekbuddy.net/2009/01/gpx/nmea" creator="Generated by Christian Pesch's RouteConverter. See http://www.routeconverter.com" version="1.1">
    <trk>
        <name>A - Villa Pueyrredón</name>
        <desc>&lt;a href=&quot;http://www.masmapas.com/colectivo-112-estacion-lanus-villa-urquiza&quot;&gt;Mas info sobre la linea de colectivos 112 (Colectivo 112 - Estacion Lanús - Villa Urquiza )&lt;/a&gt;</desc>
        <trkseg>
            <trkpt lon="-58.391443490982056" lat="-34.70800708998961">
                <ele>0.0</ele>
                <name>Estación Lanús</name>
            </trkpt>
            <trkpt lon="-58.39136838912964" lat="-34.70691342818067">
                <ele>0.0</ele>
                <name>Estación Lanús</name>
            </trkpt>
            <trkpt lon="-58.391711711883545" lat="-34.706781129400866">
                <ele>16.0</ele>
                <time>2011-08-29T22:12:17.561Z</time>
                <name>Av. Pavón</name>
            </trkpt>
            <trkpt lon="-58.3918833732605" lat="-34.6999454045848">
                <ele>0.0</ele>
                <name>Rico</name>
            </trkpt>
            <trkpt lon="-58.390467166900635" lat="-34.699804273993195">
                <ele>0.0</ele>
                <name>Maximo Paz</name>
            </trkpt>
            <trkpt lon="-58.40458631515503" lat="-34.687701430509605">
                <ele>0.0</ele>
                <name>Pedrera</name>
            </trkpt>
            <trkpt lon="-58.40507984161377" lat="-34.685601777533826">
                <ele>0.0</ele>
                <name>Pedrera</name>
            </trkpt>
            <trkpt lon="-58.404425382614136" lat="-34.67931132196025">
                <ele>0.0</ele>
                <name>Av. Remedios de Escalada</name>
            </trkpt>
            <trkpt lon="-58.40889930725098" lat="-34.67564093358266">
                <ele>0.0</ele>
                <name>Av. Remedios de Escalada</name>
            </trkpt>
            <trkpt lon="-58.41099143028259" lat="-34.673196858794036">
                <ele>0.0</ele>
                <name>Av. Remedios de Escalada</name>
            </trkpt>
            <trkpt lon="-58.41711759567261" lat="-34.66879381284126">
                <ele>0.0</ele>
                <name>Av. Remedios de Escalada</name>
            </trkpt>
            <trkpt lon="-58.417729139328" lat="-34.664972944037835">
                <ele>0.0</ele>
                <name>Av. Remedios de Escalada</name>
            </trkpt>
            <trkpt lon="-58.41660261154175" lat="-34.659289847878426">
                <ele>0.0</ele>
                <name>Av. Sáenz</name>
            </trkpt>
            <trkpt lon="-58.41635584831238" lat="-34.64854031776209">
                <ele>0.0</ele>
                <name>Av. Almafuerte</name>
            </trkpt>
            <trkpt lon="-58.41529369354248" lat="-34.64708399341301">
                <ele>0.0</ele>
                <name>Ochoa</name>
            </trkpt>
            <trkpt lon="-58.41614127159119" lat="-34.646051311555404">
                <ele>0.0</ele>
                <name>:2way:Av. Sáenz</name>
            </trkpt>
            <trkpt lon="-58.41633439064026" lat="-34.648275533419564">
                <ele>0.0</ele>
                <name>Av. La Plata</name>
            </trkpt>
            <trkpt lon="-58.419166803359985" lat="-34.647101645982524">
                <ele>0.0</ele>
                <name>Av. La Plata</name>
            </trkpt>
            <trkpt lon="-58.42280387878418" lat="-34.64288257497584">
                <ele>0.0</ele>
                <name>Av. La Plata</name>
            </trkpt>
            <trkpt lon="-58.42576503753662" lat="-34.63145999596032">
                <ele>0.0</ele>
                <name>Av. La Plata</name>
            </trkpt>
            <trkpt lon="-58.429198265075684" lat="-34.6150737053268">
                <ele>0.0</ele>
                <name>Av. Rivadavia</name>
            </trkpt>
            <trkpt lon="-58.432910442352295" lat="-34.616645375632174">
                <ele>0.0</ele>
                <name>Campichuelo</name>
            </trkpt>
            <trkpt lon="-58.43535661697388" lat="-34.61149760301998">
                <ele>0.0</ele>
                <name>Campichuelo</name>
            </trkpt>
            <trkpt lon="-58.436161279678345" lat="-34.60875140507669">
                <ele>0.0</ele>
                <name>Av. Díaz Vélez</name>
            </trkpt>
            <trkpt lon="-58.4342086315155" lat="-34.60868076213058">
                <ele>0.0</ele>
                <name>Av. Patricias Argentinas</name>
            </trkpt>
            <trkpt lon="-58.43306064605713" lat="-34.60780655069838">
                <ele>0.0</ele>
                <name>Av. Patricias Argentinas</name>
            </trkpt>
            <trkpt lon="-58.432674407958984" lat="-34.60647313977768">
                <ele>0.0</ele>
                <name>Av. Patricias Argentinas</name>
            </trkpt>
            <trkpt lon="-58.433650732040405" lat="-34.6048482922287">
                <ele>0.0</ele>
                <name>Av. Patricias Argentinas</name>
            </trkpt>
            <trkpt lon="-58.43519568443298" lat="-34.60409767257035">
                <ele>0.0</ele>
                <name>Av. Patricias Argentinas</name>
            </trkpt>
            <trkpt lon="-58.4372341632843" lat="-34.604521552740756">
                <ele>0.0</ele>
                <name>Av. Warnes</name>
            </trkpt>
            <trkpt lon="-58.442416191101074" lat="-34.6021636918374">
                <ele>0.0</ele>
                <name>Murillo</name>
            </trkpt>
            <trkpt lon="-58.44476580619812" lat="-34.59971745078402">
                <ele>0.0</ele>
                <name>Gurruchaga</name>
            </trkpt>
            <trkpt lon="-58.44573140144348" lat="-34.600485772522305">
                <ele>0.0</ele>
                <name>Munecas</name>
            </trkpt>
            <trkpt lon="-58.449432849883976" lat="-34.5972269797412">
                <ele>0.0</ele>
                <name>Darwin</name>
            </trkpt>
            <trkpt lon="-58.45177173614496" lat="-34.59893145912252">
                <ele>0.0</ele>
                <name>Av. Warnes</name>
            </trkpt>
            <trkpt lon="-58.45917463302612" lat="-34.596573439510244">
                <ele>0.0</ele>
                <name>Av. Newbery</name>
            </trkpt>
            <trkpt lon="-58.45072031021118" lat="-34.58865106320282">
                <ele>0.0</ele>
                <name>Av. Corrientes</name>
            </trkpt>
            <trkpt lon="-58.453896045684814" lat="-34.58741450376084">
                <ele>0.0</ele>
                <name>Olleros</name>
            </trkpt>
            <trkpt lon="-58.44994700000001" lat="-34.580856">
                <ele>0.0</ele>
                <name>Av. Alvarez Thomas</name>
            </trkpt>
            <trkpt lon="-58.45771551132202" lat="-34.5783605615807">
                <ele>0.0</ele>
                <name>Av. Alvarez Thomas</name>
            </trkpt>
            <trkpt lon="-58.46327304840088" lat="-34.5783428943879">
                <ele>0.0</ele>
                <name>Av. Alvarez Thomas</name>
            </trkpt>
            <trkpt lon="-58.46673846244812" lat="-34.5791114138035">
                <ele>0.0</ele>
                <name>Av. Alvarez Thomas</name>
            </trkpt>
            <trkpt lon="-58.47554683685303" lat="-34.57714151646829">
                <ele>0.0</ele>
                <name>Av. Alvarez Thomas</name>
            </trkpt>
            <trkpt lon="-58.47745656967163" lat="-34.5757811116852">
                <ele>0.0</ele>
                <name>Echeverría</name>
            </trkpt>
            <trkpt lon="-58.47918391227722" lat="-34.577477197340855">
                <ele>22.0</ele>
                <time>2011-08-29T22:17:50.746Z</time>
                <name>Echeverría</name>
            </trkpt>
            <trkpt lon="-58.480128049850464" lat="-34.57831639359166">
                <ele>0.0</ele>
                <name>Echeverría</name>
            </trkpt>
            <trkpt lon="-58.48399043083191" lat="-34.58056009774772">
                <ele>0.0</ele>
                <name>Bucarelli</name>
            </trkpt>
            <trkpt lon="-58.488367795944214" lat="-34.57541008833506">
                <ele>0.0</ele>
                <name>Av. Monroe</name>
            </trkpt>
            <trkpt lon="-58.48877549171448" lat="-34.57564860353597">
                <ele>0.0</ele>
                <name>Bucarelli</name>
            </trkpt>
            <trkpt lon="-58.49797010421753" lat="-34.5641725966951">
                <ele>0.0</ele>
                <name>Av. Larralde</name>
            </trkpt>
            <trkpt lon="-58.49909126758524" lat="-34.564733598906585">
                <ele>22.0</ele>
                <time>2012-01-03T22:20:04.576Z</time>
                <name>Andonaegui</name>
            </trkpt>
            <trkpt lon="-58.50082129239951" lat="-34.5624784174355">
                <ele>22.0</ele>
                <time>2012-01-03T22:20:04.576Z</time>
                <name>Pellegrini</name>
            </trkpt>
            <trkpt lon="-58.50584909319787" lat="-34.56493786847379">
                <ele>17.0</ele>
                <time>2012-01-03T22:20:04.576Z</time>
                <name>Aizpurua</name>
            </trkpt>
            <trkpt lon="-58.50413583218949" lat="-34.56715710217297">
                <ele>29.0</ele>
                <time>2012-01-03T22:20:04.576Z</time>
                <name>Av. Larralde</name>
            </trkpt>
            <trkpt lon="-58.506306409835815" lat="-34.56824547943194">
                <ele>0.0</ele>
                <name>Zado</name>
            </trkpt>
            <trkpt lon="-58.503098487854004" lat="-34.57219448326987">
                <ele>0.0</ele>
                <name>Tamborini</name>
            </trkpt>
            <trkpt lon="-58.5042142868042" lat="-34.57279521014678">
                <ele>0.0</ele>
                <name>Av. de Los Constituyentes</name>
            </trkpt>
            <trkpt lon="-58.50301265716553" lat="-34.573493107979694">
                <ele>0.0</ele>
                <name>Av. Albarellos</name>
            </trkpt>
            <trkpt lon="-58.50424647331238" lat="-34.574190999954126">
                <ele>0.0</ele>
                <name>Zamudio</name>
            </trkpt>
            <trkpt lon="-58.505104780197144" lat="-34.5733075914059">
                <ele>0.0</ele>
                <name>Zamudio</name>
            </trkpt>
        </trkseg>
    </trk>
    <trk>
        <name>A - Estación Lanús</name>
        <desc>&lt;a href=&quot;http://www.masmapas.com/colectivo-112-estacion-lanus-villa-urquiza&quot;&gt;Mas info sobre la linea de colectivos 112 (Colectivo 112 - Estacion Lanús - Villa Urquiza )&lt;/a&gt;</desc>
        <trkseg>
            <trkpt lon="-58.5051155090332" lat="-34.5733075914059">
                <ele>0.0</ele>
                <name>Zamudio</name>
            </trkpt>
            <trkpt lon="-58.50589871406555" lat="-34.572450676145266">
                <ele>0.0</ele>
                <name>Pedraza</name>
            </trkpt>
            <trkpt lon="-58.504837" lat="-34.571831">
                <ele>0.0</ele>
                <name>Medeyros</name>
            </trkpt>
            <trkpt lon="-58.506327867507935" lat="-34.56997705677679">
                <ele>0.0</ele>
                <name>Nunez</name>
            </trkpt>
            <trkpt lon="-58.501548171042884" lat="-34.5676800194137">
                <ele>25.0</ele>
                <time>2012-01-03T22:14:44.086Z</time>
                <name>Ceretti</name>
            </trkpt>
            <trkpt lon="-58.50259155034939" lat="-34.56639014651261">
                <ele>22.0</ele>
                <time>2012-01-03T22:14:44.086Z</time>
                <name>Storni</name>
            </trkpt>
            <trkpt lon="-58.50304886698632" lat="-34.564225588092235">
                <ele>21.0</ele>
                <time>2012-01-03T22:14:44.086Z</time>
                <name>Yrurtia</name>
            </trkpt>
            <trkpt lon="-58.50247286260037" lat="-34.563779423455436">
                <ele>23.0</ele>
                <time>2012-01-03T22:14:44.086Z</time>
                <name>Guttero</name>
            </trkpt>
            <trkpt lon="-58.499953262507006" lat="-34.563644690712756">
                <ele>24.0</ele>
                <time>2012-01-03T22:14:44.086Z</time>
                <name>Andonaegui</name>
            </trkpt>
            <trkpt lon="-58.49697684869079" lat="-34.56750887982421">
                <ele>17.0</ele>
                <time>2012-01-03T22:14:44.086Z</time>
                <name>Pedraza</name>
            </trkpt>
            <trkpt lon="-58.4946870803833" lat="-34.566213480441185">
                <ele>0.0</ele>
                <name>Av. Triunvirato</name>
            </trkpt>
            <trkpt lon="-58.489558696746826" lat="-34.57272453662184">
                <ele>0.0</ele>
                <name>Dr. Rivera</name>
            </trkpt>
            <trkpt lon="-58.488850593566895" lat="-34.572397670787545">
                <ele>0.0</ele>
                <name>Av. Triunvirato</name>
            </trkpt>
            <trkpt lon="-58.48547101020813" lat="-34.5749683917115">
                <ele>0.0</ele>
                <name>Av. Triunvirato</name>
            </trkpt>
            <trkpt lon="-58.47898006439209" lat="-34.5791114138035">
                <ele>0.0</ele>
                <name>La Pampa</name>
            </trkpt>
            <trkpt lon="-58.47277879714966" lat="-34.57560443410594">
                <ele>0.0</ele>
                <name>Donado</name>
            </trkpt>
            <trkpt lon="-58.47040772438049" lat="-34.57830755999103">
                <ele>0.0</ele>
                <name>Donado</name>
            </trkpt>
            <trkpt lon="-58.47093343734741" lat="-34.57825455836759">
                <ele>0.0</ele>
                <name>Donado</name>
            </trkpt>
            <trkpt lon="-58.470890522003174" lat="-34.58045409733968">
                <ele>0.0</ele>
                <name>Charlone</name>
            </trkpt>
            <trkpt lon="-58.45800518989563" lat="-34.58078976483469">
                <ele>0.0</ele>
                <name>Av. Forest</name>
            </trkpt>
            <trkpt lon="-58.45402479171753" lat="-34.58512682028096">
                <ele>0.0</ele>
                <name>Av. Lacroze</name>
            </trkpt>
            <trkpt lon="-58.4553337097168" lat="-34.58729967945037">
                <ele>0.0</ele>
                <name>Av. Corrientes</name>
            </trkpt>
            <trkpt lon="-58.45092415809631" lat="-34.58881888056603">
                <ele>0.0</ele>
                <name>Av. Newbery</name>
            </trkpt>
            <trkpt lon="-58.4593141078949" lat="-34.59664409275608">
                <ele>0.0</ele>
                <name>Av. Warnes</name>
            </trkpt>
            <trkpt lon="-58.443371057510376" lat="-34.60184577288602">
                <ele>0.0</ele>
                <name>Av. Warnes</name>
            </trkpt>
            <trkpt lon="-58.441364765167236" lat="-34.60269355405184">
                <ele>0.0</ele>
                <name>Marechal</name>
            </trkpt>
            <trkpt lon="-58.437169790267944" lat="-34.60877789616597">
                <ele>0.0</ele>
                <name>Av. Díaz Vélez</name>
            </trkpt>
            <trkpt lon="-58.43048572540283" lat="-34.60873374434579">
                <ele>0.0</ele>
                <name>Rio de Janeiro</name>
            </trkpt>
            <trkpt lon="-58.43002438545227" lat="-34.61540923294653">
                <ele>0.0</ele>
                <name>Senillosa</name>
            </trkpt>
            <trkpt lon="-58.4302818775177" lat="-34.6155328480435">
                <ele>0.0</ele>
                <name>Senillosa</name>
            </trkpt>
            <trkpt lon="-58.42956304550171" lat="-34.61722812222759">
                <ele>0.0</ele>
                <name>Chaco</name>
            </trkpt>
            <trkpt lon="-58.42884421348572" lat="-34.61720163383474">
                <ele>0.0</ele>
                <name>Av. La Plata</name>
            </trkpt>
            <trkpt lon="-58.4258508682251" lat="-34.63151296363535">
                <ele>0.0</ele>
                <name>Av. La Plata</name>
            </trkpt>
            <trkpt lon="-58.422900438308716" lat="-34.6429708422583">
                <ele>0.0</ele>
                <name>Av. La Plata</name>
            </trkpt>
            <trkpt lon="-58.419188261032104" lat="-34.64719873504765">
                <ele>0.0</ele>
                <name>Av. La Plata</name>
            </trkpt>
            <trkpt lon="-58.41638803482056" lat="-34.64836379496103">
                <ele>0.0</ele>
                <name>Av. Sáenz</name>
            </trkpt>
            <trkpt lon="-58.41658115386963" lat="-34.659007447842306">
                <ele>0.0</ele>
                <name>Av. Remedios de Escalada</name>
            </trkpt>
            <trkpt lon="-58.417707681655884" lat="-34.66496411965652">
                <ele>0.0</ele>
                <name>Av. Remedios de Escalada</name>
            </trkpt>
            <trkpt lon="-58.417214155197144" lat="-34.66876734091535">
                <ele>0.0</ele>
                <name>Av. Remedios de Escalada</name>
            </trkpt>
            <trkpt lon="-58.410691022872925" lat="-34.673585092098534">
                <ele>0.0</ele>
                <name>Av. Remedios de Escalada</name>
            </trkpt>
            <trkpt lon="-58.407686948776245" lat="-34.677114402307055">
                <ele>0.0</ele>
                <name>Av. Remedios de Escalada</name>
            </trkpt>
            <trkpt lon="-58.404436111450195" lat="-34.67963776689494">
                <ele>0.0</ele>
                <name>Pedrera</name>
            </trkpt>
            <trkpt lon="-58.40513348579407" lat="-34.685698821492146">
                <ele>0.0</ele>
                <name>Pedrera</name>
            </trkpt>
            <trkpt lon="-58.40463995933533" lat="-34.6877808281066">
                <ele>0.0</ele>
                <name>Maximo Paz</name>
            </trkpt>
            <trkpt lon="-58.392183780670166" lat="-34.69831356742054">
                <ele>0.0</ele>
                <name>Av. Pavón</name>
            </trkpt>
            <trkpt lon="-58.391711711883545" lat="-34.708077648319474">
                <ele>0.0</ele>
                <name>Estación Lanús</name>
            </trkpt>
            <trkpt lon="-58.391464948654175" lat="-34.70802472957773">
                <ele>0.0</ele>
                <name>Estación Lanús</name>
            </trkpt>
            <trkpt lon="-58.39135766029358" lat="-34.706957527726914">
                <ele>0.0</ele>
                <name>Estación Lanús</name>
            </trkpt>
        </trkseg>
    </trk>
</gpx>
