<?xml version="1.0" encoding="UTF-8" standalone="yes"?>
<gpx xmlns="http://www.topografix.com/GPX/1/1" xmlns:gpxtrx="http://www.garmin.com/xmlschemas/GpxExtensions/v3" xmlns:rcxx="http://www.routeconverter.de/xmlschemas/RouteCatalogExtensions/1.0" xmlns:xsi="http://www.w3.org/2001/XMLSchema-instance" xmlns:gpxtpx="http://www.garmin.com/xmlschemas/TrackPointExtension/v1" xmlns:gpxx="http://www.garmin.com/xmlschemas/WaypointExtension/v1" xmlns:nmea="http://trekbuddy.net/2009/01/gpx/nmea" creator="Generated by Christian Pesch's RouteConverter. See http://www.routeconverter.com" version="1.1">
    <trk>
        <name>A - Barrancas de Belgrano por Boyaca</name>
        <desc>&lt;a href=&quot;http://www.masmapas.com/colectivo-113-san-justo-barrancas-de-belgrano&quot;&gt;Mas info sobre la linea de colectivos 113 (Colectivo 113 - San Justo - Barrancas De Belgrano )&lt;/a&gt;</desc>
        <trkseg>
            <trkpt lon="-58.55942487716675" lat="-34.68450781958961">
                <ele>0.0</ele>
                <name>Eizaguirre</name>
            </trkpt>
            <trkpt lon="-58.556281328201294" lat="-34.68171992592587">
                <ele>0.0</ele>
                <name>Arieta</name>
            </trkpt>
            <trkpt lon="-58.56416702270508" lat="-34.67588798406028">
                <ele>0.0</ele>
                <name>Av. Illia</name>
            </trkpt>
            <trkpt lon="-58.55765461921692" lat="-34.66999386459839">
                <ele>0.0</ele>
                <name>Av. Mosconi</name>
            </trkpt>
            <trkpt lon="-58.55362057685852" lat="-34.667867290401475">
                <ele>0.0</ele>
                <name>Av. Mosconi</name>
            </trkpt>
            <trkpt lon="-58.53943705558777" lat="-34.66394048504507">
                <ele>0.0</ele>
                <name>Av. Mosconi</name>
            </trkpt>
            <trkpt lon="-58.52488875389099" lat="-34.656386376593666">
                <ele>0.0</ele>
                <name>Av. Emilio Castro</name>
            </trkpt>
            <trkpt lon="-58.50026607513428" lat="-34.64491269870105">
                <ele>0.0</ele>
                <name>Araujo</name>
            </trkpt>
            <trkpt lon="-58.49986910820007" lat="-34.645203973245145">
                <ele>0.0</ele>
                <name>Zequeira</name>
            </trkpt>
            <trkpt lon="-58.49916100502014" lat="-34.644400759143956">
                <ele>0.0</ele>
                <name>Basualdo</name>
            </trkpt>
            <trkpt lon="-58.50099563598633" lat="-34.64290022843985">
                <ele>0.0</ele>
                <name>Pizarro</name>
            </trkpt>
            <trkpt lon="-58.49947214126587" lat="-34.64157620821004">
                <ele>0.0</ele>
                <name>Escalada</name>
            </trkpt>
            <trkpt lon="-58.499771" lat="-34.641281">
                <ele>0.0</ele>
                <name>Cajaravilla</name>
            </trkpt>
            <trkpt lon="-58.49876403808594" lat="-34.64118782493259">
                <ele>0.0</ele>
                <name>Manzoni</name>
            </trkpt>
            <trkpt lon="-58.49941849708557" lat="-34.63745395653501">
                <ele>0.0</ele>
                <name>Av. Rivadavia</name>
            </trkpt>
            <trkpt lon="-58.49363565444946" lat="-34.63665066736591">
                <ele>0.0</ele>
                <name>Av. Rivadavia</name>
            </trkpt>
            <trkpt lon="-58.47565412521362" lat="-34.6323780975402">
                <ele>0.0</ele>
                <name>Av. Rivadavia</name>
            </trkpt>
            <trkpt lon="-58.46552610397339" lat="-34.62976501250274">
                <ele>0.0</ele>
                <name>Av. Rivadavia</name>
            </trkpt>
            <trkpt lon="-58.457844257354736" lat="-34.627169501970386">
                <ele>0.0</ele>
                <name>Lautaro</name>
            </trkpt>
            <trkpt lon="-58.45717906951904" lat="-34.628511408710075">
                <ele>0.0</ele>
                <name>Falcón</name>
            </trkpt>
            <trkpt lon="-58.45599889755249" lat="-34.62806999441482">
                <ele>0.0</ele>
                <name>Av. Carabobo</name>
            </trkpt>
            <trkpt lon="-58.45670700073242" lat="-34.62665745288837">
                <ele>0.0</ele>
                <name>Av. Boyaca</name>
            </trkpt>
            <trkpt lon="-58.4631872177124" lat="-34.617316416809366">
                <ele>0.0</ele>
                <name>Av. Boyaca</name>
            </trkpt>
            <trkpt lon="-58.47292900085449" lat="-34.604636353247884">
                <ele>0.0</ele>
                <name>Punta Arenas</name>
            </trkpt>
            <trkpt lon="-58.47219944000244" lat="-34.601050970183124">
                <ele>0.0</ele>
                <name>Av. San Martín</name>
            </trkpt>
            <trkpt lon="-58.478829860687256" lat="-34.59962030615005">
                <ele>0.0</ele>
                <name>Av. Chorroarin</name>
            </trkpt>
            <trkpt lon="-58.4757399559021" lat="-34.59137142919837">
                <ele>0.0</ele>
                <name>Av. Chorroarin</name>
            </trkpt>
            <trkpt lon="-58.47292900085449" lat="-34.58914568182695">
                <ele>0.0</ele>
                <name>Morlote</name>
            </trkpt>
            <trkpt lon="-58.47219944000244" lat="-34.589799280492734">
                <ele>0.0</ele>
                <name>Tronador</name>
            </trkpt>
            <trkpt lon="-58.47022533416748" lat="-34.587891464582846">
                <ele>0.0</ele>
                <name>Av. Del Campo</name>
            </trkpt>
            <trkpt lon="-58.47086" lat="-34.587273">
                <ele>0.0</ele>
                <name>Av. Combatientes de Malvinas</name>
            </trkpt>
            <trkpt lon="-58.472092151641846" lat="-34.58501199280933">
                <ele>0.0</ele>
                <name>Av. Combatientes de Malvinas</name>
            </trkpt>
            <trkpt lon="-58.47391605377197" lat="-34.58165542738144">
                <ele>0.0</ele>
                <name>Av. Triunvirato</name>
            </trkpt>
            <trkpt lon="-58.47541809082031" lat="-34.57999476067605">
                <ele>0.0</ele>
                <name>Av. Combatientes de Malvinas</name>
            </trkpt>
            <trkpt lon="-58.477134704589844" lat="-34.578069052419345">
                <ele>25.0</ele>
                <time>2011-08-29T22:30:24.074Z</time>
                <name>La Pampa</name>
            </trkpt>
            <trkpt lon="-58.46095561981201" lat="-34.56881089640736">
                <ele>0.0</ele>
                <name>Zapiola</name>
            </trkpt>
            <trkpt lon="-58.45996856689453" lat="-34.57011840843747">
                <ele>0.0</ele>
                <name>Zapiola</name>
            </trkpt>
            <trkpt lon="-58.458155393600464" lat="-34.57095767897363">
                <ele>0.0</ele>
                <name>Av. Elcano</name>
            </trkpt>
            <trkpt lon="-58.45746874809265" lat="-34.56911127261178">
                <ele>0.0</ele>
                <name>Av. Cramer</name>
            </trkpt>
            <trkpt lon="-58.46041917800903" lat="-34.56565688075027">
                <ele>0.0</ele>
                <name>Echeverria</name>
            </trkpt>
            <trkpt lon="-58.44903588294983" lat="-34.55898622954479">
                <ele>0.0</ele>
                <name>Av. Virrey Vertíz</name>
            </trkpt>
            <trkpt lon="-58.45028042793274" lat="-34.55832355286164">
                <ele>0.0</ele>
                <name>Av. Virrey Vertíz</name>
            </trkpt>
        </trkseg>
    </trk>
    <trk>
        <name>A - San Justo por Boyaca</name>
        <desc>&lt;a href=&quot;http://www.masmapas.com/colectivo-113-san-justo-barrancas-de-belgrano&quot;&gt;Mas info sobre la linea de colectivos 113 (Colectivo 113 - San Justo - Barrancas De Belgrano )&lt;/a&gt;</desc>
        <trkseg>
            <trkpt lon="-58.44882130622864" lat="-34.55913643552572">
                <ele>0.0</ele>
                <name>Av. Virrey Vertíz</name>
            </trkpt>
            <trkpt lon="-58.45046281814575" lat="-34.55836773147142">
                <ele>0.0</ele>
                <name>Juramento</name>
            </trkpt>
            <trkpt lon="-58.461384773254395" lat="-34.564791051604146">
                <ele>0.0</ele>
                <name>Av. Cramer</name>
            </trkpt>
            <trkpt lon="-58.457640409469604" lat="-34.569040595955414">
                <ele>0.0</ele>
                <name>Av. Elcano</name>
            </trkpt>
            <trkpt lon="-58.45791935920715" lat="-34.569809201367626">
                <ele>0.0</ele>
                <name>Av. de Los Incas</name>
            </trkpt>
            <trkpt lon="-58.45970034599304" lat="-34.57146123722898">
                <ele>0.0</ele>
                <name>Freire</name>
            </trkpt>
            <trkpt lon="-58.46092343330383" lat="-34.57063080619305">
                <ele>0.0</ele>
                <name>Freire</name>
            </trkpt>
            <trkpt lon="-58.46280097961426" lat="-34.568439841950884">
                <ele>0.0</ele>
                <name>Sucre</name>
            </trkpt>
            <trkpt lon="-58.47797155380249" lat="-34.57723868738659">
                <ele>0.0</ele>
                <name>Av. Donato Alvarez</name>
            </trkpt>
            <trkpt lon="-58.473873138427734" lat="-34.58177909272353">
                <ele>0.0</ele>
                <name>Av. Donato Alvarez</name>
            </trkpt>
            <trkpt lon="-58.470869064331055" lat="-34.58738800585713">
                <ele>0.0</ele>
                <name>Av. Chorroarín</name>
            </trkpt>
            <trkpt lon="-58.472092151641846" lat="-34.58836842266705">
                <ele>0.0</ele>
                <name>Avalos</name>
            </trkpt>
            <trkpt lon="-58.47344398498535" lat="-34.58772364534654">
                <ele>0.0</ele>
                <name>Quiros</name>
            </trkpt>
            <trkpt lon="-58.477853536605835" lat="-34.59117712029537">
                <ele>0.0</ele>
                <name>Av. de los Constituyentes</name>
            </trkpt>
            <trkpt lon="-58.47616910934448" lat="-34.59164522733579">
                <ele>0.0</ele>
                <name>Av. Chorroarín</name>
            </trkpt>
            <trkpt lon="-58.476072549819946" lat="-34.59216632452382">
                <ele>0.0</ele>
                <name>Av. Chorroarín</name>
            </trkpt>
            <trkpt lon="-58.478862047195435" lat="-34.59976160739827">
                <ele>0.0</ele>
                <name>Av. San Martín</name>
            </trkpt>
            <trkpt lon="-58.47128748893738" lat="-34.60139538562161">
                <ele>0.0</ele>
                <name>Miguel Angel</name>
            </trkpt>
            <trkpt lon="-58.471845388412476" lat="-34.60395637869941">
                <ele>0.0</ele>
                <name>Av. Alvarez Jonte</name>
            </trkpt>
            <trkpt lon="-58.47404479980469" lat="-34.60530749149818">
                <ele>0.0</ele>
                <name>Gavilan</name>
            </trkpt>
            <trkpt lon="-58.46566557884216" lat="-34.61633634168662">
                <ele>0.0</ele>
                <name>Gavilan</name>
            </trkpt>
            <trkpt lon="-58.4622323513031" lat="-34.623382029696295">
                <ele>0.0</ele>
                <name>Av. Avellaneda</name>
            </trkpt>
            <trkpt lon="-58.459657430648804" lat="-34.62245499965843">
                <ele>0.0</ele>
                <name>Av. Boyaca</name>
            </trkpt>
            <trkpt lon="-58.4567928314209" lat="-34.62660448211332">
                <ele>0.0</ele>
                <name>Av. Rivadavia</name>
            </trkpt>
            <trkpt lon="-58.459893465042114" lat="-34.62793756966829">
                <ele>0.0</ele>
                <name>Av. Rivadavia</name>
            </trkpt>
            <trkpt lon="-58.46417427062988" lat="-34.629200010321206">
                <ele>0.0</ele>
                <name>Av. Rivadavia</name>
            </trkpt>
            <trkpt lon="-58.48764896392822" lat="-34.635220616844876">
                <ele>0.0</ele>
                <name>Av. Rivadavia</name>
            </trkpt>
            <trkpt lon="-58.49363565444946" lat="-34.636535911135226">
                <ele>25.0</ele>
                <time>2011-08-29T22:40:54.332Z</time>
                <name>Av. Rivadavia</name>
            </trkpt>
            <trkpt lon="-58.496586084365845" lat="-34.63694197093073">
                <ele>0.0</ele>
                <name>Calderon de la Barca</name>
            </trkpt>
            <trkpt lon="-58.49673628807068" lat="-34.636129849351775">
                <ele>0.0</ele>
                <name>Yerbal</name>
            </trkpt>
            <trkpt lon="-58.50112438201904" lat="-34.636685976943426">
                <ele>0.0</ele>
                <name>Dante</name>
            </trkpt>
            <trkpt lon="-58.500308990478516" lat="-34.64098480567727">
                <ele>0.0</ele>
                <name>Escalada</name>
            </trkpt>
            <trkpt lon="-58.49853873252869" lat="-34.642352969307986">
                <ele>26.0</ele>
                <time>2011-08-29T22:41:46.993Z</time>
                <name>Zelada</name>
            </trkpt>
            <trkpt lon="-58.502304553985596" lat="-34.64582182495142">
                <ele>0.0</ele>
                <name>Av. Emilio Castro</name>
            </trkpt>
            <trkpt lon="-58.52496385574341" lat="-34.656351075405055">
                <ele>0.0</ele>
                <name>Av. Mosconi</name>
            </trkpt>
            <trkpt lon="-58.539544343948364" lat="-34.663816942081546">
                <ele>0.0</ele>
                <name>Av. Mosconi</name>
            </trkpt>
            <trkpt lon="-58.553738594055176" lat="-34.667858466328425">
                <ele>0.0</ele>
                <name>Av. Mosconi</name>
            </trkpt>
            <trkpt lon="-58.557751178741455" lat="-34.669949745356305">
                <ele>0.0</ele>
                <name>Av. Illia</name>
            </trkpt>
            <trkpt lon="-58.56204271316528" lat="-34.67382332527082">
                <ele>0.0</ele>
                <name>Ocampo</name>
            </trkpt>
            <trkpt lon="-58.55867385864258" lat="-34.67636443647169">
                <ele>0.0</ele>
                <name>Pres. Yrigoyen</name>
            </trkpt>
            <trkpt lon="-58.56389880180359" lat="-34.68110234184442">
                <ele>0.0</ele>
                <name>Santamaria</name>
            </trkpt>
            <trkpt lon="-58.55939269065857" lat="-34.68448135268607">
                <ele>0.0</ele>
                <name>Santamaria</name>
            </trkpt>
        </trkseg>
    </trk>
    <trk>
        <name>B - San Justo por Artigas</name>
        <trkseg>
            <trkpt lon="-58.44882130622864" lat="-34.55913643552572">
                <ele>0.0</ele>
                <name>Av. Virrey Vertíz</name>
            </trkpt>
            <trkpt lon="-58.45046281814575" lat="-34.55836773147142">
                <ele>0.0</ele>
                <name>Juramento</name>
            </trkpt>
            <trkpt lon="-58.461384773254395" lat="-34.564791051604146">
                <ele>0.0</ele>
                <name>Av. Cramer</name>
            </trkpt>
            <trkpt lon="-58.457640409469604" lat="-34.569040595955414">
                <ele>0.0</ele>
                <name>Av. Elcano</name>
            </trkpt>
            <trkpt lon="-58.45791935920715" lat="-34.569809201367626">
                <ele>0.0</ele>
                <name>Av. de Los Incas</name>
            </trkpt>
            <trkpt lon="-58.45970034599304" lat="-34.57146123722898">
                <ele>0.0</ele>
                <name>Freire</name>
            </trkpt>
            <trkpt lon="-58.46092343330383" lat="-34.57063080619305">
                <ele>0.0</ele>
                <name>Freire</name>
            </trkpt>
            <trkpt lon="-58.46280097961426" lat="-34.568439841950884">
                <ele>0.0</ele>
                <name>Sucre</name>
            </trkpt>
            <trkpt lon="-58.47797155380249" lat="-34.57723868738659">
                <ele>0.0</ele>
                <name>Av. Donato Alvarez</name>
            </trkpt>
            <trkpt lon="-58.473873138427734" lat="-34.58177909272353">
                <ele>0.0</ele>
                <name>Av. Donato Alvarez</name>
            </trkpt>
            <trkpt lon="-58.470869064331055" lat="-34.58738800585713">
                <ele>0.0</ele>
                <name>Av. Chorroarín</name>
            </trkpt>
            <trkpt lon="-58.472092151641846" lat="-34.58836842266705">
                <ele>0.0</ele>
                <name>Avalos</name>
            </trkpt>
            <trkpt lon="-58.47344398498535" lat="-34.58772364534654">
                <ele>0.0</ele>
                <name>Quiros</name>
            </trkpt>
            <trkpt lon="-58.477853536605835" lat="-34.59117712029537">
                <ele>0.0</ele>
                <name>Av. de los Constituyentes</name>
            </trkpt>
            <trkpt lon="-58.47616910934448" lat="-34.59164522733579">
                <ele>0.0</ele>
                <name>Av. Chorroarín</name>
            </trkpt>
            <trkpt lon="-58.476072549819946" lat="-34.59216632452382">
                <ele>0.0</ele>
                <name>Av. Chorroarín</name>
            </trkpt>
            <trkpt lon="-58.47864747047424" lat="-34.59912574988822">
                <ele>0.0</ele>
                <name>Av. San Martín</name>
            </trkpt>
            <trkpt lon="-58.4796667098999" lat="-34.59914341266256">
                <ele>0.0</ele>
                <name>Cittadini</name>
            </trkpt>
            <trkpt lon="-58.48028898239136" lat="-34.60010602818366">
                <ele>0.0</ele>
                <name>Bordabeherere</name>
            </trkpt>
            <trkpt lon="-58.48146915435791" lat="-34.599947064921736">
                <ele>0.0</ele>
                <name>Empedrado</name>
            </trkpt>
            <trkpt lon="-58.48264932632446" lat="-34.602243171385076">
                <ele>0.0</ele>
                <name>Santo Tomé</name>
            </trkpt>
            <trkpt lon="-58.483099937438965" lat="-34.60252576471637">
                <ele>0.0</ele>
                <name>Bolivia</name>
            </trkpt>
            <trkpt lon="-58.470396995544434" lat="-34.61849072581521">
                <ele>0.0</ele>
                <name>Bolivia</name>
            </trkpt>
            <trkpt lon="-58.467103242874146" lat="-34.626163057672784">
                <ele>0.0</ele>
                <name>Bogotá</name>
            </trkpt>
            <trkpt lon="-58.464195728302" lat="-34.62530668756095">
                <ele>0.0</ele>
                <name>Fray Cayetano Rodriguez</name>
            </trkpt>
            <trkpt lon="-58.4627366065979" lat="-34.6288203973194">
                <ele>0.0</ele>
                <name>Av. Rivadavia</name>
            </trkpt>
            <trkpt lon="-58.48764896392822" lat="-34.635220616844876">
                <ele>0.0</ele>
                <name>Av. Rivadavia</name>
            </trkpt>
            <trkpt lon="-58.49363565444946" lat="-34.636535911135226">
                <ele>25.0</ele>
                <time>2011-08-29T22:40:54.332Z</time>
                <name>Av. Rivadavia</name>
            </trkpt>
            <trkpt lon="-58.496586084365845" lat="-34.63694197093073">
                <ele>0.0</ele>
                <name>Calderon de la Barca</name>
            </trkpt>
            <trkpt lon="-58.49673628807068" lat="-34.636129849351775">
                <ele>0.0</ele>
                <name>Yerbal</name>
            </trkpt>
            <trkpt lon="-58.50112438201904" lat="-34.636685976943426">
                <ele>0.0</ele>
                <name>Dante</name>
            </trkpt>
            <trkpt lon="-58.500308990478516" lat="-34.64098480567727">
                <ele>0.0</ele>
                <name>Escalada</name>
            </trkpt>
            <trkpt lon="-58.49853873252869" lat="-34.642352969307986">
                <ele>26.0</ele>
                <time>2011-08-29T22:41:46.993Z</time>
                <name>Zelada</name>
            </trkpt>
            <trkpt lon="-58.502304553985596" lat="-34.64582182495142">
                <ele>0.0</ele>
                <name>Av. Emilio Castro</name>
            </trkpt>
            <trkpt lon="-58.52496385574341" lat="-34.656351075405055">
                <ele>0.0</ele>
                <name>Av. Mosconi</name>
            </trkpt>
            <trkpt lon="-58.539544343948364" lat="-34.663816942081546">
                <ele>0.0</ele>
                <name>Av. Mosconi</name>
            </trkpt>
            <trkpt lon="-58.553738594055176" lat="-34.667858466328425">
                <ele>0.0</ele>
                <name>Av. Mosconi</name>
            </trkpt>
            <trkpt lon="-58.557751178741455" lat="-34.669949745356305">
                <ele>0.0</ele>
                <name>Av. Illia</name>
            </trkpt>
            <trkpt lon="-58.56204271316528" lat="-34.67382332527082">
                <ele>0.0</ele>
                <name>Ocampo</name>
            </trkpt>
            <trkpt lon="-58.55867385864258" lat="-34.67636443647169">
                <ele>0.0</ele>
                <name>Pres. Yrigoyen</name>
            </trkpt>
            <trkpt lon="-58.56389880180359" lat="-34.68110234184442">
                <ele>0.0</ele>
                <name>Santamaria</name>
            </trkpt>
            <trkpt lon="-58.55939269065857" lat="-34.68448135268607">
                <ele>0.0</ele>
                <name>Santamaria</name>
            </trkpt>
        </trkseg>
    </trk>
    <trk>
        <name>B - Barrancas de Belgrano por Artigas</name>
        <trkseg>
            <trkpt lon="-58.55942487716675" lat="-34.68450781958961">
                <ele>0.0</ele>
                <name>Eizaguirre</name>
            </trkpt>
            <trkpt lon="-58.556281328201294" lat="-34.68171992592587">
                <ele>0.0</ele>
                <name>Arieta</name>
            </trkpt>
            <trkpt lon="-58.56416702270508" lat="-34.67588798406028">
                <ele>0.0</ele>
                <name>Av. Illia</name>
            </trkpt>
            <trkpt lon="-58.55765461921692" lat="-34.66999386459839">
                <ele>0.0</ele>
                <name>Av. Mosconi</name>
            </trkpt>
            <trkpt lon="-58.55362057685852" lat="-34.667867290401475">
                <ele>0.0</ele>
                <name>Av. Mosconi</name>
            </trkpt>
            <trkpt lon="-58.53943705558777" lat="-34.66394048504507">
                <ele>0.0</ele>
                <name>Av. Mosconi</name>
            </trkpt>
            <trkpt lon="-58.52488875389099" lat="-34.656386376593666">
                <ele>0.0</ele>
                <name>Av. Emilio Castro</name>
            </trkpt>
            <trkpt lon="-58.50026607513428" lat="-34.64491269870105">
                <ele>0.0</ele>
                <name>Araujo</name>
            </trkpt>
            <trkpt lon="-58.49986910820007" lat="-34.645203973245145">
                <ele>0.0</ele>
                <name>Zequeira</name>
            </trkpt>
            <trkpt lon="-58.49916100502014" lat="-34.644400759143956">
                <ele>0.0</ele>
                <name>Basualdo</name>
            </trkpt>
            <trkpt lon="-58.50099563598633" lat="-34.64290022843985">
                <ele>0.0</ele>
                <name>Pizarro</name>
            </trkpt>
            <trkpt lon="-58.49947214126587" lat="-34.64157620821004">
                <ele>0.0</ele>
                <name>Escalada</name>
            </trkpt>
            <trkpt lon="-58.499771" lat="-34.641281">
                <ele>0.0</ele>
                <name>Cajaravilla</name>
            </trkpt>
            <trkpt lon="-58.49876403808594" lat="-34.64118782493259">
                <ele>0.0</ele>
                <name>Manzoni</name>
            </trkpt>
            <trkpt lon="-58.49941849708557" lat="-34.63745395653501">
                <ele>0.0</ele>
                <name>Av. Rivadavia</name>
            </trkpt>
            <trkpt lon="-58.49363565444946" lat="-34.63665066736591">
                <ele>0.0</ele>
                <name>Av. Rivadavia</name>
            </trkpt>
            <trkpt lon="-58.47565412521362" lat="-34.6323780975402">
                <ele>0.0</ele>
                <name>Av. Rivadavia</name>
            </trkpt>
            <trkpt lon="-58.46552610397339" lat="-34.62974735624282">
                <ele>0.0</ele>
                <name>Varela</name>
            </trkpt>
            <trkpt lon="-58.46500039100647" lat="-34.63090383333064">
                <ele>0.0</ele>
                <name>Falcón</name>
            </trkpt>
            <trkpt lon="-58.463573" lat="-34.630486">
                <ele>0.0</ele>
                <name>Artigas</name>
            </trkpt>
            <trkpt lon="-58.469098806381226" lat="-34.61779320592797">
                <ele>0.0</ele>
                <name>Artigas</name>
            </trkpt>
            <trkpt lon="-58.48222017288208" lat="-34.60140421676791">
                <ele>0.0</ele>
                <name>Empedrado</name>
            </trkpt>
            <trkpt lon="-58.4807825088501" lat="-34.598887302066935">
                <ele>0.0</ele>
                <name>Av. San Martín</name>
            </trkpt>
            <trkpt lon="-58.478829860687256" lat="-34.59962030615005">
                <ele>0.0</ele>
                <name>Av. Chorroarin</name>
            </trkpt>
            <trkpt lon="-58.4757399559021" lat="-34.59137142919837">
                <ele>0.0</ele>
                <name>Av. Chorroarin</name>
            </trkpt>
            <trkpt lon="-58.47292900085449" lat="-34.58914568182695">
                <ele>0.0</ele>
                <name>Morlote</name>
            </trkpt>
            <trkpt lon="-58.47219944000244" lat="-34.589799280492734">
                <ele>0.0</ele>
                <name>Tronador</name>
            </trkpt>
            <trkpt lon="-58.47022533416748" lat="-34.587891464582846">
                <ele>0.0</ele>
                <name>Av. Del Campo</name>
            </trkpt>
            <trkpt lon="-58.47086" lat="-34.587273">
                <ele>0.0</ele>
                <name>Av. Combatientes de Malvinas</name>
            </trkpt>
            <trkpt lon="-58.472092151641846" lat="-34.58501199280933">
                <ele>0.0</ele>
                <name>Av. Combatientes de Malvinas</name>
            </trkpt>
            <trkpt lon="-58.47391605377197" lat="-34.58165542738144">
                <ele>0.0</ele>
                <name>Av. Triunvirato</name>
            </trkpt>
            <trkpt lon="-58.47541809082031" lat="-34.57999476067605">
                <ele>0.0</ele>
                <name>Av. Combatientes de Malvinas</name>
            </trkpt>
            <trkpt lon="-58.477134704589844" lat="-34.578069052419345">
                <ele>25.0</ele>
                <time>2011-08-29T22:30:24.074Z</time>
                <name>La Pampa</name>
            </trkpt>
            <trkpt lon="-58.46095561981201" lat="-34.56881089640736">
                <ele>0.0</ele>
                <name>Zapiola</name>
            </trkpt>
            <trkpt lon="-58.45996856689453" lat="-34.57011840843747">
                <ele>0.0</ele>
                <name>Zapiola</name>
            </trkpt>
            <trkpt lon="-58.458155393600464" lat="-34.57095767897363">
                <ele>0.0</ele>
                <name>Av. Elcano</name>
            </trkpt>
            <trkpt lon="-58.45746874809265" lat="-34.56911127261178">
                <ele>0.0</ele>
                <name>Av. Cramer</name>
            </trkpt>
            <trkpt lon="-58.46041917800903" lat="-34.56565688075027">
                <ele>0.0</ele>
                <name>Echeverria</name>
            </trkpt>
            <trkpt lon="-58.44903588294983" lat="-34.55898622954479">
                <ele>0.0</ele>
                <name>Av. Virrey Vertíz</name>
            </trkpt>
            <trkpt lon="-58.45028042793274" lat="-34.55832355286164">
                <ele>0.0</ele>
                <name>Av. Virrey Vertíz</name>
            </trkpt>
        </trkseg>
    </trk>
</gpx>
