<?xml version="1.0" encoding="UTF-8" standalone="yes"?>
<gpx xmlns="http://www.topografix.com/GPX/1/1" xmlns:gpxtrx="http://www.garmin.com/xmlschemas/GpxExtensions/v3" xmlns:rcxx="http://www.routeconverter.de/xmlschemas/RouteCatalogExtensions/1.0" xmlns:xsi="http://www.w3.org/2001/XMLSchema-instance" xmlns:gpxtpx="http://www.garmin.com/xmlschemas/TrackPointExtension/v1" xmlns:gpxx="http://www.garmin.com/xmlschemas/WaypointExtension/v1" xmlns:nmea="http://trekbuddy.net/2009/01/gpx/nmea" creator="Generated by Christian Pesch's RouteConverter. See http://www.routeconverter.com" version="1.1">
    <trk>
        <name>A - Don Torcuato</name>
        <desc>&lt;a href=&quot;http://www.masmapas.com/colectivo-127-plaza-martln-fierro-panamericana-y-gral-belgrano&quot;&gt;Mas info sobre la linea de colectivos 127 (Colectivo 127 - Plaza Martln Fierro - Panamericana Y Gral. Belgrano )&lt;/a&gt;</desc>
        <trkseg>
            <trkpt lon="-58.40877056121826" lat="-34.62558920238922">
                <ele>0.0</ele>
                <name>Urquiza</name>
            </trkpt>
            <trkpt lon="-58.4087598323822" lat="-34.62612774361609">
                <ele>0.0</ele>
                <name>Cochabamba</name>
            </trkpt>
            <trkpt lon="-58.417419" lat="-34.627079">
                <ele>0.0</ele>
                <name>Colombres</name>
            </trkpt>
            <trkpt lon="-58.417686223983765" lat="-34.62570397376343">
                <ele>27.0</ele>
                <time>2011-08-31T17:59:38.817Z</time>
                <name>Colombres</name>
            </trkpt>
            <trkpt lon="-58.41825485229492" lat="-34.61744002906607">
                <ele>27.0</ele>
                <time>2011-08-31T17:59:38.817Z</time>
                <name>Colombres</name>
            </trkpt>
            <trkpt lon="-58.41863036155701" lat="-34.61428785901465">
                <ele>0.0</ele>
                <name>Colombres</name>
            </trkpt>
            <trkpt lon="-58.41971397399902" lat="-34.61110907892409">
                <ele>0.0</ele>
                <name>Jeronimo Salguero</name>
            </trkpt>
            <trkpt lon="-58.42000365257263" lat="-34.60853947605806">
                <ele>0.0</ele>
                <name>Jeronimo Salguero</name>
            </trkpt>
            <trkpt lon="-58.41982126235962" lat="-34.605987454983115">
                <ele>37.0</ele>
                <time>2011-08-31T18:00:14.057Z</time>
                <name>Jeronimo Salguero</name>
            </trkpt>
            <trkpt lon="-58.419156074523926" lat="-34.60081252788902">
                <ele>0.0</ele>
                <name>Guardia Vieja</name>
            </trkpt>
            <trkpt lon="-58.43027114868164" lat="-34.59969095680421">
                <ele>0.0</ele>
                <name>Av. Estado de Israel</name>
            </trkpt>
            <trkpt lon="-58.431880474090576" lat="-34.60163382624231">
                <ele>0.0</ele>
                <name>Aguirre</name>
            </trkpt>
            <trkpt lon="-58.434144258499146" lat="-34.599320040199416">
                <ele>0.0</ele>
                <name>Julian Alvarez</name>
            </trkpt>
            <trkpt lon="-58.435152769088745" lat="-34.59996472752142">
                <ele>0.0</ele>
                <name>de Velazco</name>
            </trkpt>
            <trkpt lon="-58.44172954559326" lat="-34.59296121224385">
                <ele>14.0</ele>
                <time>2011-08-31T18:01:19.048Z</time>
                <name>de Velazco</name>
            </trkpt>
            <trkpt lon="-58.44593524932861" lat="-34.588668728204375">
                <ele>0.0</ele>
                <name>Guevara</name>
            </trkpt>
            <trkpt lon="-58.45181465148926" lat="-34.58627508627068">
                <ele>0.0</ele>
                <name>Maure</name>
            </trkpt>
            <trkpt lon="-58.45256567001343" lat="-34.58780313871125">
                <ele>0.0</ele>
                <name>Av. Corrientes</name>
            </trkpt>
            <trkpt lon="-58.455162048339844" lat="-34.58694637288446">
                <ele>26.0</ele>
                <time>2011-08-31T18:01:52.643Z</time>
                <name>Av. Guzmán</name>
            </trkpt>
            <trkpt lon="-58.45548391342163" lat="-34.58715835700427">
                <ele>27.0</ele>
                <time>2011-08-31T18:01:52.643Z</time>
                <name>Av. Guzmán</name>
            </trkpt>
            <trkpt lon="-58.459861278533936" lat="-34.585674456809016">
                <ele>0.0</ele>
                <name>Av. Guzmán</name>
            </trkpt>
            <trkpt lon="-58.46029043197632" lat="-34.58563029270667">
                <ele>25.0</ele>
                <time>2011-08-31T18:02:14.725Z</time>
                <name>Av. Elcano</name>
            </trkpt>
            <trkpt lon="-58.46049427986145" lat="-34.585109154526414">
                <ele>0.0</ele>
                <name>Av. Elcano</name>
            </trkpt>
            <trkpt lon="-58.46053719520569" lat="-34.58397853842463">
                <ele>0.0</ele>
                <name>Guevara</name>
            </trkpt>
            <trkpt lon="-58.46200704574585" lat="-34.58396087242598">
                <ele>28.0</ele>
                <time>2011-08-31T18:02:39.795Z</time>
                <name>14 de Julio</name>
            </trkpt>
            <trkpt lon="-58.46204996109009" lat="-34.58510032164774">
                <ele>30.0</ele>
                <time>2011-08-31T18:02:39.795Z</time>
                <name>Av. Triunvirato</name>
            </trkpt>
            <trkpt lon="-58.46344470977783" lat="-34.58502965858452">
                <ele>31.0</ele>
                <time>2011-08-31T18:02:39.795Z</time>
                <name>Av. Triunvirato</name>
            </trkpt>
            <trkpt lon="-58.47393751144409" lat="-34.58163776088898">
                <ele>0.0</ele>
                <name>Av. Triunvirato</name>
            </trkpt>
            <trkpt lon="-58.475589752197266" lat="-34.5797827582828">
                <ele>0.0</ele>
                <name>Av. Triunvirato</name>
            </trkpt>
            <trkpt lon="-58.47892642021179" lat="-34.57904074564815">
                <ele>0.0</ele>
                <name>Av. Triunvirato</name>
            </trkpt>
            <trkpt lon="-58.48417282104492" lat="-34.57558676632737">
                <ele>0.0</ele>
                <name>Av. Olazabal</name>
            </trkpt>
            <trkpt lon="-58.482842445373535" lat="-34.57479171240498">
                <ele>0.0</ele>
                <name>Pacheco</name>
            </trkpt>
            <trkpt lon="-58.48428010940552" lat="-34.57306023533023">
                <ele>0.0</ele>
                <name>Av. Monroe</name>
            </trkpt>
            <trkpt lon="-58.48546028137207" lat="-34.57371396050397">
                <ele>0.0</ele>
                <name>Colodrero</name>
            </trkpt>
            <trkpt lon="-58.48615765571594" lat="-34.57298072786391">
                <ele>0.0</ele>
                <name>Av. Roosevelt</name>
            </trkpt>
            <trkpt lon="-58.496350049972534" lat="-34.57858140117384">
                <ele>0.0</ele>
                <name>Av. de Los Constituyentes</name>
            </trkpt>
            <trkpt lon="-58.49889278411865" lat="-34.576646826395816">
                <ele>0.0</ele>
                <name>Franco</name>
            </trkpt>
            <trkpt lon="-58.50202560424805" lat="-34.5786167354543">
                <ele>0.0</ele>
                <name>Artigas</name>
            </trkpt>
            <trkpt lon="-58.50540518760681" lat="-34.57487121813939">
                <ele>0.0</ele>
                <name>Av. Albarellos</name>
            </trkpt>
            <trkpt lon="-58.506553173065186" lat="-34.57552492907277">
                <ele>0.0</ele>
                <name>Bolivia</name>
            </trkpt>
            <trkpt lon="-58.50913882255554" lat="-34.572627360426964">
                <ele>0.0</ele>
                <name>Prado</name>
            </trkpt>
            <trkpt lon="-58.506842851638794" lat="-34.571258047422795">
                <ele>0.0</ele>
                <name>Av. de Los Constituyentes</name>
            </trkpt>
            <trkpt lon="-58.50913882255554" lat="-34.56988871186684">
                <ele>0.0</ele>
                <name>Av. de Los Constituyentes</name>
            </trkpt>
            <trkpt lon="-58.5131299495697" lat="-34.56578940482411">
                <ele>0.0</ele>
                <name>Av. Illia</name>
            </trkpt>
            <trkpt lon="-58.51649880409241" lat="-34.567688893341696">
                <ele>0.0</ele>
                <name>Alvear</name>
            </trkpt>
            <trkpt lon="-58.524556159973145" lat="-34.55858862416841">
                <ele>0.0</ele>
                <name>Saenz Pena</name>
            </trkpt>
            <trkpt lon="-58.52264642715454" lat="-34.55678612262567">
                <ele>0.0</ele>
                <name>4 de Febrero</name>
            </trkpt>
            <trkpt lon="-58.52346181869507" lat="-34.555725809356055">
                <ele>0.0</ele>
                <name>Cuba</name>
            </trkpt>
            <trkpt lon="-58.52511405944824" lat="-34.55657406105289">
                <ele>0.0</ele>
                <name>Cuba</name>
            </trkpt>
            <trkpt lon="-58.525757789611816" lat="-34.556300147387994">
                <ele>0.0</ele>
                <name>Mendoza</name>
            </trkpt>
            <trkpt lon="-58.527806997299194" lat="-34.55420600343573">
                <ele>0.0</ele>
                <name>Mendoza</name>
            </trkpt>
            <trkpt lon="-58.52984547615051" lat="-34.553242856241944">
                <ele>0.0</ele>
                <name>Mendoza</name>
            </trkpt>
            <trkpt lon="-58.53073596954346" lat="-34.552147152299455">
                <ele>0.0</ele>
                <name>Campos</name>
            </trkpt>
            <trkpt lon="-58.527528047561646" lat="-34.54641214385331">
                <ele>0.0</ele>
                <name>Uriburu</name>
            </trkpt>
            <trkpt lon="-58.53147625923157" lat="-34.54257680211383">
                <ele>0.0</ele>
                <name>Italia</name>
            </trkpt>
            <trkpt lon="-58.530049324035645" lat="-34.54141909511229">
                <ele>0.0</ele>
                <name>Italia</name>
            </trkpt>
            <trkpt lon="-58.5281503200531" lat="-34.54047347515593">
                <ele>0.0</ele>
                <name>Fleming</name>
            </trkpt>
            <trkpt lon="-58.52983474731445" lat="-34.5372653573196">
                <ele>0.0</ele>
                <name>Drago</name>
            </trkpt>
            <trkpt lon="-58.53357911109924" lat="-34.53962505932335">
                <ele>0.0</ele>
                <name>Drago</name>
            </trkpt>
            <trkpt lon="-58.53785991668701" lat="-34.5441940299738">
                <ele>29.0</ele>
                <time>2011-08-31T18:13:18.382Z</time>
                <name>Entre Rios</name>
            </trkpt>
            <trkpt lon="-58.54612112045288" lat="-34.553136821007186">
                <ele>0.0</ele>
                <name>San Luis</name>
            </trkpt>
            <trkpt lon="-58.549736738204956" lat="-34.55028265516605">
                <ele>0.0</ele>
                <name>Av. Argentina</name>
            </trkpt>
            <trkpt lon="-58.54960799217224" lat="-34.55003523060553">
                <ele>0.0</ele>
                <name>Av. Argentina</name>
            </trkpt>
            <trkpt lon="-58.551045656204224" lat="-34.54916040215296">
                <ele>0.0</ele>
                <name>Pueyrredón</name>
            </trkpt>
            <trkpt lon="-58.55283737182617" lat="-34.55065379062734">
                <ele>0.0</ele>
                <name>Rodriguez</name>
            </trkpt>
            <trkpt lon="-58.57479929924011" lat="-34.53294348246964">
                <ele>0.0</ele>
                <name>:2way:Washington</name>
            </trkpt>
            <trkpt lon="-58.57637643814087" lat="-34.53418085197326">
                <ele>0.0</ele>
                <name>Esmeralda</name>
            </trkpt>
            <trkpt lon="-58.575485944747925" lat="-34.53497629408649">
                <ele>0.0</ele>
                <name>:2way:Roldan</name>
            </trkpt>
            <trkpt lon="-58.572495" lat="-34.532558">
                <ele>0.0</ele>
                <name>Echagüe</name>
            </trkpt>
            <trkpt lon="-58.57491731643677" lat="-34.53064546174814">
                <ele>0.0</ele>
                <name>Av. Juan Manuel de Rosas</name>
            </trkpt>
            <trkpt lon="-58.570261001586914" lat="-34.521355508593516">
                <ele>0.0</ele>
                <name>Emilio Mitre</name>
            </trkpt>
            <trkpt lon="-58.57837200164795" lat="-34.51490231477089">
                <ele>0.0</ele>
                <name>Gascón</name>
            </trkpt>
            <trkpt lon="-58.57762098312378" lat="-34.514336531479785">
                <ele>0.0</ele>
                <name>Cisneros</name>
            </trkpt>
            <trkpt lon="-58.582749366760254" lat="-34.51021680606372">
                <ele>0.0</ele>
                <name>Obligado</name>
            </trkpt>
            <trkpt lon="-58.57980966567993" lat="-34.50791815829751">
                <ele>0.0</ele>
                <name>Sarratea</name>
            </trkpt>
            <trkpt lon="-58.58438014984131" lat="-34.50390421364995">
                <ele>0.0</ele>
                <name>Juan de San Martín</name>
            </trkpt>
            <trkpt lon="-58.578758239746094" lat="-34.4991473505708">
                <ele>0.0</ele>
                <name>Bernardo de Irigoyen</name>
            </trkpt>
            <trkpt lon="-58.581976890563965" lat="-34.49645933765698">
                <ele>0.0</ele>
                <name>Camino Real Morón</name>
            </trkpt>
            <trkpt lon="-58.58262062072754" lat="-34.493541330804696">
                <ele>0.0</ele>
                <name>Camino Real Morón</name>
            </trkpt>
            <trkpt lon="-58.58182668685913" lat="-34.487855345336115">
                <ele>0.0</ele>
                <name>Colectora Norte</name>
            </trkpt>
            <trkpt lon="-58.6046576499939" lat="-34.486148589761335">
                <ele>0.0</ele>
                <name>Colectora Norte</name>
            </trkpt>
            <trkpt lon="-58.616394996643066" lat="-34.484654044541095">
                <ele>15.0</ele>
                <time>2011-08-31T18:18:47.004Z</time>
                <name>Colectora Norte</name>
            </trkpt>
            <trkpt lon="-58.62806797027588" lat="-34.4829914420631">
                <ele>16.0</ele>
                <time>2011-08-31T18:18:47.004Z</time>
                <name>Colectora Norte</name>
            </trkpt>
            <trkpt lon="-58.63503098487854" lat="-34.481567591259875">
                <ele>0.0</ele>
                <name>Colectora Norte</name>
            </trkpt>
        </trkseg>
    </trk>
    <trk>
        <name>A - Plaza Martin Fierro</name>
        <desc>&lt;a href=&quot;http://www.masmapas.com/colectivo-127-plaza-martln-fierro-panamericana-y-gral-belgrano&quot;&gt;Mas info sobre la linea de colectivos 127 (Colectivo 127 - Plaza Martln Fierro - Panamericana Y Gral. Belgrano )&lt;/a&gt;</desc>
        <trkseg>
            <trkpt lon="-58.63654375076294" lat="-34.48252272367455">
                <ele>0.0</ele>
                <name>Colectora Sur</name>
            </trkpt>
            <trkpt lon="-58.625439405441284" lat="-34.484432955696384">
                <ele>0.0</ele>
                <name>Colectora Sur</name>
            </trkpt>
            <trkpt lon="-58.61535429954529" lat="-34.48574179312311">
                <ele>0.0</ele>
                <name>Colectora Sur</name>
            </trkpt>
            <trkpt lon="-58.598724603652954" lat="-34.48769616753647">
                <ele>0.0</ele>
                <name>Colectora Sur</name>
            </trkpt>
            <trkpt lon="-58.592737913131714" lat="-34.48800567964572">
                <ele>0.0</ele>
                <name>Colectora Sur</name>
            </trkpt>
            <trkpt lon="-58.59092473983765" lat="-34.48849205349674">
                <ele>0.0</ele>
                <name>Colectora Sur</name>
            </trkpt>
            <trkpt lon="-58.58951926231384" lat="-34.48826213166611">
                <ele>7.0</ele>
                <time>2011-08-31T18:20:38.357Z</time>
                <name>Colectora Sur</name>
            </trkpt>
            <trkpt lon="-58.584197759628296" lat="-34.4886600728952">
                <ele>0.0</ele>
                <name>Colectora Sur</name>
            </trkpt>
            <trkpt lon="-58.58266353607178" lat="-34.48948247875177">
                <ele>0.0</ele>
                <name>Camino Real Morón</name>
            </trkpt>
            <trkpt lon="-58.58238458633423" lat="-34.492542111048394">
                <ele>8.0</ele>
                <time>2011-08-31T18:20:59.685Z</time>
                <name>Camino Real Morón</name>
            </trkpt>
            <trkpt lon="-58.58266353607178" lat="-34.493638599345005">
                <ele>0.0</ele>
                <name>Camino Real Morón</name>
            </trkpt>
            <trkpt lon="-58.582212924957275" lat="-34.4963090185867">
                <ele>0.0</ele>
                <name>Bernardo de Irigoyen</name>
            </trkpt>
            <trkpt lon="-58.57890844345093" lat="-34.49906777248599">
                <ele>0.0</ele>
                <name>Juan de San Martín</name>
            </trkpt>
            <trkpt lon="-58.584455251693726" lat="-34.503886530646746">
                <ele>0.0</ele>
                <name>Sarratea</name>
            </trkpt>
            <trkpt lon="-58.579970598220825" lat="-34.5078032242449">
                <ele>0.0</ele>
                <name>Obligado</name>
            </trkpt>
            <trkpt lon="-58.58283519744873" lat="-34.510154920223606">
                <ele>0.0</ele>
                <name>Cisneros</name>
            </trkpt>
            <trkpt lon="-58.577760457992554" lat="-34.51426580829827">
                <ele>0.0</ele>
                <name>Gascón</name>
            </trkpt>
            <trkpt lon="-58.57843637466431" lat="-34.51485811308962">
                <ele>0.0</ele>
                <name>Emilio Mitre</name>
            </trkpt>
            <trkpt lon="-58.570454" lat="-34.521381">
                <ele>0.0</ele>
                <name>Av. Brig. Gral. Juan Manuel de Rosas</name>
            </trkpt>
            <trkpt lon="-58.5716450214386" lat="-34.524281381076825">
                <ele>0.0</ele>
                <name>Av. Brig. Gral. Juan Manuel de Rosas</name>
            </trkpt>
            <trkpt lon="-58.57433795928955" lat="-34.529072164836116">
                <ele>0.0</ele>
                <name>Buenos Aires</name>
            </trkpt>
            <trkpt lon="-58.572245836257935" lat="-34.530707332367555">
                <ele>0.0</ele>
                <name>Washington</name>
            </trkpt>
            <trkpt lon="-58.575721979141235" lat="-34.53364171466444">
                <ele>0.0</ele>
                <name>Independencia</name>
            </trkpt>
            <trkpt lon="-58.55240821838379" lat="-34.55248293407331">
                <ele>0.0</ele>
                <name>Witcomb</name>
            </trkpt>
            <trkpt lon="-58.550682" lat="-34.55098">
                <ele>0.0</ele>
                <name>Alberdi</name>
            </trkpt>
            <trkpt lon="-58.54693651199341" lat="-34.554011607652534">
                <ele>0.0</ele>
                <name>Entre Rios</name>
            </trkpt>
            <trkpt lon="-58.537806272506714" lat="-34.5442293788657">
                <ele>29.0</ele>
                <time>2011-08-31T18:23:37.378Z</time>
                <name>Drago</name>
            </trkpt>
            <trkpt lon="-58.533557653427124" lat="-34.539704598675">
                <ele>0.0</ele>
                <name>Drago</name>
            </trkpt>
            <trkpt lon="-58.529813289642334" lat="-34.53730070915402">
                <ele>0.0</ele>
                <name>Fleming</name>
            </trkpt>
            <trkpt lon="-58.52760314941406" lat="-34.54159584531435">
                <ele>0.0</ele>
                <name>Yrigoyen</name>
            </trkpt>
            <trkpt lon="-58.52919101715088" lat="-34.542400053994804">
                <ele>0.0</ele>
                <name>Av. de Los Constituyentes</name>
            </trkpt>
            <trkpt lon="-58.52670192718506" lat="-34.54501588782723">
                <ele>0.0</ele>
                <name>Campos</name>
            </trkpt>
            <trkpt lon="-58.53144407272339" lat="-34.55323401997755">
                <ele>0.0</ele>
                <name>Mendoza</name>
            </trkpt>
            <trkpt lon="-58.529813289642334" lat="-34.55330471006649">
                <ele>0.0</ele>
                <name>Mendoza</name>
            </trkpt>
            <trkpt lon="-58.528032302856445" lat="-34.554285528852496">
                <ele>0.0</ele>
                <name>Mendoza</name>
            </trkpt>
            <trkpt lon="-58.525575399398804" lat="-34.55633549113737">
                <ele>0.0</ele>
                <name>Mendoza</name>
            </trkpt>
            <trkpt lon="-58.52516770362854" lat="-34.55658289696256">
                <ele>0.0</ele>
                <name>Cuba</name>
            </trkpt>
            <trkpt lon="-58.52347254753113" lat="-34.55587602122423">
                <ele>0.0</ele>
                <name>4 de Febrero</name>
            </trkpt>
            <trkpt lon="-58.52274298667908" lat="-34.55673310728316">
                <ele>0.0</ele>
                <name>Sáenz Pena</name>
            </trkpt>
            <trkpt lon="-58.525285720825195" lat="-34.55911876424792">
                <ele>0.0</ele>
                <name>Roca</name>
            </trkpt>
            <trkpt lon="-58.51841926574707" lat="-34.566964442374235">
                <ele>0.0</ele>
                <name>Estrada</name>
            </trkpt>
            <trkpt lon="-58.51426720619202" lat="-34.564446484436495">
                <ele>0.0</ele>
                <name>Av. de Los Constituyentes</name>
            </trkpt>
            <trkpt lon="-58.50894570350647" lat="-34.57015374631509">
                <ele>0.0</ele>
                <name>Av. de Los Constituyentes</name>
            </trkpt>
            <trkpt lon="-58.50699305534363" lat="-34.571284550469144">
                <ele>0.0</ele>
                <name>Prado</name>
            </trkpt>
            <trkpt lon="-58.50924611091614" lat="-34.57263619463119">
                <ele>0.0</ele>
                <name>El Gaucho</name>
            </trkpt>
            <trkpt lon="-58.510072231292725" lat="-34.574544360745016">
                <ele>0.0</ele>
                <name>El Gaucho</name>
            </trkpt>
            <trkpt lon="-58.509063720703125" lat="-34.57571927457518">
                <ele>0.0</ele>
                <name>Ezeiza</name>
            </trkpt>
            <trkpt lon="-58.508548736572266" lat="-34.57537475269153">
                <ele>27.0</ele>
                <time>2011-08-31T18:26:27.113Z</time>
                <name>Condarco</name>
            </trkpt>
            <trkpt lon="-58.50765824317932" lat="-34.576319975982805">
                <ele>28.0</ele>
                <time>2011-08-31T18:26:27.113Z</time>
                <name>Av. Albarellos</name>
            </trkpt>
            <trkpt lon="-58.50541591644287" lat="-34.574941889839465">
                <ele>0.0</ele>
                <name>Artigas</name>
            </trkpt>
            <trkpt lon="-58.50138187408447" lat="-34.5794382532405">
                <ele>0.0</ele>
                <name>San Alberto</name>
            </trkpt>
            <trkpt lon="-58.49802374839783" lat="-34.577371193001234">
                <ele>25.0</ele>
                <time>2011-08-31T18:27:10.767Z</time>
                <name>Dr. Rivera</name>
            </trkpt>
            <trkpt lon="-58.488903" lat="-34.572376">
                <ele>0.0</ele>
                <name>Av. Triunvirato</name>
            </trkpt>
            <trkpt lon="-58.48640441894531" lat="-34.574332344450724">
                <ele>29.0</ele>
                <time>2011-08-31T18:27:32.207Z</time>
                <name>Av. Triunvirato</name>
            </trkpt>
            <trkpt lon="-58.47901225090027" lat="-34.579129080832956">
                <ele>0.0</ele>
                <name>Av. Triunvirato</name>
            </trkpt>
            <trkpt lon="-58.47548246383667" lat="-34.57996826040646">
                <ele>0.0</ele>
                <name>Av. Triunvirato</name>
            </trkpt>
            <trkpt lon="-58.47389459609985" lat="-34.58169959359617">
                <ele>0.0</ele>
                <name>Av. Triunvirato</name>
            </trkpt>
            <trkpt lon="-58.46343398094177" lat="-34.58506499012364">
                <ele>0.0</ele>
                <name>Av. Triunvirato</name>
            </trkpt>
            <trkpt lon="-58.46058011054993" lat="-34.58517098465089">
                <ele>0.0</ele>
                <name>Av. Elcano</name>
            </trkpt>
            <trkpt lon="-58.460376262664795" lat="-34.58573628651287">
                <ele>0.0</ele>
                <name>Av. Guzmán</name>
            </trkpt>
            <trkpt lon="-58.45977544784546" lat="-34.58572745370085">
                <ele>0.0</ele>
                <name>Av. Guzmán</name>
            </trkpt>
            <trkpt lon="-58.45734000205994" lat="-34.586522403022464">
                <ele>26.0</ele>
                <time>2011-08-31T18:33:23.362Z</time>
                <name>Av. Guzmán</name>
            </trkpt>
            <trkpt lon="-58.45627784729004" lat="-34.587202520294504">
                <ele>25.0</ele>
                <time>2011-08-31T18:33:23.362Z</time>
                <name>Av. Guzmán</name>
            </trkpt>
            <trkpt lon="-58.455151319503784" lat="-34.587361507944955">
                <ele>23.0</ele>
                <time>2011-08-31T18:33:23.362Z</time>
                <name>Av. Corrientes</name>
            </trkpt>
            <trkpt lon="-58.45059156417847" lat="-34.58886304297369">
                <ele>0.0</ele>
                <name>Av. Corrientes</name>
            </trkpt>
            <trkpt lon="-58.438800573349" lat="-34.59989407710014">
                <ele>0.0</ele>
                <name>Av. Corrientes</name>
            </trkpt>
            <trkpt lon="-58.432191610336304" lat="-34.60208421221365">
                <ele>0.0</ele>
                <name>Av. Corrientes</name>
            </trkpt>
            <trkpt lon="-58.42100143432617" lat="-34.60316159619589">
                <ele>0.0</ele>
                <name>Av. Medrano</name>
            </trkpt>
            <trkpt lon="-58.42155933380127" lat="-34.60855713683027">
                <ele>0.0</ele>
                <name>Av. Medrano</name>
            </trkpt>
            <trkpt lon="-58.42105507850647" lat="-34.61147994287324">
                <ele>32.0</ele>
                <time>2011-08-31T18:34:24.976Z</time>
                <name>Av. Castro Barros</name>
            </trkpt>
            <trkpt lon="-58.41972470283508" lat="-34.617572470565385">
                <ele>0.0</ele>
                <name>Av. Castro Barros</name>
            </trkpt>
            <trkpt lon="-58.419638872146606" lat="-34.620000527266356">
                <ele>30.0</ele>
                <time>2011-08-31T18:34:42.293Z</time>
                <name>Av. Castro Barros</name>
            </trkpt>
            <trkpt lon="-58.41888785362244" lat="-34.625862887711804">
                <ele>0.0</ele>
                <name>Av. San Juan</name>
            </trkpt>
            <trkpt lon="-58.40579867362976" lat="-34.624264905818535">
                <ele>0.0</ele>
                <name>Dean Funes</name>
            </trkpt>
            <trkpt lon="-58.40560555458069" lat="-34.625809916429496">
                <ele>0.0</ele>
                <name>Cochabamba</name>
            </trkpt>
            <trkpt lon="-58.40687155723572" lat="-34.62589820188122">
                <ele>35.0</ele>
                <time>2011-08-31T18:35:27.439Z</time>
                <name>La Rioja</name>
            </trkpt>
            <trkpt lon="-58.406968116760254" lat="-34.62535965916453">
                <ele>35.0</ele>
                <time>2011-08-31T18:35:35.415Z</time>
                <name>Barcela</name>
            </trkpt>
            <trkpt lon="-58.40880274772644" lat="-34.625580373815396">
                <ele>35.0</ele>
                <time>2011-08-31T18:36:01.698Z</time>
                <name>Barcela</name>
            </trkpt>
        </trkseg>
    </trk>
</gpx>
