<?xml version="1.0" encoding="UTF-8" standalone="yes"?>
<gpx xmlns="http://www.topografix.com/GPX/1/1" xmlns:gpxtrx="http://www.garmin.com/xmlschemas/GpxExtensions/v3" xmlns:rcxx="http://www.routeconverter.de/xmlschemas/RouteCatalogExtensions/1.0" xmlns:xsi="http://www.w3.org/2001/XMLSchema-instance" xmlns:gpxtpx="http://www.garmin.com/xmlschemas/TrackPointExtension/v1" xmlns:gpxx="http://www.garmin.com/xmlschemas/WaypointExtension/v1" xmlns:nmea="http://trekbuddy.net/2009/01/gpx/nmea" creator="Generated by Christian Pesch's RouteConverter. See http://www.routeconverter.com" version="1.1">
    <trk>
        <name>A - Correo Central</name>
        <desc>&lt;a href=&quot;http://www.masmapas.com/colectivo-146-ciudadela-norte-correo-central&quot;&gt;Mas info sobre la linea de colectivos 146 (Colectivo 146 - Ciudadela Norte - Correo Central )&lt;/a&gt;</desc>
        <trkseg>
            <trkpt lon="-58.56608748435974" lat="-34.6263837701866">
                <ele>0.0</ele>
                <name>Av. Republica</name>
            </trkpt>
            <trkpt lon="-58.56386661529541" lat="-34.62820241894999">
                <ele>0.0</ele>
                <name>Chubut</name>
            </trkpt>
            <trkpt lon="-58.557772636413574" lat="-34.62457391024212">
                <ele>0.0</ele>
                <name>Yrigoyen</name>
            </trkpt>
            <trkpt lon="-58.55489730834961" lat="-34.62690464939146">
                <ele>0.0</ele>
                <name>Av. Militar</name>
            </trkpt>
            <trkpt lon="-58.54646444320679" lat="-34.62330257038456">
                <ele>0.0</ele>
                <name>Brown</name>
            </trkpt>
            <trkpt lon="-58.54335308074951" lat="-34.62711653152223">
                <ele>26.0</ele>
                <time>2011-09-02T18:58:40.308Z</time>
                <name>Brown</name>
            </trkpt>
            <trkpt lon="-58.54185104370117" lat="-34.62828187356963">
                <ele>0.0</ele>
                <name>San Roque</name>
            </trkpt>
            <trkpt lon="-58.531293869018555" lat="-34.61908228872056">
                <ele>0.0</ele>
                <name>Av. Gral. Paz</name>
            </trkpt>
            <trkpt lon="-58.530317544937134" lat="-34.61884389820621">
                <ele>0.0</ele>
                <name>Av. Gral. Paz Este</name>
            </trkpt>
            <trkpt lon="-58.53036046028137" lat="-34.61804042883712">
                <ele>0.0</ele>
                <name>Av. Beiro</name>
            </trkpt>
            <trkpt lon="-58.52516770362854" lat="-34.613978816292004">
                <ele>0.0</ele>
                <name>Av. Beiro</name>
            </trkpt>
            <trkpt lon="-58.49716544151306" lat="-34.596820725607756">
                <ele>0.0</ele>
                <name>Av. San Martín</name>
            </trkpt>
            <trkpt lon="-58.4831428527832" lat="-34.597783368047715">
                <ele>0.0</ele>
                <name>Av. San Martín</name>
            </trkpt>
            <trkpt lon="-58.47891569137573" lat="-34.59965563148465">
                <ele>0.0</ele>
                <name>Av. San Martín</name>
            </trkpt>
            <trkpt lon="-58.470354080200195" lat="-34.60151019045036">
                <ele>0.0</ele>
                <name>Av. San Martín</name>
            </trkpt>
            <trkpt lon="-58.44623565673828" lat="-34.60767409361781">
                <ele>0.0</ele>
                <name>Av. Díaz Vélez</name>
            </trkpt>
            <trkpt lon="-58.44170808792114" lat="-34.60838052893909">
                <ele>0.0</ele>
                <name>Av. Díaz Vélez</name>
            </trkpt>
            <trkpt lon="-58.44151496887207" lat="-34.608804387246806">
                <ele>0.0</ele>
                <name>Av. Díaz Vélez</name>
            </trkpt>
            <trkpt lon="-58.41608762741089" lat="-34.60852181528208">
                <ele>0.0</ele>
                <name>Av. Díaz Vélez</name>
            </trkpt>
            <trkpt lon="-58.414177894592285" lat="-34.60804497291092">
                <ele>0.0</ele>
                <name>Gallo</name>
            </trkpt>
            <trkpt lon="-58.41327667236328" lat="-34.60417715026711">
                <ele>0.0</ele>
                <name>Av. Corrientes</name>
            </trkpt>
            <trkpt lon="-58.4102725982666" lat="-34.604018194797526">
                <ele>0.0</ele>
                <name>Av. Corrientes</name>
            </trkpt>
            <trkpt lon="-58.40359926223755" lat="-34.60472466122229">
                <ele>0.0</ele>
                <name>Av. Corrientes</name>
            </trkpt>
            <trkpt lon="-58.39226961135864" lat="-34.60445973701732">
                <ele>0.0</ele>
                <name>Av. Corrientes</name>
            </trkpt>
            <trkpt lon="-58.368343" lat="-34.602825">
                <ele>0.0</ele>
                <name>Av. Rosales</name>
            </trkpt>
            <trkpt lon="-58.368505239486694" lat="-34.6041065034293">
                <ele>0.0</ele>
                <name>Sarmiento</name>
            </trkpt>
            <trkpt lon="-58.36804389953613" lat="-34.604062349125144">
                <ele>38.0</ele>
                <time>2011-09-02T19:01:20.250Z</time>
                <name>Av. Madero</name>
            </trkpt>
            <trkpt lon="-58.36833357810974" lat="-34.60101564544201">
                <ele>40.0</ele>
                <time>2011-09-02T19:01:36.223Z</time>
                <name>Av. Madero</name>
            </trkpt>
            <trkpt lon="-58.36911678314209" lat="-34.599205232343195">
                <ele>38.0</ele>
                <time>2011-09-02T19:01:48.035Z</time>
                <name>Av. Madero</name>
            </trkpt>
            <trkpt lon="-58.36937427520752" lat="-34.59732412717439">
                <ele>38.0</ele>
                <time>2011-09-02T19:01:58.523Z</time>
                <name>Terminal</name>
            </trkpt>
        </trkseg>
    </trk>
    <trk>
        <name>A - Ciudadela Norte</name>
        <desc>&lt;a href=&quot;http://www.masmapas.com/colectivo-146-ciudadela-norte-correo-central&quot;&gt;Mas info sobre la linea de colectivos 146 (Colectivo 146 - Ciudadela Norte - Correo Central )&lt;/a&gt;</desc>
        <trkseg>
            <trkpt lon="-58.36936354637146" lat="-34.59736828506101">
                <ele>0.0</ele>
                <name>Terminal</name>
            </trkpt>
            <trkpt lon="-58.369213342666626" lat="-34.59825143786351">
                <ele>27.0</ele>
                <time>2011-09-02T18:48:46.471Z</time>
                <name>Av. Córdoba</name>
            </trkpt>
            <trkpt lon="-58.36955666542053" lat="-34.59827793230251">
                <ele>28.0</ele>
                <time>2011-09-02T18:48:46.471Z</time>
                <name>Bouchard</name>
            </trkpt>
            <trkpt lon="-58.36904168128967" lat="-34.60289666700437">
                <ele>28.0</ele>
                <time>2011-09-02T18:48:46.471Z</time>
                <name>Av. Corrientes</name>
            </trkpt>
            <trkpt lon="-58.36832284927368" lat="-34.60284368106464">
                <ele>22.0</ele>
                <time>2011-09-02T18:48:46.471Z</time>
                <name>Av. Rosales</name>
            </trkpt>
            <trkpt lon="-58.368505239486694" lat="-34.604000533059896">
                <ele>22.0</ele>
                <time>2011-09-02T18:48:46.471Z</time>
                <name>Sarmiento</name>
            </trkpt>
            <trkpt lon="-58.36810827255249" lat="-34.60402702566493">
                <ele>19.0</ele>
                <time>2011-09-02T18:48:46.471Z</time>
                <name>Av. Madero</name>
            </trkpt>
            <trkpt lon="-58.36806535720825" lat="-34.60507789218086">
                <ele>19.0</ele>
                <time>2011-09-02T18:48:46.471Z</time>
                <name>Tte. Gral. Perón</name>
            </trkpt>
            <trkpt lon="-58.370243310928345" lat="-34.60535164514026">
                <ele>0.0</ele>
                <name>Av. Leandro N. Alem</name>
            </trkpt>
            <trkpt lon="-58.370232582092285" lat="-34.607197246378156">
                <ele>0.0</ele>
                <name>Av. Rivadavia</name>
            </trkpt>
            <trkpt lon="-58.37128400802612" lat="-34.60781538116291">
                <ele>0.0</ele>
                <name>Av. Rivadavia</name>
            </trkpt>
            <trkpt lon="-58.373515605926514" lat="-34.60795666846759">
                <ele>0.0</ele>
                <name>Av. Pres. Sáenz Pena</name>
            </trkpt>
            <trkpt lon="-58.379480838775635" lat="-34.60479530753421">
                <ele>0.0</ele>
                <name>Sarmiento</name>
            </trkpt>
            <trkpt lon="-58.40602397918701" lat="-34.60647313977768">
                <ele>0.0</ele>
                <name>Av. Pueyrredón</name>
            </trkpt>
            <trkpt lon="-58.40606689453125" lat="-34.60776239836167">
                <ele>0.0</ele>
                <name>Tte. Gral. Perón</name>
            </trkpt>
            <trkpt lon="-58.41055154800415" lat="-34.60792134666395">
                <ele>0.0</ele>
                <name>Tte. Gral. Perón</name>
            </trkpt>
            <trkpt lon="-58.41480016708374" lat="-34.60712660210976">
                <ele>0.0</ele>
                <name>Tte. Gral. Perón</name>
            </trkpt>
            <trkpt lon="-58.418641090393066" lat="-34.60675571871453">
                <ele>0.0</ele>
                <name>Bulnes</name>
            </trkpt>
            <trkpt lon="-58.418684005737305" lat="-34.60726789058646">
                <ele>0.0</ele>
                <name>Potosi</name>
            </trkpt>
            <trkpt lon="-58.42746019363403" lat="-34.60725022954002">
                <ele>31.0</ele>
                <time>2011-09-02T18:51:51.843Z</time>
                <name>Potosi</name>
            </trkpt>
            <trkpt lon="-58.43061447143555" lat="-34.60702063559444">
                <ele>0.0</ele>
                <name>Estivao</name>
            </trkpt>
            <trkpt lon="-58.43323230743408" lat="-34.60804497291092">
                <ele>0.0</ele>
                <name>Av. Patricias Argentinas</name>
            </trkpt>
            <trkpt lon="-58.43271732330322" lat="-34.607073618869">
                <ele>0.0</ele>
                <name>Av. Patricias Argentinas</name>
            </trkpt>
            <trkpt lon="-58.43303918838501" lat="-34.60562539719719">
                <ele>0.0</ele>
                <name>Av. Patricias Argentinas</name>
            </trkpt>
            <trkpt lon="-58.434176445007324" lat="-34.60461869164173">
                <ele>0.0</ele>
                <name>Av. Patricias Argentinas</name>
            </trkpt>
            <trkpt lon="-58.436279296875" lat="-34.6041065034293">
                <ele>0.0</ele>
                <name>Av. Angel Gallardo</name>
            </trkpt>
            <trkpt lon="-58.43934774398804" lat="-34.60557241299854">
                <ele>0.0</ele>
                <name>Av. Angel Gallardo</name>
            </trkpt>
            <trkpt lon="-58.4462571144104" lat="-34.607568127801215">
                <ele>0.0</ele>
                <name>Av. San Martín</name>
            </trkpt>
            <trkpt lon="-58.46574068069458" lat="-34.602534595742476">
                <ele>0.0</ele>
                <name>Av. San Martín</name>
            </trkpt>
            <trkpt lon="-58.478851318359375" lat="-34.5996732941463">
                <ele>27.0</ele>
                <time>2011-09-02T18:53:11.687Z</time>
                <name>Av. San Martín</name>
            </trkpt>
            <trkpt lon="-58.483078479766846" lat="-34.597748041916844">
                <ele>0.0</ele>
                <name>Av. San Martín</name>
            </trkpt>
            <trkpt lon="-58.497111797332764" lat="-34.5967059142969">
                <ele>0.0</ele>
                <name>Av. San Martín</name>
            </trkpt>
            <trkpt lon="-58.498334884643555" lat="-34.59631732099031">
                <ele>0.0</ele>
                <name>Navarro</name>
            </trkpt>
            <trkpt lon="-58.49895715713501" lat="-34.59674124087098">
                <ele>0.0</ele>
                <name>Cuenca</name>
            </trkpt>
            <trkpt lon="-58.498334884643555" lat="-34.59746543232893">
                <ele>0.0</ele>
                <name>Av. Beiro</name>
            </trkpt>
            <trkpt lon="-58.52522134780884" lat="-34.61389051815993">
                <ele>0.0</ele>
                <name>Av. Beiro</name>
            </trkpt>
            <trkpt lon="-58.53017807006836" lat="-34.617881499908634">
                <ele>0.0</ele>
                <name>Av. Beiro</name>
            </trkpt>
            <trkpt lon="-58.53140115737915" lat="-34.61802277008232">
                <ele>29.0</ele>
                <time>2011-09-02T18:54:22.895Z</time>
                <name>Lorca</name>
            </trkpt>
            <trkpt lon="-58.533525466918945" lat="-34.61902048383814">
                <ele>28.0</ele>
                <time>2011-09-02T18:54:22.895Z</time>
                <name>Comesana</name>
            </trkpt>
            <trkpt lon="-58.53434085845947" lat="-34.61975331019573">
                <ele>0.0</ele>
                <name>Ejercitio de Los Andes</name>
            </trkpt>
            <trkpt lon="-58.5336434841156" lat="-34.62022125617143">
                <ele>0.0</ele>
                <name>Ricchieri</name>
            </trkpt>
            <trkpt lon="-58.537527322769165" lat="-34.62359392082231">
                <ele>0.0</ele>
                <name>Ricchieri</name>
            </trkpt>
            <trkpt lon="-58.542269468307495" lat="-34.62644556958527">
                <ele>0.0</ele>
                <name>Madero</name>
            </trkpt>
            <trkpt lon="-58.54547739028931" lat="-34.62275518194731">
                <ele>0.0</ele>
                <name>Av. Militar</name>
            </trkpt>
            <trkpt lon="-58.546496629714966" lat="-34.6232760839304">
                <ele>0.0</ele>
                <name>Av. Militar</name>
            </trkpt>
            <trkpt lon="-58.55484366416931" lat="-34.62686050721278">
                <ele>0.0</ele>
                <name>Yrigoyen</name>
            </trkpt>
            <trkpt lon="-58.55706453323364" lat="-34.62506831492642">
                <ele>0.0</ele>
                <name>Asuncion</name>
            </trkpt>
            <trkpt lon="-58.55996131896973" lat="-34.62680753656737">
                <ele>0.0</ele>
                <name>Alsina</name>
            </trkpt>
            <trkpt lon="-58.56168866157532" lat="-34.625262544532156">
                <ele>0.0</ele>
                <name>Marcelo de Alvear</name>
            </trkpt>
            <trkpt lon="-58.56543302536011" lat="-34.626878164087074">
                <ele>0.0</ele>
                <name>Av. Republica</name>
            </trkpt>
            <trkpt lon="-58.566012382507324" lat="-34.626427912618915">
                <ele>0.0</ele>
                <name>Av. Republica</name>
            </trkpt>
        </trkseg>
    </trk>
    <trk>
        <name>XshortX B - Villa Real</name>
        <trkseg>
            <trkpt lon="-58.36936354637146" lat="-34.59736828506101">
                <ele>0.0</ele>
                <name>Terminal</name>
            </trkpt>
            <trkpt lon="-58.369213342666626" lat="-34.59825143786351">
                <ele>27.0</ele>
                <time>2011-09-02T18:48:46.471Z</time>
                <name>Av. Córdoba</name>
            </trkpt>
            <trkpt lon="-58.36955666542053" lat="-34.59827793230251">
                <ele>28.0</ele>
                <time>2011-09-02T18:48:46.471Z</time>
                <name>Bouchard</name>
            </trkpt>
            <trkpt lon="-58.36904168128967" lat="-34.60289666700437">
                <ele>28.0</ele>
                <time>2011-09-02T18:48:46.471Z</time>
                <name>Av. Corrientes</name>
            </trkpt>
            <trkpt lon="-58.36832284927368" lat="-34.60284368106464">
                <ele>22.0</ele>
                <time>2011-09-02T18:48:46.471Z</time>
                <name>Av. Rosales</name>
            </trkpt>
            <trkpt lon="-58.368505239486694" lat="-34.604000533059896">
                <ele>22.0</ele>
                <time>2011-09-02T18:48:46.471Z</time>
                <name>Sarmiento</name>
            </trkpt>
            <trkpt lon="-58.36810827255249" lat="-34.60402702566493">
                <ele>19.0</ele>
                <time>2011-09-02T18:48:46.471Z</time>
                <name>Av. Madero</name>
            </trkpt>
            <trkpt lon="-58.36806535720825" lat="-34.60507789218086">
                <ele>19.0</ele>
                <time>2011-09-02T18:48:46.471Z</time>
                <name>Tte. Gral. Perón</name>
            </trkpt>
            <trkpt lon="-58.370243310928345" lat="-34.60535164514026">
                <ele>0.0</ele>
                <name>Av. Leandro N. Alem</name>
            </trkpt>
            <trkpt lon="-58.370232582092285" lat="-34.607197246378156">
                <ele>0.0</ele>
                <name>Av. Rivadavia</name>
            </trkpt>
            <trkpt lon="-58.37128400802612" lat="-34.60781538116291">
                <ele>0.0</ele>
                <name>Av. Rivadavia</name>
            </trkpt>
            <trkpt lon="-58.373515605926514" lat="-34.60795666846759">
                <ele>0.0</ele>
                <name>Av. Pres. Sáenz Pena</name>
            </trkpt>
            <trkpt lon="-58.379480838775635" lat="-34.60479530753421">
                <ele>0.0</ele>
                <name>Sarmiento</name>
            </trkpt>
            <trkpt lon="-58.40602397918701" lat="-34.60647313977768">
                <ele>0.0</ele>
                <name>Av. Pueyrredón</name>
            </trkpt>
            <trkpt lon="-58.40606689453125" lat="-34.60776239836167">
                <ele>0.0</ele>
                <name>Tte. Gral. Perón</name>
            </trkpt>
            <trkpt lon="-58.41055154800415" lat="-34.60792134666395">
                <ele>0.0</ele>
                <name>Tte. Gral. Perón</name>
            </trkpt>
            <trkpt lon="-58.41480016708374" lat="-34.60712660210976">
                <ele>0.0</ele>
                <name>Tte. Gral. Perón</name>
            </trkpt>
            <trkpt lon="-58.418641090393066" lat="-34.60675571871453">
                <ele>0.0</ele>
                <name>Bulnes</name>
            </trkpt>
            <trkpt lon="-58.418684005737305" lat="-34.60726789058646">
                <ele>0.0</ele>
                <name>Potosi</name>
            </trkpt>
            <trkpt lon="-58.42746019363403" lat="-34.60725022954002">
                <ele>31.0</ele>
                <time>2011-09-02T18:51:51.843Z</time>
                <name>Potosi</name>
            </trkpt>
            <trkpt lon="-58.43061447143555" lat="-34.60702063559444">
                <ele>0.0</ele>
                <name>Estivao</name>
            </trkpt>
            <trkpt lon="-58.43323230743408" lat="-34.60804497291092">
                <ele>0.0</ele>
                <name>Av. Patricias Argentinas</name>
            </trkpt>
            <trkpt lon="-58.43271732330322" lat="-34.607073618869">
                <ele>0.0</ele>
                <name>Av. Patricias Argentinas</name>
            </trkpt>
            <trkpt lon="-58.43303918838501" lat="-34.60562539719719">
                <ele>0.0</ele>
                <name>Av. Patricias Argentinas</name>
            </trkpt>
            <trkpt lon="-58.434176445007324" lat="-34.60461869164173">
                <ele>0.0</ele>
                <name>Av. Patricias Argentinas</name>
            </trkpt>
            <trkpt lon="-58.436279296875" lat="-34.6041065034293">
                <ele>0.0</ele>
                <name>Av. Angel Gallardo</name>
            </trkpt>
            <trkpt lon="-58.43934774398804" lat="-34.60557241299854">
                <ele>0.0</ele>
                <name>Av. Angel Gallardo</name>
            </trkpt>
            <trkpt lon="-58.4462571144104" lat="-34.607568127801215">
                <ele>0.0</ele>
                <name>Av. San Martín</name>
            </trkpt>
            <trkpt lon="-58.46574068069458" lat="-34.602534595742476">
                <ele>0.0</ele>
                <name>Av. San Martín</name>
            </trkpt>
            <trkpt lon="-58.478851318359375" lat="-34.5996732941463">
                <ele>27.0</ele>
                <time>2011-09-02T18:53:11.687Z</time>
                <name>Av. San Martín</name>
            </trkpt>
            <trkpt lon="-58.483078479766846" lat="-34.597748041916844">
                <ele>0.0</ele>
                <name>Av. San Martín</name>
            </trkpt>
            <trkpt lon="-58.497111797332764" lat="-34.5967059142969">
                <ele>0.0</ele>
                <name>Av. San Martín</name>
            </trkpt>
            <trkpt lon="-58.498334884643555" lat="-34.59631732099031">
                <ele>0.0</ele>
                <name>Navarro</name>
            </trkpt>
            <trkpt lon="-58.49895715713501" lat="-34.59674124087098">
                <ele>0.0</ele>
                <name>Cuenca</name>
            </trkpt>
            <trkpt lon="-58.498334884643555" lat="-34.59746543232893">
                <ele>0.0</ele>
                <name>Av. Beiro</name>
            </trkpt>
            <trkpt lon="-58.52522134780884" lat="-34.61389051815993">
                <ele>0.0</ele>
                <name>Av. Beiro</name>
            </trkpt>
            <trkpt lon="-58.53033900260925" lat="-34.618049258213105">
                <ele>0.0</ele>
                <name>Av. Beiro</name>
            </trkpt>
        </trkseg>
    </trk>
    <trk>
        <name>XshortX B - Correo Central</name>
        <trkseg>
            <trkpt lon="-58.53036046028137" lat="-34.61804042883712">
                <ele>0.0</ele>
                <name>Av. Beiro</name>
            </trkpt>
            <trkpt lon="-58.52516770362854" lat="-34.613978816292004">
                <ele>0.0</ele>
                <name>Av. Beiro</name>
            </trkpt>
            <trkpt lon="-58.49716544151306" lat="-34.596820725607756">
                <ele>0.0</ele>
                <name>Av. San Martín</name>
            </trkpt>
            <trkpt lon="-58.4831428527832" lat="-34.597783368047715">
                <ele>0.0</ele>
                <name>Av. San Martín</name>
            </trkpt>
            <trkpt lon="-58.47891569137573" lat="-34.59965563148465">
                <ele>0.0</ele>
                <name>Av. San Martín</name>
            </trkpt>
            <trkpt lon="-58.470354080200195" lat="-34.60151019045036">
                <ele>0.0</ele>
                <name>Av. San Martín</name>
            </trkpt>
            <trkpt lon="-58.44623565673828" lat="-34.60767409361781">
                <ele>0.0</ele>
                <name>Av. Díaz Vélez</name>
            </trkpt>
            <trkpt lon="-58.44170808792114" lat="-34.60838052893909">
                <ele>0.0</ele>
                <name>Av. Díaz Vélez</name>
            </trkpt>
            <trkpt lon="-58.44151496887207" lat="-34.608804387246806">
                <ele>0.0</ele>
                <name>Av. Díaz Vélez</name>
            </trkpt>
            <trkpt lon="-58.41608762741089" lat="-34.60852181528208">
                <ele>0.0</ele>
                <name>Av. Díaz Vélez</name>
            </trkpt>
            <trkpt lon="-58.414177894592285" lat="-34.60804497291092">
                <ele>0.0</ele>
                <name>Gallo</name>
            </trkpt>
            <trkpt lon="-58.41327667236328" lat="-34.60417715026711">
                <ele>0.0</ele>
                <name>Av. Corrientes</name>
            </trkpt>
            <trkpt lon="-58.4102725982666" lat="-34.604018194797526">
                <ele>0.0</ele>
                <name>Av. Corrientes</name>
            </trkpt>
            <trkpt lon="-58.40359926223755" lat="-34.60472466122229">
                <ele>0.0</ele>
                <name>Av. Corrientes</name>
            </trkpt>
            <trkpt lon="-58.39226961135864" lat="-34.60445973701732">
                <ele>0.0</ele>
                <name>Av. Corrientes</name>
            </trkpt>
            <trkpt lon="-58.368343" lat="-34.602825">
                <ele>0.0</ele>
                <name>Av. Rosales</name>
            </trkpt>
            <trkpt lon="-58.368505239486694" lat="-34.6041065034293">
                <ele>0.0</ele>
                <name>Sarmiento</name>
            </trkpt>
            <trkpt lon="-58.36804389953613" lat="-34.604062349125144">
                <ele>38.0</ele>
                <time>2011-09-02T19:01:20.250Z</time>
                <name>Av. Madero</name>
            </trkpt>
            <trkpt lon="-58.36833357810974" lat="-34.60101564544201">
                <ele>40.0</ele>
                <time>2011-09-02T19:01:36.223Z</time>
                <name>Av. Madero</name>
            </trkpt>
            <trkpt lon="-58.36911678314209" lat="-34.599205232343195">
                <ele>38.0</ele>
                <time>2011-09-02T19:01:48.035Z</time>
                <name>Av. Madero</name>
            </trkpt>
            <trkpt lon="-58.36937427520752" lat="-34.59732412717439">
                <ele>38.0</ele>
                <time>2011-09-02T19:01:58.523Z</time>
                <name>Terminal</name>
            </trkpt>
        </trkseg>
    </trk>
</gpx>
