<?xml version="1.0" encoding="UTF-8" standalone="yes"?>
<gpx xmlns="http://www.topografix.com/GPX/1/1" xmlns:gpxtrx="http://www.garmin.com/xmlschemas/GpxExtensions/v3" xmlns:rcxx="http://www.routeconverter.de/xmlschemas/RouteCatalogExtensions/1.0" xmlns:xsi="http://www.w3.org/2001/XMLSchema-instance" xmlns:gpxtpx="http://www.garmin.com/xmlschemas/TrackPointExtension/v1" xmlns:gpxx="http://www.garmin.com/xmlschemas/WaypointExtension/v1" xmlns:nmea="http://trekbuddy.net/2009/01/gpx/nmea" creator="Generated by Christian Pesch's RouteConverter. See http://www.routeconverter.com" version="1.1">
    <trk>
        <name>A - Barrio Nuevo</name>
        <desc>&lt;a href=&quot;http://www.masmapas.com/colectivo-153-primera-junta-barrio-nuevo-merlo&quot;&gt;Mas info sobre la linea de colectivos 153 (Colectivo 153 - Primera Junta - Barrio Nuevo Merlo )&lt;/a&gt;</desc>
        <trkseg>
            <trkpt lon="-58.51623058319092" lat="-34.639175264270634">
                <ele>0.0</ele>
                <name>Av. Rivadavia</name>
            </trkpt>
            <trkpt lon="-58.52264642715454" lat="-34.6387868697488">
                <ele>0.0</ele>
                <name>Av. Rivadavia</name>
            </trkpt>
            <trkpt lon="-58.540048599243164" lat="-34.640216858781">
                <ele>0.0</ele>
                <name>Av. Rivadavia</name>
            </trkpt>
            <trkpt lon="-58.55884552001953" lat="-34.63981081501925">
                <ele>0.0</ele>
                <name>Av. Rivadavia</name>
            </trkpt>
            <trkpt lon="-58.59034538269043" lat="-34.6446302496811">
                <ele>0.0</ele>
                <name>Av. Rivadavia</name>
            </trkpt>
            <trkpt lon="-58.590989112854004" lat="-34.645812998530886">
                <ele>0.0</ele>
                <name>Av. Rivadavia</name>
            </trkpt>
            <trkpt lon="-58.607017993927" lat="-34.64761356886342">
                <ele>0.0</ele>
                <name>Av. Rivadavia</name>
            </trkpt>
            <trkpt lon="-58.61405611038208" lat="-34.64923757915178">
                <ele>0.0</ele>
                <name>Av. Rivadavia</name>
            </trkpt>
            <trkpt lon="-58.622682094573975" lat="-34.649202274918565">
                <ele>0.0</ele>
                <name>San Martín</name>
            </trkpt>
            <trkpt lon="-58.62285375595093" lat="-34.66035766431593">
                <ele>0.0</ele>
                <name>Av. Yrigoyen</name>
            </trkpt>
            <trkpt lon="-58.62920522689819" lat="-34.660481212437126">
                <ele>0.0</ele>
                <name>Av. Yrigoyen</name>
            </trkpt>
            <trkpt lon="-58.6385178565979" lat="-34.6584867702529">
                <ele>0.0</ele>
                <name>:2way:Av. Del Libertador</name>
            </trkpt>
            <trkpt lon="-58.63611459732056" lat="-34.656492280069266">
                <ele>0.0</ele>
                <name>Av. Del Libertador</name>
            </trkpt>
            <trkpt lon="-58.63572835922241" lat="-34.65511552433133">
                <ele>0.0</ele>
                <name>Dardo Rocha</name>
            </trkpt>
            <trkpt lon="-58.63686561584473" lat="-34.652414898574364">
                <ele>0.0</ele>
                <name>Mitre</name>
            </trkpt>
            <trkpt lon="-58.640642166137695" lat="-34.65185005068872">
                <ele>0.0</ele>
                <name>Av. Rivadavia</name>
            </trkpt>
            <trkpt lon="-58.642680644989014" lat="-34.65262671553918">
                <ele>0.0</ele>
                <name>Buenos Aires</name>
            </trkpt>
            <trkpt lon="-58.64407539367676" lat="-34.65741010452264">
                <ele>0.0</ele>
                <name>Av. Zeballos</name>
            </trkpt>
            <trkpt lon="-58.653130531311035" lat="-34.655698000703765">
                <ele>0.0</ele>
                <name>Av. Rivadavia</name>
            </trkpt>
            <trkpt lon="-58.67140173912048" lat="-34.66150488978392">
                <ele>0.0</ele>
                <name>Iriarte</name>
            </trkpt>
            <trkpt lon="-58.669513463974" lat="-34.66584655313673">
                <ele>30.0</ele>
                <time>2011-09-04T21:57:11.246Z</time>
                <name>Dunant</name>
            </trkpt>
            <trkpt lon="-58.670597076416016" lat="-34.66619952389725">
                <ele>0.0</ele>
                <name>Alegre</name>
            </trkpt>
            <trkpt lon="-58.663837909698486" lat="-34.671493904847786">
                <ele>0.0</ele>
                <name>Blas Parera</name>
            </trkpt>
            <trkpt lon="-58.66471767425537" lat="-34.67486448442684">
                <ele>0.0</ele>
                <name>Beltran</name>
            </trkpt>
            <trkpt lon="-58.67295742034912" lat="-34.681358198665585">
                <ele>0.0</ele>
                <name>Av. Eva Perón</name>
            </trkpt>
            <trkpt lon="-58.680596351623535" lat="-34.68215223204215">
                <ele>0.0</ele>
                <name>Av. Eva Perón</name>
            </trkpt>
            <trkpt lon="-58.695616722106934" lat="-34.696355320345525">
                <ele>0.0</ele>
                <name>Nicaragua</name>
            </trkpt>
            <trkpt lon="-58.69237661361694" lat="-34.698595833448024">
                <ele>0.0</ele>
                <name>Malvinas</name>
            </trkpt>
            <trkpt lon="-58.689823150634766" lat="-34.6964788147733">
                <ele>0.0</ele>
                <name>Colombia</name>
            </trkpt>
            <trkpt lon="-58.67531776428223" lat="-34.706904608268594">
                <ele>0.0</ele>
                <name>Av. Bella Vista</name>
            </trkpt>
            <trkpt lon="-58.66594076156616" lat="-34.703147240200856">
                <ele>0.0</ele>
                <name>Av. Bella Vista</name>
            </trkpt>
        </trkseg>
    </trk>
    <trk>
        <name>A - Liniers (rev)</name>
        <trkseg>
            <trkpt lon="-58.66604804992676" lat="-34.70304139637563">
                <ele>0.0</ele>
                <name>Av. Bella Vista</name>
            </trkpt>
            <trkpt lon="-58.67546796798706" lat="-34.706692930096786">
                <ele>0.0</ele>
                <name>Colombia</name>
            </trkpt>
            <trkpt lon="-58.689844608306885" lat="-34.69639060448655">
                <ele>0.0</ele>
                <name>Malvinas</name>
            </trkpt>
            <trkpt lon="-58.69121789932251" lat="-34.69773139069809">
                <ele>0.0</ele>
                <name>Honduras</name>
            </trkpt>
            <trkpt lon="-58.69467258453369" lat="-34.69543792739851">
                <ele>0.0</ele>
                <name>Av. Eva Perón</name>
            </trkpt>
            <trkpt lon="-58.68053197860718" lat="-34.68218752223771">
                <ele>0.0</ele>
                <name>Av. Eva Perón</name>
            </trkpt>
            <trkpt lon="-58.67291450500488" lat="-34.681358198665585">
                <ele>0.0</ele>
                <name>Beltran</name>
            </trkpt>
            <trkpt lon="-58.66471767425537" lat="-34.67486448442684">
                <ele>0.0</ele>
                <name>Blas Parera</name>
            </trkpt>
            <trkpt lon="-58.663837909698486" lat="-34.671493904847786">
                <ele>0.0</ele>
                <name>Alegre</name>
            </trkpt>
            <trkpt lon="-58.671133518218994" lat="-34.66579360739296">
                <ele>0.0</ele>
                <name>Erezcano</name>
            </trkpt>
            <trkpt lon="-58.672850131988525" lat="-34.661963775523986">
                <ele>0.0</ele>
                <name>Av. Rivadavia</name>
            </trkpt>
            <trkpt lon="-58.653130531311035" lat="-34.655698000703765">
                <ele>0.0</ele>
                <name>Av. Zeballos</name>
            </trkpt>
            <trkpt lon="-58.64246606826782" lat="-34.65772781061909">
                <ele>0.0</ele>
                <name>Irigoyen</name>
            </trkpt>
            <trkpt lon="-58.64106059074402" lat="-34.65305917349502">
                <ele>0.0</ele>
                <name>Almafuerte</name>
            </trkpt>
            <trkpt lon="-58.63799214363098" lat="-34.65356223399259">
                <ele>0.0</ele>
                <name>:2way:Aristobulo del Valle</name>
            </trkpt>
            <trkpt lon="-58.63932251930237" lat="-34.65843381980632">
                <ele>0.0</ele>
                <name>Av. Zeballos</name>
            </trkpt>
            <trkpt lon="-58.62905502319336" lat="-34.66055181128083">
                <ele>0.0</ele>
                <name>Av. Yrigoyen</name>
            </trkpt>
            <trkpt lon="-58.621459007263184" lat="-34.660481212437126">
                <ele>0.0</ele>
                <name>Belgrano</name>
            </trkpt>
            <trkpt lon="-58.62109422683716" lat="-34.650437914135544">
                <ele>0.0</ele>
                <name>Almirante Brown</name>
            </trkpt>
            <trkpt lon="-58.613905906677246" lat="-34.650685039768874">
                <ele>0.0</ele>
                <name>Costa</name>
            </trkpt>
            <trkpt lon="-58.613905906677246" lat="-34.64923757915178">
                <ele>0.0</ele>
                <name>Av. Rivadavia</name>
            </trkpt>
            <trkpt lon="-58.605709075927734" lat="-34.647472349074064">
                <ele>0.0</ele>
                <name>Av. Rivadavia</name>
            </trkpt>
            <trkpt lon="-58.590946197509766" lat="-34.64576003998797">
                <ele>0.0</ele>
                <name>Av. Rivadavia</name>
            </trkpt>
            <trkpt lon="-58.59034538269043" lat="-34.64464790277304">
                <ele>0.0</ele>
                <name>Av. Rivadavia</name>
            </trkpt>
            <trkpt lon="-58.566012382507324" lat="-34.64090536322468">
                <ele>0.0</ele>
                <name>Av. de Mayo</name>
            </trkpt>
            <trkpt lon="-58.56558322906494" lat="-34.64192928233835">
                <ele>0.0</ele>
                <name>Belgrano</name>
            </trkpt>
            <trkpt lon="-58.56287956237793" lat="-34.64145263190998">
                <ele>0.0</ele>
                <name>Moreno</name>
            </trkpt>
            <trkpt lon="-58.5631799697876" lat="-34.640375744929194">
                <ele>0.0</ele>
                <name>Av. Rivadavia</name>
            </trkpt>
            <trkpt lon="-58.55880260467529" lat="-34.63991673967051">
                <ele>0.0</ele>
                <name>Av. Rivadavia</name>
            </trkpt>
            <trkpt lon="-58.540048599243164" lat="-34.640216858781">
                <ele>0.0</ele>
                <name>Av. Rivadavia</name>
            </trkpt>
            <trkpt lon="-58.53114366531372" lat="-34.63958131114409">
                <ele>25.0</ele>
                <time>2011-09-04T22:04:33.312Z</time>
                <name>D Onofrio</name>
            </trkpt>
            <trkpt lon="-58.531014919281006" lat="-34.640675862378586">
                <ele>25.0</ele>
                <time>2011-09-04T22:04:33.312Z</time>
                <name>Falcón</name>
            </trkpt>
            <trkpt lon="-58.52899789810181" lat="-34.64053463077299">
                <ele>26.0</ele>
                <time>2011-09-04T22:04:33.312Z</time>
                <name>Av. Gral. Paz Este</name>
            </trkpt>
            <trkpt lon="-58.529040813446045" lat="-34.63938711506134">
                <ele>28.0</ele>
                <time>2011-09-04T22:04:33.312Z</time>
                <name>Av. Rivadavia</name>
            </trkpt>
            <trkpt lon="-58.52264642715454" lat="-34.6387868697488">
                <ele>0.0</ele>
                <name>Av. Rivadavia</name>
            </trkpt>
            <trkpt lon="-58.51623058319092" lat="-34.639175264270634">
                <ele>0.0</ele>
                <name>Av. Rivadavia</name>
            </trkpt>
        </trkseg>
    </trk>
</gpx>
