<?xml version="1.0" encoding="UTF-8" standalone="yes"?>
<gpx xmlns="http://www.topografix.com/GPX/1/1" xmlns:gpxtrx="http://www.garmin.com/xmlschemas/GpxExtensions/v3" xmlns:rcxx="http://www.routeconverter.de/xmlschemas/RouteCatalogExtensions/1.0" xmlns:xsi="http://www.w3.org/2001/XMLSchema-instance" xmlns:gpxtpx="http://www.garmin.com/xmlschemas/TrackPointExtension/v1" xmlns:gpxx="http://www.garmin.com/xmlschemas/WaypointExtension/v1" xmlns:nmea="http://trekbuddy.net/2009/01/gpx/nmea" creator="Generated by Christian Pesch's RouteConverter. See http://www.routeconverter.com" version="1.1">
    <trk>
        <name>A - Plaza Miserere (Once) por Bv. Buenos Aires</name>
        <desc>&lt;a href=&quot;http://www.masmapas.com/colectivo-165-monte-grande-loma-verde-pompeya-plaza-once&quot;&gt;Mas info sobre la linea de colectivos 165 (Colectivo 165 - Monte Grande - Loma Verde - Pompeya - Plaza Once )&lt;/a&gt;</desc>
        <trkseg>
            <trkpt lon="-58.473830223083496" lat="-34.77033071875861">
                <ele>0.0</ele>
                <name>Camino de Cintura</name>
            </trkpt>
            <trkpt lon="-58.47152352333069" lat="-34.772754297981464">
                <ele>0.0</ele>
                <name>Arbel</name>
            </trkpt>
            <trkpt lon="-58.4723174571991" lat="-34.774137909475456">
                <ele>0.0</ele>
                <name>Arbel</name>
            </trkpt>
            <trkpt lon="-58.472124338150024" lat="-34.77674643874486">
                <ele>0.0</ele>
                <name>Oliver</name>
            </trkpt>
            <trkpt lon="-58.48822832107544" lat="-34.78485350322342">
                <ele>0.0</ele>
                <name>Av. Vernet</name>
            </trkpt>
            <trkpt lon="-58.47825050354004" lat="-34.798157936368106">
                <ele>0.0</ele>
                <name>Av. Vernet</name>
            </trkpt>
            <trkpt lon="-58.478121757507324" lat="-34.798880367314915">
                <ele>0.0</ele>
                <name>Av. Vernet</name>
            </trkpt>
            <trkpt lon="-58.479366302490234" lat="-34.8002899704472">
                <ele>0.0</ele>
                <name>Av. Vernet</name>
            </trkpt>
            <trkpt lon="-58.479859828948975" lat="-34.80148811415898">
                <ele>0.0</ele>
                <name>Nuestras Malvinas</name>
            </trkpt>
            <trkpt lon="-58.47093343734741" lat="-34.812887228035656">
                <ele>0.0</ele>
                <name>Laprida</name>
            </trkpt>
            <trkpt lon="-58.47222089767456" lat="-34.81359191284542">
                <ele>0.0</ele>
                <name>Duclout</name>
            </trkpt>
            <trkpt lon="-58.471362590789795" lat="-34.81464892875997">
                <ele>0.0</ele>
                <name>Maximo Paz</name>
            </trkpt>
            <trkpt lon="-58.467586040496826" lat="-34.81265820417488">
                <ele>0.0</ele>
                <name>Alegre</name>
            </trkpt>
            <trkpt lon="-58.46707105636597" lat="-34.81339812512351">
                <ele>0.0</ele>
                <name>:2way:Guillon</name>
            </trkpt>
            <trkpt lon="-58.47078323364258" lat="-34.8153976401617">
                <ele>0.0</ele>
                <name>Vicente López</name>
            </trkpt>
            <trkpt lon="-58.46719980239868" lat="-34.82003069115689">
                <ele>0.0</ele>
                <name>Santamaria</name>
            </trkpt>
            <trkpt lon="-58.46669554710388" lat="-34.81984572643387">
                <ele>0.0</ele>
                <name>Santamaria</name>
            </trkpt>
            <trkpt lon="-58.465365171432495" lat="-34.82007473031544">
                <ele>0.0</ele>
                <name>Santamaria</name>
            </trkpt>
            <trkpt lon="-58.465107679367065" lat="-34.81890328068184">
                <ele>0.0</ele>
                <name>Bv. Buenos Aires</name>
            </trkpt>
            <trkpt lon="-58.440399169921875" lat="-34.805857667182146">
                <ele>0.0</ele>
                <name>Bv. Buenos Aires</name>
            </trkpt>
            <trkpt lon="-58.439186811447144" lat="-34.80540838914837">
                <ele>21.0</ele>
                <time>2011-09-05T21:36:13.139Z</time>
                <name>Bv. Buenos Aires</name>
            </trkpt>
            <trkpt lon="-58.43850016593933" lat="-34.80478291957241">
                <ele>21.0</ele>
                <time>2011-09-05T21:36:13.139Z</time>
                <name>Antártida Argentina</name>
            </trkpt>
            <trkpt lon="-58.414692878723145" lat="-34.79273069173391">
                <ele>0.0</ele>
                <name>Antártida Argentina</name>
            </trkpt>
            <trkpt lon="-58.40827703475952" lat="-34.78927680460767">
                <ele>0.0</ele>
                <name>Av. Hipólito Yrigoyen</name>
            </trkpt>
            <trkpt lon="-58.40662479400635" lat="-34.78168126852528">
                <ele>0.0</ele>
                <name>25 de Mayo</name>
            </trkpt>
            <trkpt lon="-58.402451276779175" lat="-34.77933726118441">
                <ele>0.0</ele>
                <name>Dorrego</name>
            </trkpt>
            <trkpt lon="-58.40255856513977" lat="-34.77913458072967">
                <ele>0.0</ele>
                <name>25 de Mayo</name>
            </trkpt>
            <trkpt lon="-58.39731216430664" lat="-34.77633225210484">
                <ele>0.0</ele>
                <name>Av. Meeks</name>
            </trkpt>
            <trkpt lon="-58.39861035346985" lat="-34.76333278515978">
                <ele>0.0</ele>
                <name>Av. Meeks</name>
            </trkpt>
            <trkpt lon="-58.397687673568726" lat="-34.75864366144916">
                <ele>0.0</ele>
                <name>Sáenz</name>
            </trkpt>
            <trkpt lon="-58.39911460876465" lat="-34.7584497445837">
                <ele>0.0</ele>
                <name>Alem</name>
            </trkpt>
            <trkpt lon="-58.39578866958618" lat="-34.741735925685575">
                <ele>0.0</ele>
                <name>Pena</name>
            </trkpt>
            <trkpt lon="-58.39866399765015" lat="-34.741383277042495">
                <ele>0.0</ele>
                <name>Av. Hipólito Yrigoyen</name>
            </trkpt>
            <trkpt lon="-58.39179754257202" lat="-34.70820994502577">
                <ele>0.0</ele>
                <name>Av. Hipólito Yrigoyen</name>
            </trkpt>
            <trkpt lon="-58.391926288604736" lat="-34.69992776327402">
                <ele>0.0</ele>
                <name>Rico</name>
            </trkpt>
            <trkpt lon="-58.39039206504822" lat="-34.69986601865664">
                <ele>0.0</ele>
                <name>Eva. Perón</name>
            </trkpt>
            <trkpt lon="-58.39209794998169" lat="-34.698251821598696">
                <ele>0.0</ele>
                <name>Maximo Paz</name>
            </trkpt>
            <trkpt lon="-58.40454339981079" lat="-34.68776318420273">
                <ele>0.0</ele>
                <name>Atencio</name>
            </trkpt>
            <trkpt lon="-58.40503692626953" lat="-34.685645888438074">
                <ele>0.0</ele>
                <name>Atencio</name>
            </trkpt>
            <trkpt lon="-58.404457569122314" lat="-34.67964658971315">
                <ele>0.0</ele>
                <name>Av. Rivadavia</name>
            </trkpt>
            <trkpt lon="-58.400981426239014" lat="-34.67744085590206">
                <ele>0.0</ele>
                <name>Pres. Perón</name>
            </trkpt>
            <trkpt lon="-58.417675495147705" lat="-34.66494647089104">
                <ele>0.0</ele>
                <name>Av. Remedios de Escalada</name>
            </trkpt>
            <trkpt lon="-58.416666984558105" lat="-34.66025176577972">
                <ele>0.0</ele>
                <name>Av. Sáenz</name>
            </trkpt>
            <trkpt lon="-58.41625928878784" lat="-34.64837262111001">
                <ele>0.0</ele>
                <name>Av. Almafuerte</name>
            </trkpt>
            <trkpt lon="-58.41525077819824" lat="-34.647119298548276">
                <ele>0.0</ele>
                <name>Av. Almafuerte</name>
            </trkpt>
            <trkpt lon="-58.41248273849487" lat="-34.64101128647789">
                <ele>0.0</ele>
                <name>Taborda</name>
            </trkpt>
            <trkpt lon="-58.414435386657715" lat="-34.633684609192834">
                <ele>0.0</ele>
                <name>Maza</name>
            </trkpt>
            <trkpt lon="-58.414649963378906" lat="-34.625227230092214">
                <ele>0.0</ele>
                <name>Maza</name>
            </trkpt>
            <trkpt lon="-58.41548681259155" lat="-34.61722812222759">
                <ele>0.0</ele>
                <name>Maza</name>
            </trkpt>
            <trkpt lon="-58.41623783111572" lat="-34.613537324692395">
                <ele>0.0</ele>
                <name>Maza</name>
            </trkpt>
            <trkpt lon="-58.4173321723938" lat="-34.610958966854625">
                <ele>0.0</ele>
                <name>Mario Bravo</name>
            </trkpt>
            <trkpt lon="-58.417439460754395" lat="-34.609581455191105">
                <ele>0.0</ele>
                <name>Bartolomé Mitre</name>
            </trkpt>
            <trkpt lon="-58.40608835220337" lat="-34.608910351485655">
                <ele>0.0</ele>
                <name>Bartolomé Mitre</name>
            </trkpt>
        </trkseg>
    </trk>
    <trk>
        <name>A - Monte Grande por Bv. Buenos Aires</name>
        <desc>&lt;a href=&quot;http://www.masmapas.com/colectivo-165-monte-grande-loma-verde-pompeya-plaza-once&quot;&gt;Mas info sobre la linea de colectivos 165 (Colectivo 165 - Monte Grande - Loma Verde - Pompeya - Plaza Once )&lt;/a&gt;</desc>
        <trkseg>
            <trkpt lon="-58.407697677612305" lat="-34.609086958249854">
                <ele>0.0</ele>
                <name>Mitre</name>
            </trkpt>
            <trkpt lon="-58.40610980987549" lat="-34.609086958249854">
                <ele>0.0</ele>
                <name>Av. Pueyrredón</name>
            </trkpt>
            <trkpt lon="-58.40598106384277" lat="-34.61009360963255">
                <ele>0.0</ele>
                <name>Av. Rivadavia</name>
            </trkpt>
            <trkpt lon="-58.41853380203247" lat="-34.61102960786231">
                <ele>0.0</ele>
                <name>Av. Boedo</name>
            </trkpt>
            <trkpt lon="-58.417181968688965" lat="-34.61381987958664">
                <ele>0.0</ele>
                <name>Av. Boedo</name>
            </trkpt>
            <trkpt lon="-58.415915966033936" lat="-34.62891750778752">
                <ele>0.0</ele>
                <name>Av. Boedo</name>
            </trkpt>
            <trkpt lon="-58.41623783111572" lat="-34.63529123720241">
                <ele>0.0</ele>
                <name>Av. Boedo</name>
            </trkpt>
            <trkpt lon="-58.41598033905029" lat="-34.63889279570787">
                <ele>0.0</ele>
                <name>Av. Boedo</name>
            </trkpt>
            <trkpt lon="-58.416162729263306" lat="-34.6390516843928">
                <ele>0.0</ele>
                <name>Av. Sáenz</name>
            </trkpt>
            <trkpt lon="-58.41662406921387" lat="-34.65931632283246">
                <ele>0.0</ele>
                <name>Av. Remedios de Escalada</name>
            </trkpt>
            <trkpt lon="-58.41756820678711" lat="-34.66499941717617">
                <ele>0.0</ele>
                <name>Pres. Perón</name>
            </trkpt>
            <trkpt lon="-58.40106725692749" lat="-34.677352625327615">
                <ele>0.0</ele>
                <name>Av. Rivadavia</name>
            </trkpt>
            <trkpt lon="-58.40454339981079" lat="-34.67977010906941">
                <ele>0.0</ele>
                <name>Atencio</name>
            </trkpt>
            <trkpt lon="-58.405208587646484" lat="-34.685734110176064">
                <ele>0.0</ele>
                <name>Atencio</name>
            </trkpt>
            <trkpt lon="-58.40460777282715" lat="-34.6877808281066">
                <ele>0.0</ele>
                <name>Maximo Paz</name>
            </trkpt>
            <trkpt lon="-58.39209794998169" lat="-34.69841941729368">
                <ele>0.0</ele>
                <name>Av. Hipólito Yrigoyen</name>
            </trkpt>
            <trkpt lon="-58.39181900024414" lat="-34.70820994502577">
                <ele>0.0</ele>
                <name>Av. Hipólito Yrigoyen</name>
            </trkpt>
            <trkpt lon="-58.40128183364868" lat="-34.75441264458852">
                <ele>0.0</ele>
                <name>Lucena</name>
            </trkpt>
            <trkpt lon="-58.40274095535278" lat="-34.7542187177864">
                <ele>0.0</ele>
                <name>Castro</name>
            </trkpt>
            <trkpt lon="-58.402976989746094" lat="-34.75545278966397">
                <ele>0.0</ele>
                <name>Rivera</name>
            </trkpt>
            <trkpt lon="-58.40012311935425" lat="-34.755858266398334">
                <ele>0.0</ele>
                <name>Italia</name>
            </trkpt>
            <trkpt lon="-58.402204513549805" lat="-34.7666291149502">
                <ele>0.0</ele>
                <name>Fernandez</name>
            </trkpt>
            <trkpt lon="-58.39840650558472" lat="-34.76643521684169">
                <ele>0.0</ele>
                <name>Av. Meeks</name>
            </trkpt>
            <trkpt lon="-58.39711904525757" lat="-34.77819166945902">
                <ele>0.0</ele>
                <name>Moreno</name>
            </trkpt>
            <trkpt lon="-58.401453495025635" lat="-34.780535709348676">
                <ele>0.0</ele>
                <name>Dorrego</name>
            </trkpt>
            <trkpt lon="-58.402451276779175" lat="-34.779310824631594">
                <ele>0.0</ele>
                <name>Pichincha</name>
            </trkpt>
            <trkpt lon="-58.4067964553833" lat="-34.78168126852528">
                <ele>0.0</ele>
                <name>Av. Hipólito Yrigoyen</name>
            </trkpt>
            <trkpt lon="-58.408405780792236" lat="-34.789294426847896">
                <ele>0.0</ele>
                <name>Antártida Argentina</name>
            </trkpt>
            <trkpt lon="-58.421173095703125" lat="-34.79606108874421">
                <ele>0.0</ele>
                <name>Antártida Argentina</name>
            </trkpt>
            <trkpt lon="-58.437931537628174" lat="-34.80447458775314">
                <ele>0.0</ele>
                <name>Antártida Argentina</name>
            </trkpt>
            <trkpt lon="-58.43972325325012" lat="-34.804686015410645">
                <ele>21.0</ele>
                <time>2011-09-05T21:27:48.351Z</time>
                <name>Bv. Buenos Aires</name>
            </trkpt>
            <trkpt lon="-58.440409898757935" lat="-34.805857667182146">
                <ele>17.0</ele>
                <time>2011-09-05T21:27:48.351Z</time>
                <name>Bv. Buenos Aires</name>
            </trkpt>
            <trkpt lon="-58.465118408203125" lat="-34.81887685681379">
                <ele>0.0</ele>
                <name>Santamaria</name>
            </trkpt>
            <trkpt lon="-58.46650242805481" lat="-34.81861261766701">
                <ele>0.0</ele>
                <name>Alem</name>
            </trkpt>
            <trkpt lon="-58.46902370452881" lat="-34.81529194014097">
                <ele>25.0</ele>
                <time>2011-09-05T21:28:40.313Z</time>
                <name>Alem</name>
            </trkpt>
            <trkpt lon="-58.469345569610596" lat="-34.81468416239026">
                <ele>0.0</ele>
                <name>Petrazzini</name>
            </trkpt>
            <trkpt lon="-58.47204923629761" lat="-34.8160054126493">
                <ele>0.0</ele>
                <name>Dorrego</name>
            </trkpt>
            <trkpt lon="-58.472596406936646" lat="-34.815283131799795">
                <ele>0.0</ele>
                <name>:2way:Maximo Paz</name>
            </trkpt>
            <trkpt lon="-58.470107316970825" lat="-34.81393544450503">
                <ele>0.0</ele>
                <name>Nuestras Malvinas</name>
            </trkpt>
            <trkpt lon="-58.4797739982605" lat="-34.801400015949795">
                <ele>0.0</ele>
                <name>Av. Vernet</name>
            </trkpt>
            <trkpt lon="-58.47900152206421" lat="-34.800060911578306">
                <ele>0.0</ele>
                <name>Av. Vernet</name>
            </trkpt>
            <trkpt lon="-58.478078842163086" lat="-34.7987570258941">
                <ele>0.0</ele>
                <name>Av. Vernet</name>
            </trkpt>
            <trkpt lon="-58.4783148765564" lat="-34.79798173273784">
                <ele>0.0</ele>
                <name>Av. Vernet</name>
            </trkpt>
            <trkpt lon="-58.48814249038696" lat="-34.78488874959036">
                <ele>0.0</ele>
                <name>Oliver</name>
            </trkpt>
            <trkpt lon="-58.472081422805786" lat="-34.77676406366215">
                <ele>0.0</ele>
                <name>Arbel</name>
            </trkpt>
            <trkpt lon="-58.4722638130188" lat="-34.77412028399721">
                <ele>0.0</ele>
                <name>Arbel</name>
            </trkpt>
            <trkpt lon="-58.47145915031433" lat="-34.772719046430154">
                <ele>0.0</ele>
                <name>Camino de Cintura</name>
            </trkpt>
            <trkpt lon="-58.47378730773926" lat="-34.7703130924672">
                <ele>0.0</ele>
                <name>Camino de Cintura</name>
            </trkpt>
        </trkseg>
    </trk>
    <trk>
        <name>B - Monte Grande por San Martín</name>
        <trkseg>
            <trkpt lon="-58.407697677612305" lat="-34.609086958249854">
                <ele>0.0</ele>
                <name>Mitre</name>
            </trkpt>
            <trkpt lon="-58.40610980987549" lat="-34.609086958249854">
                <ele>0.0</ele>
                <name>Av. Pueyrredón</name>
            </trkpt>
            <trkpt lon="-58.40598106384277" lat="-34.61009360963255">
                <ele>0.0</ele>
                <name>Av. Rivadavia</name>
            </trkpt>
            <trkpt lon="-58.41853380203247" lat="-34.61102960786231">
                <ele>0.0</ele>
                <name>Av. Boedo</name>
            </trkpt>
            <trkpt lon="-58.417181968688965" lat="-34.61381987958664">
                <ele>0.0</ele>
                <name>Av. Boedo</name>
            </trkpt>
            <trkpt lon="-58.415915966033936" lat="-34.62891750778752">
                <ele>0.0</ele>
                <name>Av. Boedo</name>
            </trkpt>
            <trkpt lon="-58.41623783111572" lat="-34.63529123720241">
                <ele>0.0</ele>
                <name>Av. Boedo</name>
            </trkpt>
            <trkpt lon="-58.41598033905029" lat="-34.63889279570787">
                <ele>0.0</ele>
                <name>Av. Boedo</name>
            </trkpt>
            <trkpt lon="-58.416162729263306" lat="-34.6390516843928">
                <ele>0.0</ele>
                <name>Av. Sáenz</name>
            </trkpt>
            <trkpt lon="-58.41662406921387" lat="-34.65931632283246">
                <ele>0.0</ele>
                <name>Av. Remedios de Escalada</name>
            </trkpt>
            <trkpt lon="-58.41756820678711" lat="-34.66499941717617">
                <ele>0.0</ele>
                <name>Pres. Perón</name>
            </trkpt>
            <trkpt lon="-58.40106725692749" lat="-34.677352625327615">
                <ele>0.0</ele>
                <name>Av. Rivadavia</name>
            </trkpt>
            <trkpt lon="-58.40454339981079" lat="-34.67977010906941">
                <ele>0.0</ele>
                <name>Atencio</name>
            </trkpt>
            <trkpt lon="-58.405208587646484" lat="-34.685734110176064">
                <ele>0.0</ele>
                <name>Atencio</name>
            </trkpt>
            <trkpt lon="-58.40460777282715" lat="-34.6877808281066">
                <ele>0.0</ele>
                <name>Maximo Paz</name>
            </trkpt>
            <trkpt lon="-58.39209794998169" lat="-34.69841941729368">
                <ele>0.0</ele>
                <name>Av. Hipólito Yrigoyen</name>
            </trkpt>
            <trkpt lon="-58.39181900024414" lat="-34.70820994502577">
                <ele>0.0</ele>
                <name>Av. Hipólito Yrigoyen</name>
            </trkpt>
            <trkpt lon="-58.40128183364868" lat="-34.75441264458852">
                <ele>0.0</ele>
                <name>Lucena</name>
            </trkpt>
            <trkpt lon="-58.40274095535278" lat="-34.7542187177864">
                <ele>0.0</ele>
                <name>Castro</name>
            </trkpt>
            <trkpt lon="-58.402976989746094" lat="-34.75545278966397">
                <ele>0.0</ele>
                <name>Rivera</name>
            </trkpt>
            <trkpt lon="-58.40012311935425" lat="-34.755858266398334">
                <ele>0.0</ele>
                <name>Italia</name>
            </trkpt>
            <trkpt lon="-58.402204513549805" lat="-34.7666291149502">
                <ele>0.0</ele>
                <name>Fernandez</name>
            </trkpt>
            <trkpt lon="-58.39840650558472" lat="-34.76643521684169">
                <ele>0.0</ele>
                <name>Av. Meeks</name>
            </trkpt>
            <trkpt lon="-58.39711904525757" lat="-34.77819166945902">
                <ele>0.0</ele>
                <name>Moreno</name>
            </trkpt>
            <trkpt lon="-58.401453495025635" lat="-34.780535709348676">
                <ele>0.0</ele>
                <name>Dorrego</name>
            </trkpt>
            <trkpt lon="-58.402451276779175" lat="-34.779310824631594">
                <ele>0.0</ele>
                <name>Pichincha</name>
            </trkpt>
            <trkpt lon="-58.4067964553833" lat="-34.78168126852528">
                <ele>0.0</ele>
                <name>Av. Hipólito Yrigoyen</name>
            </trkpt>
            <trkpt lon="-58.408405780792236" lat="-34.789294426847896">
                <ele>0.0</ele>
                <name>Antártida Argentina</name>
            </trkpt>
            <trkpt lon="-58.421173095703125" lat="-34.79606108874421">
                <ele>0.0</ele>
                <name>Antártida Argentina</name>
            </trkpt>
            <trkpt lon="-58.437931537628174" lat="-34.80447458775314">
                <ele>0.0</ele>
                <name>Antártida Argentina</name>
            </trkpt>
            <trkpt lon="-58.43944430351257" lat="-34.804624349066565">
                <ele>21.0</ele>
                <time>2011-09-05T21:27:48.351Z</time>
                <name>Santa Catalina</name>
            </trkpt>
            <trkpt lon="-58.446171283721924" lat="-34.795426737779835">
                <ele>0.0</ele>
                <name>Santa Catalina</name>
            </trkpt>
            <trkpt lon="-58.446611166000366" lat="-34.795726293010084">
                <ele>0.0</ele>
                <name>Santa Catalina</name>
            </trkpt>
            <trkpt lon="-58.44508767127991" lat="-34.79778790830959">
                <ele>0.0</ele>
                <name>San Martín</name>
            </trkpt>
            <trkpt lon="-58.46674919128418" lat="-34.8092051518958">
                <ele>0.0</ele>
                <name>Echeverría</name>
            </trkpt>
            <trkpt lon="-58.46594452857971" lat="-34.810279841838344">
                <ele>0.0</ele>
                <name>Independencia</name>
            </trkpt>
            <trkpt lon="-58.46842288970947" lat="-34.8115747365123">
                <ele>0.0</ele>
                <name>Allegre</name>
            </trkpt>
            <trkpt lon="-58.46704959869385" lat="-34.8134509763656">
                <ele>0.0</ele>
                <name>Guillon</name>
            </trkpt>
            <trkpt lon="-58.469345569610596" lat="-34.81468416239026">
                <ele>0.0</ele>
                <name>Petrazzini</name>
            </trkpt>
            <trkpt lon="-58.47204923629761" lat="-34.8160054126493">
                <ele>0.0</ele>
                <name>Dorrego</name>
            </trkpt>
            <trkpt lon="-58.472596406936646" lat="-34.815283131799795">
                <ele>0.0</ele>
                <name>Maximo Paz</name>
            </trkpt>
            <trkpt lon="-58.470107316970825" lat="-34.81393544450503">
                <ele>0.0</ele>
                <name>Nuestras Malvinas</name>
            </trkpt>
            <trkpt lon="-58.4797739982605" lat="-34.801400015949795">
                <ele>0.0</ele>
                <name>Av. Vernet</name>
            </trkpt>
            <trkpt lon="-58.47900152206421" lat="-34.800060911578306">
                <ele>0.0</ele>
                <name>Av. Vernet</name>
            </trkpt>
            <trkpt lon="-58.478078842163086" lat="-34.7987570258941">
                <ele>0.0</ele>
                <name>Av. Vernet</name>
            </trkpt>
            <trkpt lon="-58.4783148765564" lat="-34.79798173273784">
                <ele>0.0</ele>
                <name>Av. Vernet</name>
            </trkpt>
            <trkpt lon="-58.49389314651489" lat="-34.7769579375038">
                <ele>19.0</ele>
                <time>2011-09-05T21:46:27.470Z</time>
                <name>:2way:Av. Vernet</name>
            </trkpt>
            <trkpt lon="-58.48814249038696" lat="-34.78488874959036">
                <ele>0.0</ele>
                <name>Oliver</name>
            </trkpt>
            <trkpt lon="-58.472081422805786" lat="-34.77676406366215">
                <ele>0.0</ele>
                <name>Arbel</name>
            </trkpt>
            <trkpt lon="-58.4722638130188" lat="-34.77412028399721">
                <ele>0.0</ele>
                <name>Arbel</name>
            </trkpt>
            <trkpt lon="-58.47145915031433" lat="-34.772719046430154">
                <ele>0.0</ele>
                <name>Camino de Cintura</name>
            </trkpt>
            <trkpt lon="-58.47378730773926" lat="-34.7703130924672">
                <ele>0.0</ele>
                <name>Camino de Cintura</name>
            </trkpt>
        </trkseg>
    </trk>
    <trk>
        <name>B - Plaza Miserere (Once) por San Martín</name>
        <trkseg>
            <trkpt lon="-58.473830223083496" lat="-34.77033071875861">
                <ele>0.0</ele>
                <name>Camino de Cintura</name>
            </trkpt>
            <trkpt lon="-58.47152352333069" lat="-34.772754297981464">
                <ele>0.0</ele>
                <name>Arbel</name>
            </trkpt>
            <trkpt lon="-58.4723174571991" lat="-34.774137909475456">
                <ele>0.0</ele>
                <name>Arbel</name>
            </trkpt>
            <trkpt lon="-58.472124338150024" lat="-34.77674643874486">
                <ele>0.0</ele>
                <name>Oliver</name>
            </trkpt>
            <trkpt lon="-58.48822832107544" lat="-34.78485350322342">
                <ele>0.0</ele>
                <name>Av. Vernet</name>
            </trkpt>
            <trkpt lon="-58.49393606185913" lat="-34.7769755623759">
                <ele>19.0</ele>
                <time>2011-09-05T21:48:24.699Z</time>
                <name>:2way:Av. Vernet</name>
            </trkpt>
            <trkpt lon="-58.47825050354004" lat="-34.798157936368106">
                <ele>0.0</ele>
                <name>Av. Vernet</name>
            </trkpt>
            <trkpt lon="-58.478121757507324" lat="-34.798880367314915">
                <ele>0.0</ele>
                <name>Av. Vernet</name>
            </trkpt>
            <trkpt lon="-58.479366302490234" lat="-34.8002899704472">
                <ele>0.0</ele>
                <name>Av. Vernet</name>
            </trkpt>
            <trkpt lon="-58.479859828948975" lat="-34.80148811415898">
                <ele>0.0</ele>
                <name>Nuestras Malvinas</name>
            </trkpt>
            <trkpt lon="-58.47093343734741" lat="-34.812887228035656">
                <ele>0.0</ele>
                <name>Laprida</name>
            </trkpt>
            <trkpt lon="-58.47222089767456" lat="-34.81359191284542">
                <ele>0.0</ele>
                <name>Duclout</name>
            </trkpt>
            <trkpt lon="-58.471362590789795" lat="-34.81464892875997">
                <ele>0.0</ele>
                <name>Maximo Paz</name>
            </trkpt>
            <trkpt lon="-58.470118045806885" lat="-34.81392663601882">
                <ele>22.0</ele>
                <time>2011-09-05T21:49:17.898Z</time>
                <name>:2way:Nuestras Malvinas</name>
            </trkpt>
            <trkpt lon="-58.47169518470764" lat="-34.81185661564921">
                <ele>0.0</ele>
                <name>San Martín</name>
            </trkpt>
            <trkpt lon="-58.44501256942749" lat="-34.79778790830959">
                <ele>0.0</ele>
                <name>Santa Catalina</name>
            </trkpt>
            <trkpt lon="-58.44653606414795" lat="-34.79567343040148">
                <ele>0.0</ele>
                <name>Santa Catalina</name>
            </trkpt>
            <trkpt lon="-58.44618201255798" lat="-34.79555008418292">
                <ele>0.0</ele>
                <name>Santa Catalina</name>
            </trkpt>
            <trkpt lon="-58.43981981277466" lat="-34.80435125470248">
                <ele>0.0</ele>
                <name>Santa Catalina</name>
            </trkpt>
            <trkpt lon="-58.4398627281189" lat="-34.805329104535225">
                <ele>21.0</ele>
                <time>2011-09-05T21:36:13.139Z</time>
                <name>Bv. Buenos Aires</name>
            </trkpt>
            <trkpt lon="-58.439186811447144" lat="-34.80540838914837">
                <ele>21.0</ele>
                <time>2011-09-05T21:36:13.139Z</time>
                <name>Bv. Buenos Aires</name>
            </trkpt>
            <trkpt lon="-58.43850016593933" lat="-34.80478291957241">
                <ele>21.0</ele>
                <time>2011-09-05T21:36:13.139Z</time>
                <name>Antártida Argentina</name>
            </trkpt>
            <trkpt lon="-58.414692878723145" lat="-34.79273069173391">
                <ele>0.0</ele>
                <name>Antártida Argentina</name>
            </trkpt>
            <trkpt lon="-58.40827703475952" lat="-34.78927680460767">
                <ele>0.0</ele>
                <name>Av. Hipólito Yrigoyen</name>
            </trkpt>
            <trkpt lon="-58.40662479400635" lat="-34.78168126852528">
                <ele>0.0</ele>
                <name>25 de Mayo</name>
            </trkpt>
            <trkpt lon="-58.402451276779175" lat="-34.77933726118441">
                <ele>0.0</ele>
                <name>Dorrego</name>
            </trkpt>
            <trkpt lon="-58.40255856513977" lat="-34.77913458072967">
                <ele>0.0</ele>
                <name>25 de Mayo</name>
            </trkpt>
            <trkpt lon="-58.39731216430664" lat="-34.77633225210484">
                <ele>0.0</ele>
                <name>Av. Meeks</name>
            </trkpt>
            <trkpt lon="-58.39861035346985" lat="-34.76333278515978">
                <ele>0.0</ele>
                <name>Av. Meeks</name>
            </trkpt>
            <trkpt lon="-58.397687673568726" lat="-34.75864366144916">
                <ele>0.0</ele>
                <name>Sáenz</name>
            </trkpt>
            <trkpt lon="-58.39911460876465" lat="-34.7584497445837">
                <ele>0.0</ele>
                <name>Alem</name>
            </trkpt>
            <trkpt lon="-58.39578866958618" lat="-34.741735925685575">
                <ele>0.0</ele>
                <name>Pena</name>
            </trkpt>
            <trkpt lon="-58.39866399765015" lat="-34.741383277042495">
                <ele>0.0</ele>
                <name>Av. Hipólito Yrigoyen</name>
            </trkpt>
            <trkpt lon="-58.39179754257202" lat="-34.70820994502577">
                <ele>0.0</ele>
                <name>Av. Hipólito Yrigoyen</name>
            </trkpt>
            <trkpt lon="-58.391926288604736" lat="-34.69992776327402">
                <ele>0.0</ele>
                <name>Rico</name>
            </trkpt>
            <trkpt lon="-58.39039206504822" lat="-34.69986601865664">
                <ele>0.0</ele>
                <name>Eva. Perón</name>
            </trkpt>
            <trkpt lon="-58.39209794998169" lat="-34.698251821598696">
                <ele>0.0</ele>
                <name>Maximo Paz</name>
            </trkpt>
            <trkpt lon="-58.40454339981079" lat="-34.68776318420273">
                <ele>0.0</ele>
                <name>Atencio</name>
            </trkpt>
            <trkpt lon="-58.40503692626953" lat="-34.685645888438074">
                <ele>0.0</ele>
                <name>Atencio</name>
            </trkpt>
            <trkpt lon="-58.404457569122314" lat="-34.67964658971315">
                <ele>0.0</ele>
                <name>Av. Rivadavia</name>
            </trkpt>
            <trkpt lon="-58.400981426239014" lat="-34.67744085590206">
                <ele>0.0</ele>
                <name>Pres. Perón</name>
            </trkpt>
            <trkpt lon="-58.417675495147705" lat="-34.66494647089104">
                <ele>0.0</ele>
                <name>Av. Remedios de Escalada</name>
            </trkpt>
            <trkpt lon="-58.416666984558105" lat="-34.66025176577972">
                <ele>0.0</ele>
                <name>Av. Sáenz</name>
            </trkpt>
            <trkpt lon="-58.41625928878784" lat="-34.64837262111001">
                <ele>0.0</ele>
                <name>Av. Almafuerte</name>
            </trkpt>
            <trkpt lon="-58.41525077819824" lat="-34.647119298548276">
                <ele>0.0</ele>
                <name>Av. Almafuerte</name>
            </trkpt>
            <trkpt lon="-58.41248273849487" lat="-34.64101128647789">
                <ele>0.0</ele>
                <name>Taborda</name>
            </trkpt>
            <trkpt lon="-58.414435386657715" lat="-34.633684609192834">
                <ele>0.0</ele>
                <name>Maza</name>
            </trkpt>
            <trkpt lon="-58.414649963378906" lat="-34.625227230092214">
                <ele>0.0</ele>
                <name>Maza</name>
            </trkpt>
            <trkpt lon="-58.41548681259155" lat="-34.61722812222759">
                <ele>0.0</ele>
                <name>Maza</name>
            </trkpt>
            <trkpt lon="-58.41623783111572" lat="-34.613537324692395">
                <ele>0.0</ele>
                <name>Maza</name>
            </trkpt>
            <trkpt lon="-58.4173321723938" lat="-34.610958966854625">
                <ele>0.0</ele>
                <name>Mario Bravo</name>
            </trkpt>
            <trkpt lon="-58.417439460754395" lat="-34.609581455191105">
                <ele>0.0</ele>
                <name>Bartolomé Mitre</name>
            </trkpt>
            <trkpt lon="-58.40608835220337" lat="-34.608910351485655">
                <ele>0.0</ele>
                <name>Bartolomé Mitre</name>
            </trkpt>
        </trkseg>
    </trk>
    <trk>
        <name>C - Burzaco por Temperley</name>
        <trkseg>
            <trkpt lon="-58.41651678085327" lat="-34.65082625408572">
                <ele>0.0</ele>
                <name>Av. Sáenz</name>
            </trkpt>
            <trkpt lon="-58.41662406921387" lat="-34.65931632283246">
                <ele>0.0</ele>
                <name>Av. Remedios de Escalada</name>
            </trkpt>
            <trkpt lon="-58.41756820678711" lat="-34.66499941717617">
                <ele>0.0</ele>
                <name>Pres. Perón</name>
            </trkpt>
            <trkpt lon="-58.40106725692749" lat="-34.677352625327615">
                <ele>0.0</ele>
                <name>Av. Rivadavia</name>
            </trkpt>
            <trkpt lon="-58.40454339981079" lat="-34.67977010906941">
                <ele>0.0</ele>
                <name>Atencio</name>
            </trkpt>
            <trkpt lon="-58.405208587646484" lat="-34.685734110176064">
                <ele>0.0</ele>
                <name>Atencio</name>
            </trkpt>
            <trkpt lon="-58.40460777282715" lat="-34.6877808281066">
                <ele>0.0</ele>
                <name>Maximo Paz</name>
            </trkpt>
            <trkpt lon="-58.39209794998169" lat="-34.69841941729368">
                <ele>0.0</ele>
                <name>Av. Hipólito Yrigoyen</name>
            </trkpt>
            <trkpt lon="-58.39181900024414" lat="-34.70820994502577">
                <ele>0.0</ele>
                <name>Av. Hipólito Yrigoyen</name>
            </trkpt>
            <trkpt lon="-58.40128183364868" lat="-34.75441264458852">
                <ele>0.0</ele>
                <name>Lucena</name>
            </trkpt>
            <trkpt lon="-58.40274095535278" lat="-34.7542187177864">
                <ele>0.0</ele>
                <name>Castro</name>
            </trkpt>
            <trkpt lon="-58.402976989746094" lat="-34.75545278966397">
                <ele>0.0</ele>
                <name>Rivera</name>
            </trkpt>
            <trkpt lon="-58.40012311935425" lat="-34.755858266398334">
                <ele>0.0</ele>
                <name>Italia</name>
            </trkpt>
            <trkpt lon="-58.402204513549805" lat="-34.7666291149502">
                <ele>0.0</ele>
                <name>Fernandez</name>
            </trkpt>
            <trkpt lon="-58.39840650558472" lat="-34.76643521684169">
                <ele>0.0</ele>
                <name>Av. Meeks</name>
            </trkpt>
            <trkpt lon="-58.39711904525757" lat="-34.77819166945902">
                <ele>0.0</ele>
                <name>Moreno</name>
            </trkpt>
            <trkpt lon="-58.401453495025635" lat="-34.780535709348676">
                <ele>0.0</ele>
                <name>Dorrego</name>
            </trkpt>
            <trkpt lon="-58.402451276779175" lat="-34.779310824631594">
                <ele>0.0</ele>
                <name>Pichincha</name>
            </trkpt>
            <trkpt lon="-58.4067964553833" lat="-34.78168126852528">
                <ele>0.0</ele>
                <name>Av. Hipólito Yrigoyen</name>
            </trkpt>
            <trkpt lon="-58.408405780792236" lat="-34.789294426847896">
                <ele>0.0</ele>
                <name>Antártida Argentina</name>
            </trkpt>
            <trkpt lon="-58.421173095703125" lat="-34.79606108874421">
                <ele>0.0</ele>
                <name>Antártida Argentina</name>
            </trkpt>
            <trkpt lon="-58.43220233917236" lat="-34.80163788089849">
                <ele>0.0</ele>
                <name>Tupac Amaru</name>
            </trkpt>
            <trkpt lon="-58.429938554763794" lat="-34.80465077750538">
                <ele>0.0</ele>
                <name>Ascasubi</name>
            </trkpt>
            <trkpt lon="-58.435903787612915" lat="-34.80768118229384">
                <ele>0.0</ele>
                <name>Bahia Blanca</name>
            </trkpt>
            <trkpt lon="-58.43205213546753" lat="-34.812763907574336">
                <ele>0.0</ele>
                <name>Mercedes</name>
            </trkpt>
            <trkpt lon="-58.43046426773071" lat="-34.81193589398274">
                <ele>0.0</ele>
                <name>Wilde</name>
            </trkpt>
            <trkpt lon="-58.42757821083069" lat="-34.81580282231826">
                <ele>26.0</ele>
                <time>2011-09-05T21:54:49.436Z</time>
                <name>Guatambu</name>
            </trkpt>
            <trkpt lon="-58.42483162879944" lat="-34.81954625885894">
                <ele>0.0</ele>
                <name>Policastro</name>
            </trkpt>
            <trkpt lon="-58.417922258377075" lat="-34.81587328857687">
                <ele>0.0</ele>
                <name>Chagüe</name>
            </trkpt>
            <trkpt lon="-58.41199994087219" lat="-34.824038158171675">
                <ele>0.0</ele>
                <name>Prieto</name>
            </trkpt>
            <trkpt lon="-58.40604543685913" lat="-34.82111404762292">
                <ele>0.0</ele>
                <name>Prieto</name>
            </trkpt>
            <trkpt lon="-58.405691385269165" lat="-34.82151039398966">
                <ele>0.0</ele>
                <name>Prieto</name>
            </trkpt>
            <trkpt lon="-58.405208587646484" lat="-34.82128139409928">
                <ele>0.0</ele>
                <name>Castagnino</name>
            </trkpt>
            <trkpt lon="-58.402698040008545" lat="-34.8247339402718">
                <ele>0.0</ele>
                <name>Santo Domingo</name>
            </trkpt>
            <trkpt lon="-58.40084195137024" lat="-34.82380916530885">
                <ele>0.0</ele>
                <name>Pueyrredón</name>
            </trkpt>
            <trkpt lon="-58.40014457702637" lat="-34.824716325607596">
                <ele>0.0</ele>
                <name>Independencia</name>
            </trkpt>
            <trkpt lon="-58.399221897125244" lat="-34.82424072825038">
                <ele>0.0</ele>
                <name>Ituzaingo</name>
            </trkpt>
            <trkpt lon="-58.397709131240845" lat="-34.82633685894363">
                <ele>0.0</ele>
                <name>Ituzaingo</name>
            </trkpt>
        </trkseg>
    </trk>
    <trk>
        <name>C - Nueva Pompeya por Temperley</name>
        <trkseg>
            <trkpt lon="-58.39756965637207" lat="-34.826416123343186">
                <ele>0.0</ele>
                <name>Ituzaingo</name>
            </trkpt>
            <trkpt lon="-58.39924335479736" lat="-34.824231920866005">
                <ele>0.0</ele>
                <name>Independencia</name>
            </trkpt>
            <trkpt lon="-58.40013384819031" lat="-34.82464586691316">
                <ele>0.0</ele>
                <name>Pueyrredón</name>
            </trkpt>
            <trkpt lon="-58.40075612068176" lat="-34.82368586119595">
                <ele>0.0</ele>
                <name>Santo Domingo</name>
            </trkpt>
            <trkpt lon="-58.40262293815613" lat="-34.82462825223013">
                <ele>0.0</ele>
                <name>Castagnino</name>
            </trkpt>
            <trkpt lon="-58.405208587646484" lat="-34.82128139409928">
                <ele>0.0</ele>
                <name>Prieto</name>
            </trkpt>
            <trkpt lon="-58.405702114105225" lat="-34.82144874023566">
                <ele>0.0</ele>
                <name>Prieto</name>
            </trkpt>
            <trkpt lon="-58.40599179267883" lat="-34.821043585846965">
                <ele>0.0</ele>
                <name>Prieto</name>
            </trkpt>
            <trkpt lon="-58.411957025527954" lat="-34.82398531372137">
                <ele>0.0</ele>
                <name>Chagüe</name>
            </trkpt>
            <trkpt lon="-58.417943716049194" lat="-34.81582043888856">
                <ele>0.0</ele>
                <name>Policastro</name>
            </trkpt>
            <trkpt lon="-58.4248423576355" lat="-34.81952864308534">
                <ele>0.0</ele>
                <name>Guatumbu</name>
            </trkpt>
            <trkpt lon="-58.42765331268261" lat="-34.815732268533544">
                <ele>26.0</ele>
                <time>2011-09-05T22:00:56.864Z</time>
                <name>Wilde</name>
            </trkpt>
            <trkpt lon="-58.43046426773071" lat="-34.81193589398274">
                <ele>0.0</ele>
                <name>Mercedes</name>
            </trkpt>
            <trkpt lon="-58.43205213546753" lat="-34.812763907574336">
                <ele>0.0</ele>
                <name>Bahia Blanca</name>
            </trkpt>
            <trkpt lon="-58.435903787612915" lat="-34.80768118229384">
                <ele>0.0</ele>
                <name>Ascasubi</name>
            </trkpt>
            <trkpt lon="-58.429938554763794" lat="-34.80465077750538">
                <ele>0.0</ele>
                <name>Tupac Amaru</name>
            </trkpt>
            <trkpt lon="-58.432159423828125" lat="-34.80164669069823">
                <ele>0.0</ele>
                <name>Antártida Argentina</name>
            </trkpt>
            <trkpt lon="-58.414692878723145" lat="-34.79273069173391">
                <ele>0.0</ele>
                <name>Antártida Argentina</name>
            </trkpt>
            <trkpt lon="-58.40827703475952" lat="-34.78927680460767">
                <ele>0.0</ele>
                <name>Av. Hipólito Yrigoyen</name>
            </trkpt>
            <trkpt lon="-58.40726852416992" lat="-34.784615589852706">
                <ele>0.0</ele>
                <name>Marino</name>
            </trkpt>
            <trkpt lon="-58.400917053222656" lat="-34.78124948270361">
                <ele>0.0</ele>
                <name>Dorrego</name>
            </trkpt>
            <trkpt lon="-58.40255856513977" lat="-34.77913458072967">
                <ele>0.0</ele>
                <name>25 de Mayo</name>
            </trkpt>
            <trkpt lon="-58.39731216430664" lat="-34.77633225210484">
                <ele>0.0</ele>
                <name>Av. Meeks</name>
            </trkpt>
            <trkpt lon="-58.39861035346985" lat="-34.76333278515978">
                <ele>0.0</ele>
                <name>Av. Meeks</name>
            </trkpt>
            <trkpt lon="-58.397687673568726" lat="-34.75864366144916">
                <ele>0.0</ele>
                <name>Sáenz</name>
            </trkpt>
            <trkpt lon="-58.39911460876465" lat="-34.7584497445837">
                <ele>0.0</ele>
                <name>Alem</name>
            </trkpt>
            <trkpt lon="-58.39578866958618" lat="-34.741735925685575">
                <ele>0.0</ele>
                <name>Pena</name>
            </trkpt>
            <trkpt lon="-58.39866399765015" lat="-34.741383277042495">
                <ele>0.0</ele>
                <name>Av. Hipólito Yrigoyen</name>
            </trkpt>
            <trkpt lon="-58.39179754257202" lat="-34.70820994502577">
                <ele>0.0</ele>
                <name>Av. Hipólito Yrigoyen</name>
            </trkpt>
            <trkpt lon="-58.391926288604736" lat="-34.69992776327402">
                <ele>0.0</ele>
                <name>Rico</name>
            </trkpt>
            <trkpt lon="-58.39039206504822" lat="-34.69986601865664">
                <ele>0.0</ele>
                <name>Eva. Perón</name>
            </trkpt>
            <trkpt lon="-58.39209794998169" lat="-34.698251821598696">
                <ele>0.0</ele>
                <name>Maximo Paz</name>
            </trkpt>
            <trkpt lon="-58.40454339981079" lat="-34.68776318420273">
                <ele>0.0</ele>
                <name>Atencio</name>
            </trkpt>
            <trkpt lon="-58.40503692626953" lat="-34.685645888438074">
                <ele>0.0</ele>
                <name>Atencio</name>
            </trkpt>
            <trkpt lon="-58.404457569122314" lat="-34.67964658971315">
                <ele>0.0</ele>
                <name>Av. Rivadavia</name>
            </trkpt>
            <trkpt lon="-58.400981426239014" lat="-34.67744085590206">
                <ele>0.0</ele>
                <name>Pres. Perón</name>
            </trkpt>
            <trkpt lon="-58.417675495147705" lat="-34.66494647089104">
                <ele>0.0</ele>
                <name>Av. Remedios de Escalada</name>
            </trkpt>
            <trkpt lon="-58.416666984558105" lat="-34.66025176577972">
                <ele>0.0</ele>
                <name>Av. Sáenz</name>
            </trkpt>
            <trkpt lon="-58.41625928878784" lat="-34.650808602309276">
                <ele>0.0</ele>
                <name>Av. Sáenz</name>
            </trkpt>
        </trkseg>
    </trk>
    <trk>
        <name>D - Burzaco por Garibaldi</name>
        <trkseg>
            <trkpt lon="-58.41651678085327" lat="-34.65082625408572">
                <ele>0.0</ele>
                <name>Av. Sáenz</name>
            </trkpt>
            <trkpt lon="-58.41662406921387" lat="-34.65931632283246">
                <ele>0.0</ele>
                <name>Av. Remedios de Escalada</name>
            </trkpt>
            <trkpt lon="-58.41756820678711" lat="-34.66499941717617">
                <ele>0.0</ele>
                <name>Pres. Perón</name>
            </trkpt>
            <trkpt lon="-58.40106725692749" lat="-34.677352625327615">
                <ele>0.0</ele>
                <name>Av. Rivadavia</name>
            </trkpt>
            <trkpt lon="-58.40454339981079" lat="-34.67977010906941">
                <ele>0.0</ele>
                <name>Atencio</name>
            </trkpt>
            <trkpt lon="-58.405208587646484" lat="-34.685734110176064">
                <ele>0.0</ele>
                <name>Atencio</name>
            </trkpt>
            <trkpt lon="-58.40460777282715" lat="-34.6877808281066">
                <ele>0.0</ele>
                <name>Maximo Paz</name>
            </trkpt>
            <trkpt lon="-58.39209794998169" lat="-34.69841941729368">
                <ele>0.0</ele>
                <name>Av. Hipólito Yrigoyen</name>
            </trkpt>
            <trkpt lon="-58.39181900024414" lat="-34.70820994502577">
                <ele>0.0</ele>
                <name>Av. Hipólito Yrigoyen</name>
            </trkpt>
            <trkpt lon="-58.40128183364868" lat="-34.75441264458852">
                <ele>0.0</ele>
                <name>Lucena</name>
            </trkpt>
            <trkpt lon="-58.40274095535278" lat="-34.7542187177864">
                <ele>0.0</ele>
                <name>Castro</name>
            </trkpt>
            <trkpt lon="-58.402976989746094" lat="-34.75545278966397">
                <ele>0.0</ele>
                <name>Rivera</name>
            </trkpt>
            <trkpt lon="-58.40012311935425" lat="-34.755858266398334">
                <ele>0.0</ele>
                <name>Italia</name>
            </trkpt>
            <trkpt lon="-58.40164661407471" lat="-34.76414365924097">
                <ele>0.0</ele>
                <name>Colombres</name>
            </trkpt>
            <trkpt lon="-58.404693603515625" lat="-34.763755850891556">
                <ele>0.0</ele>
                <name>Sarmiento</name>
            </trkpt>
            <trkpt lon="-58.406410217285156" lat="-34.77188181766062">
                <ele>0.0</ele>
                <name>Garibaldi</name>
            </trkpt>
            <trkpt lon="-58.40810537338257" lat="-34.772886491164776">
                <ele>0.0</ele>
                <name>Garibaldi</name>
            </trkpt>
            <trkpt lon="-58.42379093170166" lat="-34.78124067072452">
                <ele>0.0</ele>
                <name>Garibaldi</name>
            </trkpt>
            <trkpt lon="-58.43252420425415" lat="-34.784730140820564">
                <ele>0.0</ele>
                <name>Garibaldi</name>
            </trkpt>
            <trkpt lon="-58.436386585235596" lat="-34.78677440826366">
                <ele>0.0</ele>
                <name>Luzuriaga</name>
            </trkpt>
            <trkpt lon="-58.4292733669281" lat="-34.79631658983722">
                <ele>0.0</ele>
                <name>Macome</name>
            </trkpt>
            <trkpt lon="-58.42875838279724" lat="-34.796351831305145">
                <ele>0.0</ele>
                <name>Macome</name>
            </trkpt>
            <trkpt lon="-58.428425788879395" lat="-34.79676591742502">
                <ele>0.0</ele>
                <name>Macome</name>
            </trkpt>
            <trkpt lon="-58.42597961425781" lat="-34.79652803841886">
                <ele>0.0</ele>
                <name>De La Pena</name>
            </trkpt>
            <trkpt lon="-58.42584013938904" lat="-34.798404620817806">
                <ele>0.0</ele>
                <name>Antártida Argentina</name>
            </trkpt>
            <trkpt lon="-58.438229" lat="-34.804581">
                <ele>0.0</ele>
                <name>Antártida Argentina</name>
            </trkpt>
            <trkpt lon="-58.4398090839386" lat="-34.804703634357615">
                <ele>22.0</ele>
                <time>2011-09-05T22:15:18.310Z</time>
                <name>Antártida Argentina</name>
            </trkpt>
            <trkpt lon="-58.43995928764343" lat="-34.80542600794092">
                <ele>21.0</ele>
                <time>2011-09-05T22:15:18.310Z</time>
                <name>Antártida Argentina</name>
            </trkpt>
            <trkpt lon="-58.43904733657837" lat="-34.80555814876507">
                <ele>21.0</ele>
                <time>2011-09-05T22:15:18.310Z</time>
                <name>Antártida Argentina</name>
            </trkpt>
            <trkpt lon="-58.438124656677246" lat="-34.804756491175944">
                <ele>21.0</ele>
                <time>2011-09-05T22:15:18.310Z</time>
                <name>Bahia Blanca</name>
            </trkpt>
            <trkpt lon="-58.43205213546753" lat="-34.812763907574336">
                <ele>0.0</ele>
                <name>Mercedes</name>
            </trkpt>
            <trkpt lon="-58.43046426773071" lat="-34.81193589398274">
                <ele>0.0</ele>
                <name>Wilde</name>
            </trkpt>
            <trkpt lon="-58.42757821083069" lat="-34.81580282231826">
                <ele>26.0</ele>
                <time>2011-09-05T21:54:49.436Z</time>
                <name>Guatambu</name>
            </trkpt>
            <trkpt lon="-58.42483162879944" lat="-34.81954625885894">
                <ele>0.0</ele>
                <name>Guatambu</name>
            </trkpt>
        </trkseg>
    </trk>
    <trk>
        <name>D - Nueva Pompeya por Garibaldi</name>
        <trkseg>
            <trkpt lon="-58.4248423576355" lat="-34.81952864308534">
                <ele>0.0</ele>
                <name>Guatumbu</name>
            </trkpt>
            <trkpt lon="-58.42765331268261" lat="-34.815732268533544">
                <ele>26.0</ele>
                <time>2011-09-05T22:00:56.864Z</time>
                <name>Wilde</name>
            </trkpt>
            <trkpt lon="-58.43046426773071" lat="-34.81193589398274">
                <ele>0.0</ele>
                <name>Mercedes</name>
            </trkpt>
            <trkpt lon="-58.43205213546753" lat="-34.812763907574336">
                <ele>0.0</ele>
                <name>Bahia Blanca</name>
            </trkpt>
            <trkpt lon="-58.438146114349365" lat="-34.80471244382969">
                <ele>0.0</ele>
                <name>Antártida Argentina</name>
            </trkpt>
            <trkpt lon="-58.42703104019165" lat="-34.79905656902455">
                <ele>0.0</ele>
                <name>Echea</name>
            </trkpt>
            <trkpt lon="-58.426408767700195" lat="-34.79982304207926">
                <ele>0.0</ele>
                <name>Gibson</name>
            </trkpt>
            <trkpt lon="-58.42522859573364" lat="-34.79920634018165">
                <ele>0.0</ele>
                <name>Doyhenard</name>
            </trkpt>
            <trkpt lon="-58.42584013938904" lat="-34.7984222411074">
                <ele>0.0</ele>
                <name>De La Pena</name>
            </trkpt>
            <trkpt lon="-58.42602252960205" lat="-34.79647517632429">
                <ele>0.0</ele>
                <name>Macome</name>
            </trkpt>
            <trkpt lon="-58.428382873535156" lat="-34.796695434828074">
                <ele>0.0</ele>
                <name>Macome</name>
            </trkpt>
            <trkpt lon="-58.42872619628906" lat="-34.79630777946788">
                <ele>0.0</ele>
                <name>Macome</name>
            </trkpt>
            <trkpt lon="-58.42924118041992" lat="-34.79627253798112">
                <ele>0.0</ele>
                <name>Luzuriaga</name>
            </trkpt>
            <trkpt lon="-58.43636512756348" lat="-34.78673916270251">
                <ele>0.0</ele>
                <name>Garibaldi</name>
            </trkpt>
            <trkpt lon="-58.43252420425415" lat="-34.78468608277483">
                <ele>0.0</ele>
                <name>Garibaldi</name>
            </trkpt>
            <trkpt lon="-58.4237802028656" lat="-34.781337602442605">
                <ele>0.0</ele>
                <name>Garibaldi</name>
            </trkpt>
            <trkpt lon="-58.40809464454651" lat="-34.77285123966994">
                <ele>0.0</ele>
                <name>Saavedra</name>
            </trkpt>
            <trkpt lon="-58.40561628341675" lat="-34.76117335337726">
                <ele>0.0</ele>
                <name>Gorriti</name>
            </trkpt>
            <trkpt lon="-58.39840650558472" lat="-34.76216052920102">
                <ele>0.0</ele>
                <name>Av. Meeks</name>
            </trkpt>
            <trkpt lon="-58.397687673568726" lat="-34.75864366144916">
                <ele>0.0</ele>
                <name>Sáenz</name>
            </trkpt>
            <trkpt lon="-58.39911460876465" lat="-34.7584497445837">
                <ele>0.0</ele>
                <name>Alem</name>
            </trkpt>
            <trkpt lon="-58.39578866958618" lat="-34.741735925685575">
                <ele>0.0</ele>
                <name>Pena</name>
            </trkpt>
            <trkpt lon="-58.39866399765015" lat="-34.741383277042495">
                <ele>0.0</ele>
                <name>Av. Hipólito Yrigoyen</name>
            </trkpt>
            <trkpt lon="-58.39179754257202" lat="-34.70820994502577">
                <ele>0.0</ele>
                <name>Av. Hipólito Yrigoyen</name>
            </trkpt>
            <trkpt lon="-58.391926288604736" lat="-34.69992776327402">
                <ele>0.0</ele>
                <name>Rico</name>
            </trkpt>
            <trkpt lon="-58.39039206504822" lat="-34.69986601865664">
                <ele>0.0</ele>
                <name>Eva. Perón</name>
            </trkpt>
            <trkpt lon="-58.39209794998169" lat="-34.698251821598696">
                <ele>0.0</ele>
                <name>Maximo Paz</name>
            </trkpt>
            <trkpt lon="-58.40454339981079" lat="-34.68776318420273">
                <ele>0.0</ele>
                <name>Atencio</name>
            </trkpt>
            <trkpt lon="-58.40503692626953" lat="-34.685645888438074">
                <ele>0.0</ele>
                <name>Atencio</name>
            </trkpt>
            <trkpt lon="-58.404457569122314" lat="-34.67964658971315">
                <ele>0.0</ele>
                <name>Av. Rivadavia</name>
            </trkpt>
            <trkpt lon="-58.400981426239014" lat="-34.67744085590206">
                <ele>0.0</ele>
                <name>Pres. Perón</name>
            </trkpt>
            <trkpt lon="-58.417675495147705" lat="-34.66494647089104">
                <ele>0.0</ele>
                <name>Av. Remedios de Escalada</name>
            </trkpt>
            <trkpt lon="-58.416666984558105" lat="-34.66025176577972">
                <ele>0.0</ele>
                <name>Av. Sáenz</name>
            </trkpt>
            <trkpt lon="-58.41625928878784" lat="-34.650808602309276">
                <ele>0.0</ele>
                <name>Av. Sáenz</name>
            </trkpt>
        </trkseg>
    </trk>
    <trk>
        <name>E - Estación Monte Grande</name>
        <trkseg>
            <trkpt lon="-58.41649532318115" lat="-34.650808602309276">
                <ele>0.0</ele>
                <name>Av. Sáenz</name>
            </trkpt>
            <trkpt lon="-58.41662406921387" lat="-34.65931632283246">
                <ele>0.0</ele>
                <name>Av. Remedios de Escalada</name>
            </trkpt>
            <trkpt lon="-58.41756820678711" lat="-34.66499941717617">
                <ele>0.0</ele>
                <name>Pres. Perón</name>
            </trkpt>
            <trkpt lon="-58.40106725692749" lat="-34.677352625327615">
                <ele>0.0</ele>
                <name>Av. Rivadavia</name>
            </trkpt>
            <trkpt lon="-58.40454339981079" lat="-34.67977010906941">
                <ele>0.0</ele>
                <name>Atencio</name>
            </trkpt>
            <trkpt lon="-58.405208587646484" lat="-34.685734110176064">
                <ele>0.0</ele>
                <name>Atencio</name>
            </trkpt>
            <trkpt lon="-58.40460777282715" lat="-34.6877808281066">
                <ele>0.0</ele>
                <name>Maximo Paz</name>
            </trkpt>
            <trkpt lon="-58.39209794998169" lat="-34.69841941729368">
                <ele>0.0</ele>
                <name>Av. Hipólito Yrigoyen</name>
            </trkpt>
            <trkpt lon="-58.39181900024414" lat="-34.70820994502577">
                <ele>0.0</ele>
                <name>Av. Hipólito Yrigoyen</name>
            </trkpt>
            <trkpt lon="-58.40128183364868" lat="-34.75441264458852">
                <ele>0.0</ele>
                <name>Lucena</name>
            </trkpt>
            <trkpt lon="-58.40274095535278" lat="-34.7542187177864">
                <ele>0.0</ele>
                <name>Castro</name>
            </trkpt>
            <trkpt lon="-58.402976989746094" lat="-34.75545278966397">
                <ele>0.0</ele>
                <name>Rivera</name>
            </trkpt>
            <trkpt lon="-58.40012311935425" lat="-34.755858266398334">
                <ele>0.0</ele>
                <name>Italia</name>
            </trkpt>
            <trkpt lon="-58.401710987091064" lat="-34.764126031628244">
                <ele>0.0</ele>
                <name>Colombres</name>
            </trkpt>
            <trkpt lon="-58.40924263000488" lat="-34.76306836797639">
                <ele>0.0</ele>
                <name>Piaggio</name>
            </trkpt>
            <trkpt lon="-58.41035842895508" lat="-34.76835655072024">
                <ele>0.0</ele>
                <name>Oliden</name>
            </trkpt>
            <trkpt lon="-58.42404842376709" lat="-34.77553031036001">
                <ele>19.0</ele>
                <time>2011-09-05T22:24:43.047Z</time>
                <name>Oliden</name>
            </trkpt>
            <trkpt lon="-58.430635929107666" lat="-34.77884377746835">
                <ele>0.0</ele>
                <name>Madrid</name>
            </trkpt>
            <trkpt lon="-58.43851089477539" lat="-34.76839180413502">
                <ele>0.0</ele>
                <name>Av. Juan XXIII</name>
            </trkpt>
            <trkpt lon="-58.45818758010864" lat="-34.77865872031382">
                <ele>0.0</ele>
                <name>:2way:Av. Santa Catalina</name>
            </trkpt>
            <trkpt lon="-58.459646701812744" lat="-34.77679931348542">
                <ele>17.0</ele>
                <time>2011-09-05T22:25:13.798Z</time>
                <name>Av. Santa Catalina</name>
            </trkpt>
            <trkpt lon="-58.46050500869751" lat="-34.77716062330573">
                <ele>15.0</ele>
                <time>2011-09-05T22:25:13.798Z</time>
                <name>Av. Santa Catalina</name>
            </trkpt>
            <trkpt lon="-58.446611166000366" lat="-34.795726293010084">
                <ele>0.0</ele>
                <name>Santa Catalina</name>
            </trkpt>
            <trkpt lon="-58.44508767127991" lat="-34.79778790830959">
                <ele>0.0</ele>
                <name>San Martín</name>
            </trkpt>
            <trkpt lon="-58.46674919128418" lat="-34.8092051518958">
                <ele>0.0</ele>
                <name>Echeverría</name>
            </trkpt>
            <trkpt lon="-58.46594452857971" lat="-34.810279841838344">
                <ele>0.0</ele>
                <name>Independencia</name>
            </trkpt>
            <trkpt lon="-58.47219944000244" lat="-34.81355667874806">
                <ele>0.0</ele>
                <name>Duclout</name>
            </trkpt>
            <trkpt lon="-58.47142696380615" lat="-34.81464892875997">
                <ele>22.0</ele>
                <time>2011-09-05T22:26:35.941Z</time>
                <name>Maximo Paz</name>
            </trkpt>
            <trkpt lon="-58.46995711326599" lat="-34.81403233779109">
                <ele>22.0</ele>
                <time>2011-09-05T22:26:42.064Z</time>
                <name>Maximo Paz</name>
            </trkpt>
        </trkseg>
    </trk>
    <trk>
        <name>E - Nueva Pompeya</name>
        <trkseg>
            <trkpt lon="-58.471362590789795" lat="-34.81464892875997">
                <ele>0.0</ele>
                <name>Maximo Paz</name>
            </trkpt>
            <trkpt lon="-58.470118045806885" lat="-34.81392663601882">
                <ele>22.0</ele>
                <time>2011-09-05T21:49:17.898Z</time>
                <name>Nuestras Malvinas</name>
            </trkpt>
            <trkpt lon="-58.47169518470764" lat="-34.81185661564921">
                <ele>0.0</ele>
                <name>San Martín</name>
            </trkpt>
            <trkpt lon="-58.44501256942749" lat="-34.79778790830959">
                <ele>0.0</ele>
                <name>Santa Catalina</name>
            </trkpt>
            <trkpt lon="-58.443124294281006" lat="-34.8002899704472">
                <ele>0.0</ele>
                <name>Santa Catalina</name>
            </trkpt>
            <trkpt lon="-58.44243764877319" lat="-34.79993757192374">
                <ele>0.0</ele>
                <name>Santa Catalina</name>
            </trkpt>
            <trkpt lon="-58.445913791656494" lat="-34.795426737779835">
                <ele>0.0</ele>
                <name>Santa Catalina</name>
            </trkpt>
            <trkpt lon="-58.446407318115234" lat="-34.79533863309322">
                <ele>0.0</ele>
                <name>Santa Catalina</name>
            </trkpt>
            <trkpt lon="-58.457157611846924" lat="-34.78094106287586">
                <ele>0.0</ele>
                <name>Santa Catalina</name>
            </trkpt>
            <trkpt lon="-58.45803737640381" lat="-34.77868515707559">
                <ele>0.0</ele>
                <name>Av. Juan XXIII</name>
            </trkpt>
            <trkpt lon="-58.438382148742676" lat="-34.7684799376061">
                <ele>0.0</ele>
                <name>Madrid</name>
            </trkpt>
            <trkpt lon="-58.43057155609131" lat="-34.77884377746835">
                <ele>0.0</ele>
                <name>Oliden</name>
            </trkpt>
            <trkpt lon="-58.41035842895508" lat="-34.76835655072024">
                <ele>0.0</ele>
                <name>Piaggio</name>
            </trkpt>
            <trkpt lon="-58.40862035751343" lat="-34.76075908857791">
                <ele>0.0</ele>
                <name>Gorriti</name>
            </trkpt>
            <trkpt lon="-58.3983850479126" lat="-34.76216934321771">
                <ele>0.0</ele>
                <name>Av. Meeks</name>
            </trkpt>
            <trkpt lon="-58.397687673568726" lat="-34.75864366144916">
                <ele>0.0</ele>
                <name>Sáenz</name>
            </trkpt>
            <trkpt lon="-58.39911460876465" lat="-34.7584497445837">
                <ele>0.0</ele>
                <name>Alem</name>
            </trkpt>
            <trkpt lon="-58.39578866958618" lat="-34.741735925685575">
                <ele>0.0</ele>
                <name>Pena</name>
            </trkpt>
            <trkpt lon="-58.39866399765015" lat="-34.741383277042495">
                <ele>0.0</ele>
                <name>Av. Hipólito Yrigoyen</name>
            </trkpt>
            <trkpt lon="-58.39179754257202" lat="-34.70820994502577">
                <ele>0.0</ele>
                <name>Av. Hipólito Yrigoyen</name>
            </trkpt>
            <trkpt lon="-58.391926288604736" lat="-34.69992776327402">
                <ele>0.0</ele>
                <name>Rico</name>
            </trkpt>
            <trkpt lon="-58.39039206504822" lat="-34.69986601865664">
                <ele>0.0</ele>
                <name>Eva. Perón</name>
            </trkpt>
            <trkpt lon="-58.39209794998169" lat="-34.698251821598696">
                <ele>0.0</ele>
                <name>Maximo Paz</name>
            </trkpt>
            <trkpt lon="-58.40454339981079" lat="-34.68776318420273">
                <ele>0.0</ele>
                <name>Atencio</name>
            </trkpt>
            <trkpt lon="-58.40503692626953" lat="-34.685645888438074">
                <ele>0.0</ele>
                <name>Atencio</name>
            </trkpt>
            <trkpt lon="-58.404457569122314" lat="-34.67964658971315">
                <ele>0.0</ele>
                <name>Av. Rivadavia</name>
            </trkpt>
            <trkpt lon="-58.400981426239014" lat="-34.67744085590206">
                <ele>0.0</ele>
                <name>Pres. Perón</name>
            </trkpt>
            <trkpt lon="-58.417675495147705" lat="-34.66494647089104">
                <ele>0.0</ele>
                <name>Av. Remedios de Escalada</name>
            </trkpt>
            <trkpt lon="-58.416666984558105" lat="-34.66025176577972">
                <ele>0.0</ele>
                <name>Av. Sáenz</name>
            </trkpt>
            <trkpt lon="-58.4162163734436" lat="-34.65079095052906">
                <ele>0.0</ele>
                <name>Av. Sáenz</name>
            </trkpt>
        </trkseg>
    </trk>
</gpx>
