<?xml version="1.0" encoding="UTF-8" standalone="yes"?>
<gpx xmlns="http://www.topografix.com/GPX/1/1" xmlns:gpxtrx="http://www.garmin.com/xmlschemas/GpxExtensions/v3" xmlns:rcxx="http://www.routeconverter.de/xmlschemas/RouteCatalogExtensions/1.0" xmlns:xsi="http://www.w3.org/2001/XMLSchema-instance" xmlns:gpxtpx="http://www.garmin.com/xmlschemas/TrackPointExtension/v1" xmlns:gpxx="http://www.garmin.com/xmlschemas/WaypointExtension/v1" xmlns:nmea="http://trekbuddy.net/2009/01/gpx/nmea" creator="Generated by Christian Pesch's RouteConverter. See http://www.routeconverter.com" version="1.1">
    <trk>
        <name>A - San Isidro</name>
        <desc>&lt;a href=&quot;http://www.masmapas.com/colectivo-168-san-isidro-plaza-once-congreso-chacarita-constitucion-la-boca&quot;&gt;Mas info sobre la linea de colectivos 168 (Colectivo 168 - San Isidro - Plaza Once - Congreso - Chacarita - Constitucion - La Boca )&lt;/a&gt;</desc>
        <trkseg>
            <trkpt lon="-58.357990980148315" lat="-34.6339494401276">
                <ele>0.0</ele>
                <name>Necochea</name>
            </trkpt>
            <trkpt lon="-58.35945010185242" lat="-34.63142468415817">
                <ele>0.0</ele>
                <name>Necochea</name>
            </trkpt>
            <trkpt lon="-58.36319446563721" lat="-34.628970477085865">
                <ele>0.0</ele>
                <name>Espinosa</name>
            </trkpt>
            <trkpt lon="-58.36405277252197" lat="-34.62983563750488">
                <ele>0.0</ele>
                <name>Av. Almirante Brown</name>
            </trkpt>
            <trkpt lon="-58.368237018585205" lat="-34.627169501970386">
                <ele>0.0</ele>
                <name>Av. Martín García</name>
            </trkpt>
            <trkpt lon="-58.375403881073" lat="-34.63428489143119">
                <ele>0.0</ele>
                <name>Av. Montes de Oca</name>
            </trkpt>
            <trkpt lon="-58.3773136138916" lat="-34.62971204371168">
                <ele>26.0</ele>
                <time>2011-09-05T23:22:25.280Z</time>
                <name>Bernardo de Irigoyen</name>
            </trkpt>
            <trkpt lon="-58.37905168533325" lat="-34.62589820188122">
                <ele>0.0</ele>
                <name>Av. Juan de Garay</name>
            </trkpt>
            <trkpt lon="-58.380231857299805" lat="-34.626286656752846">
                <ele>0.0</ele>
                <name>Lima Este</name>
            </trkpt>
            <trkpt lon="-58.37982416152954" lat="-34.627293099551224">
                <ele>0.0</ele>
                <name>Av. Brasil</name>
            </trkpt>
            <trkpt lon="-58.38218450546265" lat="-34.62734606988665">
                <ele>0.0</ele>
                <name>Lima Oeste</name>
            </trkpt>
            <trkpt lon="-58.38233470916748" lat="-34.624644539663095">
                <ele>0.0</ele>
                <name>Constitución</name>
            </trkpt>
            <trkpt lon="-58.387227058410645" lat="-34.62483877026077">
                <ele>0.0</ele>
                <name>Sáenz Pena</name>
            </trkpt>
            <trkpt lon="-58.387484550476074" lat="-34.6123364556624">
                <ele>0.0</ele>
                <name>Moreno</name>
            </trkpt>
            <trkpt lon="-58.40426445007324" lat="-34.613378387141736">
                <ele>0.0</ele>
                <name>Misiones</name>
            </trkpt>
            <trkpt lon="-58.40475797653198" lat="-34.60762111072642">
                <ele>0.0</ele>
                <name>Tte. Gral. Perón</name>
            </trkpt>
            <trkpt lon="-58.40909242630005" lat="-34.607868363930336">
                <ele>0.0</ele>
                <name>Ecuador</name>
            </trkpt>
            <trkpt lon="-58.40879201889038" lat="-34.60663209054798">
                <ele>0.0</ele>
                <name>Sarmiento</name>
            </trkpt>
            <trkpt lon="-58.409950733184814" lat="-34.60673805755915">
                <ele>0.0</ele>
                <name>Sarmiento</name>
            </trkpt>
            <trkpt lon="-58.41705322265625" lat="-34.60548410592567">
                <ele>34.0</ele>
                <time>2011-09-05T23:24:13.785Z</time>
                <name>Sarmiento</name>
            </trkpt>
            <trkpt lon="-58.42432737350464" lat="-34.60447739865728">
                <ele>0.0</ele>
                <name>Gascon</name>
            </trkpt>
            <trkpt lon="-58.42329740524292" lat="-34.597642063434044">
                <ele>0.0</ele>
                <name>Av. Córdoba</name>
            </trkpt>
            <trkpt lon="-58.42703104019165" lat="-34.59614068706819">
                <ele>0.0</ele>
                <name>Av. Córdoba</name>
            </trkpt>
            <trkpt lon="-58.4447979927063" lat="-34.584482017807204">
                <ele>0.0</ele>
                <name>Av. Córdoba</name>
            </trkpt>
            <trkpt lon="-58.451600074768066" lat="-34.58158476138906">
                <ele>0.0</ele>
                <name>Av. Lacroze</name>
            </trkpt>
            <trkpt lon="-58.448896408081055" lat="-34.57704434543639">
                <ele>0.0</ele>
                <name>Freire</name>
            </trkpt>
            <trkpt lon="-58.45269441604614" lat="-34.575277579594406">
                <ele>0.0</ele>
                <name>Freire</name>
            </trkpt>
            <trkpt lon="-58.45876693725586" lat="-34.572026632337256">
                <ele>0.0</ele>
                <name>Av. Elcano</name>
            </trkpt>
            <trkpt lon="-58.45750093460083" lat="-34.56909360345331">
                <ele>0.0</ele>
                <name>Virrey del Pino</name>
            </trkpt>
            <trkpt lon="-58.452308177948" lat="-34.56607212214245">
                <ele>0.0</ele>
                <name>Av. Cabildo</name>
            </trkpt>
            <trkpt lon="-58.45423936843872" lat="-34.56488823695742">
                <ele>0.0</ele>
                <name>Av. Cabildo</name>
            </trkpt>
            <trkpt lon="-58.465096950531006" lat="-34.55280104187223">
                <ele>0.0</ele>
                <name>Av. Cabildo</name>
            </trkpt>
            <trkpt lon="-58.475632667541504" lat="-34.539015255102505">
                <ele>0.0</ele>
                <name>Av. Maipú</name>
            </trkpt>
            <trkpt lon="-58.483593463897705" lat="-34.523848252356544">
                <ele>0.0</ele>
                <name>Av. San Martín</name>
            </trkpt>
            <trkpt lon="-58.47453832626343" lat="-34.519746676910884">
                <ele>0.0</ele>
                <name>Av. Del Libertador</name>
            </trkpt>
            <trkpt lon="-58.48166227340698" lat="-34.5026133445578">
                <ele>0.0</ele>
                <name>Av. Del Libertador</name>
            </trkpt>
            <trkpt lon="-58.48419427871704" lat="-34.49826314536169">
                <ele>0.0</ele>
                <name>Av. Del Libertador</name>
            </trkpt>
            <trkpt lon="-58.48443031311035" lat="-34.49184353437278">
                <ele>0.0</ele>
                <name>Av. Del Libertador</name>
            </trkpt>
            <trkpt lon="-58.48580360412598" lat="-34.48701523685307">
                <ele>0.0</ele>
                <name>Av. Del Libertador</name>
            </trkpt>
            <trkpt lon="-58.493614196777344" lat="-34.47917971238006">
                <ele>0.0</ele>
                <name>Av. Del Libertador</name>
            </trkpt>
            <trkpt lon="-58.49919319152832" lat="-34.47615496768533">
                <ele>29.0</ele>
                <time>2011-09-05T23:27:52.516Z</time>
                <name>Av. Del Libertador</name>
            </trkpt>
            <trkpt lon="-58.50590944290161" lat="-34.47185645765192">
                <ele>0.0</ele>
                <name>Av. Del Libertador</name>
            </trkpt>
            <trkpt lon="-58.50837707519531" lat="-34.4695921328797">
                <ele>0.0</ele>
                <name>Av. Del Libertador</name>
            </trkpt>
            <trkpt lon="-58.50936412811279" lat="-34.46732774667371">
                <ele>0.0</ele>
                <name>Av. Del Libertador</name>
            </trkpt>
            <trkpt lon="-58.51093053817749" lat="-34.46662011338592">
                <ele>0.0</ele>
                <name>Almirante Brown</name>
            </trkpt>
            <trkpt lon="-58.51050138473511" lat="-34.46531097598829">
                <ele>0.0</ele>
                <name>de La Salle</name>
            </trkpt>
            <trkpt lon="-58.51093053817749" lat="-34.465010225307566">
                <ele>0.0</ele>
                <name>Primera Junta</name>
            </trkpt>
            <trkpt lon="-58.50848436355591" lat="-34.4623034204209">
                <ele>0.0</ele>
                <name>Primera Junta</name>
            </trkpt>
            <trkpt lon="-58.50687503814697" lat="-34.46104729160697">
                <ele>0.0</ele>
                <name>Primera Junta</name>
            </trkpt>
        </trkseg>
    </trk>
    <trk>
        <name>A - La Boca</name>
        <desc>&lt;a href=&quot;http://www.masmapas.com/colectivo-168-san-isidro-plaza-once-congreso-chacarita-constitucion-la-boca&quot;&gt;Mas info sobre la linea de colectivos 168 (Colectivo 168 - San Isidro - Plaza Once - Congreso - Chacarita - Constitucion - La Boca )&lt;/a&gt;</desc>
        <trkseg>
            <trkpt lon="-58.50698232650757" lat="-34.46111805992985">
                <ele>0.0</ele>
                <name>Primera Junta</name>
            </trkpt>
            <trkpt lon="-58.50848436355591" lat="-34.46244495487715">
                <ele>0.0</ele>
                <name>Primera Junta</name>
            </trkpt>
            <trkpt lon="-58.51095199584961" lat="-34.46509868150262">
                <ele>0.0</ele>
                <name>Primera Junta</name>
            </trkpt>
            <trkpt lon="-58.51788282394409" lat="-34.46868992386302">
                <ele>0.0</ele>
                <name>Av. Centenario</name>
            </trkpt>
            <trkpt lon="-58.51264715194702" lat="-34.47438606032661">
                <ele>0.0</ele>
                <name>Sáenz Pena</name>
            </trkpt>
            <trkpt lon="-58.50663900375366" lat="-34.4713080721338">
                <ele>0.0</ele>
                <name>Av. Del Libertador</name>
            </trkpt>
            <trkpt lon="-58.498055934906006" lat="-34.476986341189786">
                <ele>30.0</ele>
                <time>2011-09-05T23:31:01.228Z</time>
                <name>Av. Del Libertador</name>
            </trkpt>
            <trkpt lon="-58.49365711212158" lat="-34.47921508886224">
                <ele>0.0</ele>
                <name>Av. Del Libertador</name>
            </trkpt>
            <trkpt lon="-58.48576068878174" lat="-34.48708598315688">
                <ele>0.0</ele>
                <name>Av. Del Libertador</name>
            </trkpt>
            <trkpt lon="-58.48451614379883" lat="-34.49193196212357">
                <ele>0.0</ele>
                <name>Av. Del Libertador</name>
            </trkpt>
            <trkpt lon="-58.48419427871704" lat="-34.498882089992726">
                <ele>0.0</ele>
                <name>Av. Del Libertador</name>
            </trkpt>
            <trkpt lon="-58.48217725753784" lat="-34.50169380917719">
                <ele>0.0</ele>
                <name>Av. Del Libertador</name>
            </trkpt>
            <trkpt lon="-58.475890159606934" lat="-34.51652892033187">
                <ele>0.0</ele>
                <name>Pres. Yrigoyen</name>
            </trkpt>
            <trkpt lon="-58.485267162323" lat="-34.52101960124825">
                <ele>0.0</ele>
                <name>Av. Maipú</name>
            </trkpt>
            <trkpt lon="-58.47550392150879" lat="-34.539510169014584">
                <ele>0.0</ele>
                <name>Av. Cabildo</name>
            </trkpt>
            <trkpt lon="-58.46947431564331" lat="-34.54734002255969">
                <ele>0.0</ele>
                <name>Av. Cabildo</name>
            </trkpt>
            <trkpt lon="-58.46350908279419" lat="-34.55453294077406">
                <ele>0.0</ele>
                <name>Av. Cabildo</name>
            </trkpt>
            <trkpt lon="-58.45670700073242" lat="-34.56206098027648">
                <ele>0.0</ele>
                <name>Av. Cabildo</name>
            </trkpt>
            <trkpt lon="-58.453402519226074" lat="-34.5655950361102">
                <ele>0.0</ele>
                <name>José Fernández</name>
            </trkpt>
            <trkpt lon="-58.45750093460083" lat="-34.56801577768745">
                <ele>0.0</ele>
                <name>Av. Elcano</name>
            </trkpt>
            <trkpt lon="-58.4576940536499" lat="-34.569606007524214">
                <ele>0.0</ele>
                <name>Av. Los Incas</name>
            </trkpt>
            <trkpt lon="-58.45876693725586" lat="-34.57059546851819">
                <ele>0.0</ele>
                <name>Zapiola</name>
            </trkpt>
            <trkpt lon="-58.448402881622314" lat="-34.576037293508165">
                <ele>0.0</ele>
                <name>Av. Lacroze</name>
            </trkpt>
            <trkpt lon="-58.44992637634277" lat="-34.57893474330247">
                <ele>0.0</ele>
                <name>Martinez</name>
            </trkpt>
            <trkpt lon="-58.45108509063721" lat="-34.57842239672593">
                <ele>0.0</ele>
                <name>Garcia</name>
            </trkpt>
            <trkpt lon="-58.45202922821045" lat="-34.58013609530446">
                <ele>0.0</ele>
                <name>Av. Álvarez Thomas</name>
            </trkpt>
            <trkpt lon="-58.44449758529663" lat="-34.58313939934193">
                <ele>0.0</ele>
                <name>Niceto Vega</name>
            </trkpt>
            <trkpt lon="-58.429176807403564" lat="-34.593720764514785">
                <ele>0.0</ele>
                <name>Av. Scalabrini Ortiz</name>
            </trkpt>
            <trkpt lon="-58.42803955078125" lat="-34.59292588406223">
                <ele>0.0</ele>
                <name>Cabrera</name>
            </trkpt>
            <trkpt lon="-58.42531442642212" lat="-34.594851248058035">
                <ele>0.0</ele>
                <name>Cabrera</name>
            </trkpt>
            <trkpt lon="-58.42475652694702" lat="-34.595575455993384">
                <ele>0.0</ele>
                <name>Pringles</name>
            </trkpt>
            <trkpt lon="-58.42625856399536" lat="-34.596476291199096">
                <ele>0.0</ele>
                <name>Pringles</name>
            </trkpt>
            <trkpt lon="-58.427138328552246" lat="-34.602569919837514">
                <ele>0.0</ele>
                <name>Av. Corrientes</name>
            </trkpt>
            <trkpt lon="-58.41675281524658" lat="-34.603576650229996">
                <ele>0.0</ele>
                <name>Av. Corrientes</name>
            </trkpt>
            <trkpt lon="-58.41325521469116" lat="-34.60417715026711">
                <ele>0.0</ele>
                <name>Av. Corrientes</name>
            </trkpt>
            <trkpt lon="-58.41025114059448" lat="-34.60392988607183">
                <ele>0.0</ele>
                <name>Av. Corrientes</name>
            </trkpt>
            <trkpt lon="-58.40548753738403" lat="-34.604565706800734">
                <ele>0.0</ele>
                <name>Av. Pueyrredón</name>
            </trkpt>
            <trkpt lon="-58.40613126754761" lat="-34.6077270764754">
                <ele>0.0</ele>
                <name>Av. Pueyrredón</name>
            </trkpt>
            <trkpt lon="-58.40604543685913" lat="-34.61012893051206">
                <ele>0.0</ele>
                <name>Av. Jujuy</name>
            </trkpt>
            <trkpt lon="-58.40557336807251" lat="-34.61242475544747">
                <ele>0.0</ele>
                <name>Adolfo Alsina</name>
            </trkpt>
            <trkpt lon="-58.39038133621216" lat="-34.6114181323301">
                <ele>0.0</ele>
                <name>Solís</name>
            </trkpt>
            <trkpt lon="-58.39033842086792" lat="-34.61804042883712">
                <ele>0.0</ele>
                <name>Solís</name>
            </trkpt>
            <trkpt lon="-58.38960886001587" lat="-34.62619837171444">
                <ele>0.0</ele>
                <name>Pavón</name>
            </trkpt>
            <trkpt lon="-58.38578939437866" lat="-34.626163057672784">
                <ele>0.0</ele>
                <name>San José</name>
            </trkpt>
            <trkpt lon="-58.385725021362305" lat="-34.628405469493394">
                <ele>0.0</ele>
                <name>Av. Brasil</name>
            </trkpt>
            <trkpt lon="-58.38289260864258" lat="-34.627822801383665">
                <ele>0.0</ele>
                <name>Av. Brasil</name>
            </trkpt>
            <trkpt lon="-58.37965250015259" lat="-34.62778748803338">
                <ele>0.0</ele>
                <name>Hornos</name>
            </trkpt>
            <trkpt lon="-58.37909460067749" lat="-34.629288292165704">
                <ele>0.0</ele>
                <name>Av. Caseros</name>
            </trkpt>
            <trkpt lon="-58.37666988372803" lat="-34.62784045805317">
                <ele>0.0</ele>
                <name>Tacuarí</name>
            </trkpt>
            <trkpt lon="-58.37433099746704" lat="-34.63040063535762">
                <ele>0.0</ele>
                <name>Tacuarí</name>
            </trkpt>
            <trkpt lon="-58.37261438369751" lat="-34.63145999596032">
                <ele>0.0</ele>
                <name>Av. Martín García</name>
            </trkpt>
            <trkpt lon="-58.368237018585205" lat="-34.62720481558369">
                <ele>0.0</ele>
                <name>Av. Almirante Brown</name>
            </trkpt>
            <trkpt lon="-58.3634090423584" lat="-34.63038297923296">
                <ele>0.0</ele>
                <name>20 de Septiembre</name>
            </trkpt>
            <trkpt lon="-58.36160659790039" lat="-34.628670317281454">
                <ele>0.0</ele>
                <name>Brin</name>
            </trkpt>
            <trkpt lon="-58.35795879364014" lat="-34.630877349302885">
                <ele>0.0</ele>
                <name>Brin</name>
            </trkpt>
            <trkpt lon="-58.35654258728027" lat="-34.633331499964584">
                <ele>0.0</ele>
                <name>Brin</name>
            </trkpt>
        </trkseg>
    </trk>
    <trk>
        <name>D - Villa Devoto</name>
        <desc>&lt;a href=&quot;http://www.masmapas.com/colectivo-168-san-isidro-plaza-once-congreso-chacarita-constitucion-la-boca&quot;&gt;Mas info sobre la linea de colectivos 168 (Colectivo 168 - San Isidro - Plaza Once - Congreso - Chacarita - Constitucion - La Boca )&lt;/a&gt;</desc>
        <trkseg>
            <trkpt lon="-58.378944396972656" lat="-34.6291911821316">
                <ele>0.0</ele>
                <name>Hornos</name>
            </trkpt>
            <trkpt lon="-58.37954521179199" lat="-34.62767271954115">
                <ele>0.0</ele>
                <name>Av. Brasil</name>
            </trkpt>
            <trkpt lon="-58.378493785858154" lat="-34.627425525326366">
                <ele>22.0</ele>
                <time>2011-09-05T23:49:21.460Z</time>
                <name>Bernardo de Irigoyen</name>
            </trkpt>
            <trkpt lon="-58.37892293930054" lat="-34.62594234457186">
                <ele>0.0</ele>
                <name>Av. Juan de Garay</name>
            </trkpt>
            <trkpt lon="-58.3803391456604" lat="-34.626427912618915">
                <ele>20.0</ele>
                <time>2011-09-05T23:49:40.172Z</time>
                <name>Lima Este</name>
            </trkpt>
            <trkpt lon="-58.37989926338196" lat="-34.6273019279428">
                <ele>21.0</ele>
                <time>2011-09-05T23:49:40.172Z</time>
                <name>Av. Brasil</name>
            </trkpt>
            <trkpt lon="-58.38218450546265" lat="-34.627390211807">
                <ele>21.0</ele>
                <time>2011-09-05T23:49:40.172Z</time>
                <name>Lima Oeste</name>
            </trkpt>
            <trkpt lon="-58.38227033615112" lat="-34.624688683020665">
                <ele>0.0</ele>
                <name>Constitucion</name>
            </trkpt>
            <trkpt lon="-58.38441610336304" lat="-34.624688683020665">
                <ele>27.0</ele>
                <time>2011-09-05T23:50:23.425Z</time>
                <name>Santiago del Estero</name>
            </trkpt>
            <trkpt lon="-58.38435173034668" lat="-34.62692230625636">
                <ele>29.0</ele>
                <time>2011-09-05T23:50:23.425Z</time>
                <name>Av. Juan de Garay</name>
            </trkpt>
            <trkpt lon="-58.391196727752686" lat="-34.62721364398468">
                <ele>0.0</ele>
                <name>Av. Entre Rios</name>
            </trkpt>
            <trkpt lon="-58.39151859283447" lat="-34.62271986644028">
                <ele>0.0</ele>
                <name>Av. Entre Rios</name>
            </trkpt>
            <trkpt lon="-58.39184045791626" lat="-34.610234893060415">
                <ele>36.0</ele>
                <time>2011-09-05T23:51:20.662Z</time>
                <name>:2way:Yrigoyen</name>
            </trkpt>
            <trkpt lon="-58.38754892349243" lat="-34.609987646903875">
                <ele>39.0</ele>
                <time>2011-09-05T23:51:20.662Z</time>
                <name>Sáenz Pena</name>
            </trkpt>
            <trkpt lon="-58.38726997375488" lat="-34.609493152381894">
                <ele>34.0</ele>
                <time>2011-09-05T23:51:20.662Z</time>
                <name>Av. de Mayo</name>
            </trkpt>
            <trkpt lon="-58.388471603393555" lat="-34.60905163692706">
                <ele>35.0</ele>
                <time>2011-09-05T23:51:20.662Z</time>
                <name>Av. Rivadavia</name>
            </trkpt>
            <trkpt lon="-58.39201211929321" lat="-34.60913994020587">
                <ele>0.0</ele>
                <name>Av. Rivadavia</name>
            </trkpt>
            <trkpt lon="-58.41973543167114" lat="-34.61110024880987">
                <ele>0.0</ele>
                <name>Jeronimo Salguero</name>
            </trkpt>
            <trkpt lon="-58.42012166976929" lat="-34.60852181528208">
                <ele>0.0</ele>
                <name>Jeronimo Salguero</name>
            </trkpt>
            <trkpt lon="-58.419156074523926" lat="-34.6008213590973">
                <ele>0.0</ele>
                <name>Guardia Vieja</name>
            </trkpt>
            <trkpt lon="-58.43024969100952" lat="-34.599708619458355">
                <ele>0.0</ele>
                <name>Av. Estado de Israel</name>
            </trkpt>
            <trkpt lon="-58.43185901641846" lat="-34.60163382624231">
                <ele>0.0</ele>
                <name>Aguirre</name>
            </trkpt>
            <trkpt lon="-58.43406915664673" lat="-34.59939069110899">
                <ele>0.0</ele>
                <name>Julian Alvarez</name>
            </trkpt>
            <trkpt lon="-58.435163497924805" lat="-34.60002654659073">
                <ele>0.0</ele>
                <name>de Velasco</name>
            </trkpt>
            <trkpt lon="-58.443381786346436" lat="-34.591283107026065">
                <ele>14.0</ele>
                <time>2011-09-05T23:53:19.151Z</time>
                <name>de Velasco</name>
            </trkpt>
            <trkpt lon="-58.44599962234497" lat="-34.58868639320219">
                <ele>0.0</ele>
                <name>Guevara</name>
            </trkpt>
            <trkpt lon="-58.45181465148926" lat="-34.58628391902449">
                <ele>0.0</ele>
                <name>Maure</name>
            </trkpt>
            <trkpt lon="-58.45256567001343" lat="-34.58782080389308">
                <ele>0.0</ele>
                <name>Av. Corrientes</name>
            </trkpt>
            <trkpt lon="-58.45507621765137" lat="-34.586955205566916">
                <ele>0.0</ele>
                <name>Av. Lacroze</name>
            </trkpt>
            <trkpt lon="-58.4522008895874" lat="-34.58245041565553">
                <ele>0.0</ele>
                <name>Charlone</name>
            </trkpt>
            <trkpt lon="-58.45121383666992" lat="-34.582892072521936">
                <ele>0.0</ele>
                <name>Olleros</name>
            </trkpt>
            <trkpt lon="-58.44994783401489" lat="-34.58086043150301">
                <ele>0.0</ele>
                <name>Av. Álvarez Thomas</name>
            </trkpt>
            <trkpt lon="-58.45720052719116" lat="-34.57844006390182">
                <ele>0.0</ele>
                <name>Av. Álvarez Thomas</name>
            </trkpt>
            <trkpt lon="-58.46029043197632" lat="-34.57821039032222">
                <ele>0.0</ele>
                <name>Av. Álvarez Thomas</name>
            </trkpt>
            <trkpt lon="-58.46331596374512" lat="-34.5782457247604">
                <ele>0.0</ele>
                <name>Av. Álvarez Thomas</name>
            </trkpt>
            <trkpt lon="-58.46672773361206" lat="-34.57905841269262">
                <ele>0.0</ele>
                <name>Av. Álvarez Thomas</name>
            </trkpt>
            <trkpt lon="-58.47565412521362" lat="-34.5771856850816">
                <ele>0.0</ele>
                <name>Av. Álvarez Thomas</name>
            </trkpt>
            <trkpt lon="-58.48245620727539" lat="-34.57200896379832">
                <ele>0.0</ele>
                <name>Av. Monroe</name>
            </trkpt>
            <trkpt lon="-58.49528789520264" lat="-34.579500087584">
                <ele>29.0</ele>
                <time>2011-09-05T23:55:42.166Z</time>
                <name>Griveo</name>
            </trkpt>
            <trkpt lon="-58.49565267562866" lat="-34.57951775453085">
                <ele>27.0</ele>
                <time>2011-09-05T23:55:42.166Z</time>
                <name>Griveo</name>
            </trkpt>
            <trkpt lon="-58.500330448150635" lat="-34.58241508300482">
                <ele>0.0</ele>
                <name>Bolivia</name>
            </trkpt>
            <trkpt lon="-58.50187540054321" lat="-34.58082509817637">
                <ele>0.0</ele>
                <name>Cabezón</name>
            </trkpt>
            <trkpt lon="-58.5166597366333" lat="-34.589922933716">
                <ele>0.0</ele>
                <name>Av. San Martín</name>
            </trkpt>
            <trkpt lon="-58.518269062042236" lat="-34.58949897904151">
                <ele>0.0</ele>
                <name>Av. San Martín</name>
            </trkpt>
        </trkseg>
    </trk>
    <trk>
        <name>D - Estación Constitución</name>
        <desc>&lt;a href=&quot;http://www.masmapas.com/colectivo-168-san-isidro-plaza-once-congreso-chacarita-constitucion-la-boca&quot;&gt;Mas info sobre la linea de colectivos 168 (Colectivo 168 - San Isidro - Plaza Once - Congreso - Chacarita - Constitucion - La Boca )&lt;/a&gt;</desc>
        <trkseg>
            <trkpt lon="-58.51834416389465" lat="-34.58957847070775">
                <ele>0.0</ele>
                <name>Av. San Martín</name>
            </trkpt>
            <trkpt lon="-58.516777753829956" lat="-34.58994943081132">
                <ele>0.0</ele>
                <name>Cabezón</name>
            </trkpt>
            <trkpt lon="-58.5171103477478" lat="-34.59024089830222">
                <ele>0.0</ele>
                <name>Gonzalez</name>
            </trkpt>
            <trkpt lon="-58.51638078689575" lat="-34.59104463669187">
                <ele>0.0</ele>
                <name>Ladines</name>
            </trkpt>
            <trkpt lon="-58.50001931190491" lat="-34.58093993143305">
                <ele>0.0</ele>
                <name>Artigas</name>
            </trkpt>
            <trkpt lon="-58.49772334098816" lat="-34.583528054286234">
                <ele>0.0</ele>
                <name>Av. Mosconi</name>
            </trkpt>
            <trkpt lon="-58.49350690841675" lat="-34.580895764814635">
                <ele>31.0</ele>
                <time>2011-09-05T23:58:53.912Z</time>
                <name>Av. Olazabal</name>
            </trkpt>
            <trkpt lon="-58.484323024749756" lat="-34.57556026465245">
                <ele>0.0</ele>
                <name>Av. Triunvirato</name>
            </trkpt>
            <trkpt lon="-58.47904443740845" lat="-34.5791114138035">
                <ele>0.0</ele>
                <name>La Pampa</name>
            </trkpt>
            <trkpt lon="-58.47277879714966" lat="-34.57561326799383">
                <ele>0.0</ele>
                <name>Donado</name>
            </trkpt>
            <trkpt lon="-58.47051501274109" lat="-34.57828105918353">
                <ele>0.0</ele>
                <name>Donado</name>
            </trkpt>
            <trkpt lon="-58.470879793167114" lat="-34.5783605615807">
                <ele>0.0</ele>
                <name>Donado</name>
            </trkpt>
            <trkpt lon="-58.470890522003174" lat="-34.58046293071218">
                <ele>0.0</ele>
                <name>Charlone</name>
            </trkpt>
            <trkpt lon="-58.459153175354004" lat="-34.58077209815823">
                <ele>0.0</ele>
                <name>Virrey Loreto</name>
            </trkpt>
            <trkpt lon="-58.45853090286255" lat="-34.57835172798477">
                <ele>0.0</ele>
                <name>Av. Álvarez Thomas</name>
            </trkpt>
            <trkpt lon="-58.4572434425354" lat="-34.57858140117384">
                <ele>0.0</ele>
                <name>Av. Álvarez Thomas</name>
            </trkpt>
            <trkpt lon="-58.45095634460449" lat="-34.58050709756059">
                <ele>0.0</ele>
                <name>Av. Lacroze</name>
            </trkpt>
            <trkpt lon="-58.455398082733154" lat="-34.58732617738226">
                <ele>0.0</ele>
                <name>Av. Corrientes</name>
            </trkpt>
            <trkpt lon="-58.45069885253906" lat="-34.58884537801345">
                <ele>0.0</ele>
                <name>Av. Corrientes</name>
            </trkpt>
            <trkpt lon="-58.43883275985718" lat="-34.59992057101516">
                <ele>0.0</ele>
                <name>Av. Corrientes</name>
            </trkpt>
            <trkpt lon="-58.432159423828125" lat="-34.60211070543002">
                <ele>0.0</ele>
                <name>Av. Corrientes</name>
            </trkpt>
            <trkpt lon="-58.42100143432617" lat="-34.60317042715438">
                <ele>0.0</ele>
                <name>Av. Medrano</name>
            </trkpt>
            <trkpt lon="-58.42155933380127" lat="-34.608574797598735">
                <ele>0.0</ele>
                <name>Av. Medrano</name>
            </trkpt>
            <trkpt lon="-58.4212589263916" lat="-34.609952325964265">
                <ele>0.0</ele>
                <name>Bartolomé Mitre</name>
            </trkpt>
            <trkpt lon="-58.41997146606445" lat="-34.6096874184382">
                <ele>0.0</ele>
                <name>Bartolomé Mitre</name>
            </trkpt>
            <trkpt lon="-58.393492698669434" lat="-34.60808029466195">
                <ele>0.0</ele>
                <name>Combate de Los Pozos</name>
            </trkpt>
            <trkpt lon="-58.39312791824341" lat="-34.621572104280084">
                <ele>0.0</ele>
                <name>Combate de Los Pozos</name>
            </trkpt>
            <trkpt lon="-58.392226696014404" lat="-34.62725778597549">
                <ele>0.0</ele>
                <name>Av. Juan de Garay</name>
            </trkpt>
            <trkpt lon="-58.38227033615112" lat="-34.6269399631175">
                <ele>0.0</ele>
                <name>Lima Oeste</name>
            </trkpt>
            <trkpt lon="-58.38218450546265" lat="-34.627610921056494">
                <ele>0.0</ele>
                <name>Av. Brasil</name>
            </trkpt>
            <trkpt lon="-58.38008165359497" lat="-34.62759326433814">
                <ele>0.0</ele>
                <name>Av. Brasil</name>
            </trkpt>
        </trkseg>
    </trk>
    <trk>
        <name>XshortX B - Puente Saavedra por Av. Córdoba</name>
        <trkseg>
            <trkpt lon="-58.357990980148315" lat="-34.6339494401276">
                <ele>0.0</ele>
                <name>Necochea</name>
            </trkpt>
            <trkpt lon="-58.35945010185242" lat="-34.63142468415817">
                <ele>0.0</ele>
                <name>Necochea</name>
            </trkpt>
            <trkpt lon="-58.36319446563721" lat="-34.628970477085865">
                <ele>0.0</ele>
                <name>Espinosa</name>
            </trkpt>
            <trkpt lon="-58.36405277252197" lat="-34.62983563750488">
                <ele>0.0</ele>
                <name>Av. Almirante Brown</name>
            </trkpt>
            <trkpt lon="-58.368237018585205" lat="-34.627169501970386">
                <ele>0.0</ele>
                <name>Av. Martín García</name>
            </trkpt>
            <trkpt lon="-58.375403881073" lat="-34.63428489143119">
                <ele>0.0</ele>
                <name>Av. Montes de Oca</name>
            </trkpt>
            <trkpt lon="-58.3773136138916" lat="-34.62971204371168">
                <ele>26.0</ele>
                <time>2011-09-05T23:22:25.280Z</time>
                <name>Bernardo de Irigoyen</name>
            </trkpt>
            <trkpt lon="-58.37905168533325" lat="-34.62589820188122">
                <ele>0.0</ele>
                <name>Av. Juan de Garay</name>
            </trkpt>
            <trkpt lon="-58.380231857299805" lat="-34.626286656752846">
                <ele>0.0</ele>
                <name>Lima Este</name>
            </trkpt>
            <trkpt lon="-58.37982416152954" lat="-34.627293099551224">
                <ele>0.0</ele>
                <name>Av. Brasil</name>
            </trkpt>
            <trkpt lon="-58.38218450546265" lat="-34.62734606988665">
                <ele>0.0</ele>
                <name>Lima Oeste</name>
            </trkpt>
            <trkpt lon="-58.38233470916748" lat="-34.624644539663095">
                <ele>0.0</ele>
                <name>Constitución</name>
            </trkpt>
            <trkpt lon="-58.387227058410645" lat="-34.62483877026077">
                <ele>0.0</ele>
                <name>Sáenz Pena</name>
            </trkpt>
            <trkpt lon="-58.387484550476074" lat="-34.6123364556624">
                <ele>0.0</ele>
                <name>Moreno</name>
            </trkpt>
            <trkpt lon="-58.40426445007324" lat="-34.613378387141736">
                <ele>0.0</ele>
                <name>Misiones</name>
            </trkpt>
            <trkpt lon="-58.40475797653198" lat="-34.60762111072642">
                <ele>0.0</ele>
                <name>Tte. Gral. Perón</name>
            </trkpt>
            <trkpt lon="-58.40909242630005" lat="-34.607868363930336">
                <ele>0.0</ele>
                <name>Ecuador</name>
            </trkpt>
            <trkpt lon="-58.40879201889038" lat="-34.60663209054798">
                <ele>0.0</ele>
                <name>Sarmiento</name>
            </trkpt>
            <trkpt lon="-58.409950733184814" lat="-34.60673805755915">
                <ele>0.0</ele>
                <name>Sarmiento</name>
            </trkpt>
            <trkpt lon="-58.41705322265625" lat="-34.60548410592567">
                <ele>34.0</ele>
                <time>2011-09-05T23:24:13.785Z</time>
                <name>Sarmiento</name>
            </trkpt>
            <trkpt lon="-58.42432737350464" lat="-34.60447739865728">
                <ele>0.0</ele>
                <name>Gascon</name>
            </trkpt>
            <trkpt lon="-58.42329740524292" lat="-34.597642063434044">
                <ele>0.0</ele>
                <name>Av. Córdoba</name>
            </trkpt>
            <trkpt lon="-58.42703104019165" lat="-34.59614068706819">
                <ele>0.0</ele>
                <name>Av. Córdoba</name>
            </trkpt>
            <trkpt lon="-58.4447979927063" lat="-34.584482017807204">
                <ele>0.0</ele>
                <name>Av. Córdoba</name>
            </trkpt>
            <trkpt lon="-58.451600074768066" lat="-34.58158476138906">
                <ele>0.0</ele>
                <name>Av. Lacroze</name>
            </trkpt>
            <trkpt lon="-58.448896408081055" lat="-34.57704434543639">
                <ele>0.0</ele>
                <name>Freire</name>
            </trkpt>
            <trkpt lon="-58.45269441604614" lat="-34.575277579594406">
                <ele>0.0</ele>
                <name>Freire</name>
            </trkpt>
            <trkpt lon="-58.45876693725586" lat="-34.572026632337256">
                <ele>0.0</ele>
                <name>Av. Elcano</name>
            </trkpt>
            <trkpt lon="-58.45750093460083" lat="-34.56909360345331">
                <ele>0.0</ele>
                <name>Virrey del Pino</name>
            </trkpt>
            <trkpt lon="-58.452308177948" lat="-34.56607212214245">
                <ele>0.0</ele>
                <name>Av. Cabildo</name>
            </trkpt>
            <trkpt lon="-58.45423936843872" lat="-34.56488823695742">
                <ele>0.0</ele>
                <name>Av. Cabildo</name>
            </trkpt>
            <trkpt lon="-58.465096950531006" lat="-34.55280104187223">
                <ele>0.0</ele>
                <name>Av. Cabildo</name>
            </trkpt>
            <trkpt lon="-58.475632667541504" lat="-34.539015255102505">
                <ele>0.0</ele>
                <name>Av. Maipú</name>
            </trkpt>
            <trkpt lon="-58.47668409347534" lat="-34.53712394983185">
                <ele>0.0</ele>
                <name>Av. Maipú</name>
            </trkpt>
        </trkseg>
    </trk>
    <trk>
        <name>XshortX B - La Boca por Av. Córdoba</name>
        <trkseg>
            <trkpt lon="-58.47679138183594" lat="-34.537212329539855">
                <ele>0.0</ele>
                <name>Av. Maipú</name>
            </trkpt>
            <trkpt lon="-58.47550392150879" lat="-34.539510169014584">
                <ele>0.0</ele>
                <name>Av. Cabildo</name>
            </trkpt>
            <trkpt lon="-58.46947431564331" lat="-34.54734002255969">
                <ele>0.0</ele>
                <name>Av. Cabildo</name>
            </trkpt>
            <trkpt lon="-58.46350908279419" lat="-34.55453294077406">
                <ele>0.0</ele>
                <name>Av. Cabildo</name>
            </trkpt>
            <trkpt lon="-58.45670700073242" lat="-34.56206098027648">
                <ele>0.0</ele>
                <name>Av. Cabildo</name>
            </trkpt>
            <trkpt lon="-58.453402519226074" lat="-34.5655950361102">
                <ele>0.0</ele>
                <name>José Fernández</name>
            </trkpt>
            <trkpt lon="-58.45750093460083" lat="-34.56801577768745">
                <ele>0.0</ele>
                <name>Av. Elcano</name>
            </trkpt>
            <trkpt lon="-58.4576940536499" lat="-34.569606007524214">
                <ele>0.0</ele>
                <name>Av. Los Incas</name>
            </trkpt>
            <trkpt lon="-58.45876693725586" lat="-34.57059546851819">
                <ele>0.0</ele>
                <name>Zapiola</name>
            </trkpt>
            <trkpt lon="-58.448402881622314" lat="-34.576037293508165">
                <ele>0.0</ele>
                <name>Av. Lacroze</name>
            </trkpt>
            <trkpt lon="-58.44992637634277" lat="-34.57893474330247">
                <ele>0.0</ele>
                <name>Martinez</name>
            </trkpt>
            <trkpt lon="-58.45108509063721" lat="-34.57842239672593">
                <ele>0.0</ele>
                <name>Garcia</name>
            </trkpt>
            <trkpt lon="-58.45202922821045" lat="-34.58013609530446">
                <ele>0.0</ele>
                <name>Av. Álvarez Thomas</name>
            </trkpt>
            <trkpt lon="-58.44449758529663" lat="-34.58313939934193">
                <ele>0.0</ele>
                <name>Niceto Vega</name>
            </trkpt>
            <trkpt lon="-58.429176807403564" lat="-34.593720764514785">
                <ele>0.0</ele>
                <name>Av. Scalabrini Ortiz</name>
            </trkpt>
            <trkpt lon="-58.42803955078125" lat="-34.59292588406223">
                <ele>0.0</ele>
                <name>Cabrera</name>
            </trkpt>
            <trkpt lon="-58.42531442642212" lat="-34.594851248058035">
                <ele>0.0</ele>
                <name>Cabrera</name>
            </trkpt>
            <trkpt lon="-58.42475652694702" lat="-34.595575455993384">
                <ele>0.0</ele>
                <name>Pringles</name>
            </trkpt>
            <trkpt lon="-58.42625856399536" lat="-34.596476291199096">
                <ele>0.0</ele>
                <name>Pringles</name>
            </trkpt>
            <trkpt lon="-58.427138328552246" lat="-34.602569919837514">
                <ele>0.0</ele>
                <name>Av. Corrientes</name>
            </trkpt>
            <trkpt lon="-58.41675281524658" lat="-34.603576650229996">
                <ele>0.0</ele>
                <name>Av. Corrientes</name>
            </trkpt>
            <trkpt lon="-58.41325521469116" lat="-34.60417715026711">
                <ele>0.0</ele>
                <name>Av. Corrientes</name>
            </trkpt>
            <trkpt lon="-58.41025114059448" lat="-34.60392988607183">
                <ele>0.0</ele>
                <name>Av. Corrientes</name>
            </trkpt>
            <trkpt lon="-58.40548753738403" lat="-34.604565706800734">
                <ele>0.0</ele>
                <name>Av. Pueyrredón</name>
            </trkpt>
            <trkpt lon="-58.40613126754761" lat="-34.6077270764754">
                <ele>0.0</ele>
                <name>Av. Pueyrredón</name>
            </trkpt>
            <trkpt lon="-58.40604543685913" lat="-34.61012893051206">
                <ele>0.0</ele>
                <name>Av. Jujuy</name>
            </trkpt>
            <trkpt lon="-58.40557336807251" lat="-34.61242475544747">
                <ele>0.0</ele>
                <name>Adolfo Alsina</name>
            </trkpt>
            <trkpt lon="-58.39038133621216" lat="-34.6114181323301">
                <ele>0.0</ele>
                <name>Solís</name>
            </trkpt>
            <trkpt lon="-58.39033842086792" lat="-34.61804042883712">
                <ele>0.0</ele>
                <name>Solís</name>
            </trkpt>
            <trkpt lon="-58.38960886001587" lat="-34.62619837171444">
                <ele>0.0</ele>
                <name>Pavón</name>
            </trkpt>
            <trkpt lon="-58.38578939437866" lat="-34.626163057672784">
                <ele>0.0</ele>
                <name>San José</name>
            </trkpt>
            <trkpt lon="-58.385725021362305" lat="-34.628405469493394">
                <ele>0.0</ele>
                <name>Av. Brasil</name>
            </trkpt>
            <trkpt lon="-58.38289260864258" lat="-34.627822801383665">
                <ele>0.0</ele>
                <name>Av. Brasil</name>
            </trkpt>
            <trkpt lon="-58.37965250015259" lat="-34.62778748803338">
                <ele>0.0</ele>
                <name>Hornos</name>
            </trkpt>
            <trkpt lon="-58.37909460067749" lat="-34.629288292165704">
                <ele>0.0</ele>
                <name>Av. Caseros</name>
            </trkpt>
            <trkpt lon="-58.37666988372803" lat="-34.62784045805317">
                <ele>0.0</ele>
                <name>Tacuarí</name>
            </trkpt>
            <trkpt lon="-58.37433099746704" lat="-34.63040063535762">
                <ele>0.0</ele>
                <name>Tacuarí</name>
            </trkpt>
            <trkpt lon="-58.37261438369751" lat="-34.63145999596032">
                <ele>0.0</ele>
                <name>Av. Martín García</name>
            </trkpt>
            <trkpt lon="-58.368237018585205" lat="-34.62720481558369">
                <ele>0.0</ele>
                <name>Av. Almirante Brown</name>
            </trkpt>
            <trkpt lon="-58.3634090423584" lat="-34.63038297923296">
                <ele>0.0</ele>
                <name>20 de Septiembre</name>
            </trkpt>
            <trkpt lon="-58.36160659790039" lat="-34.628670317281454">
                <ele>0.0</ele>
                <name>Brin</name>
            </trkpt>
            <trkpt lon="-58.35795879364014" lat="-34.630877349302885">
                <ele>0.0</ele>
                <name>Brin</name>
            </trkpt>
            <trkpt lon="-58.35654258728027" lat="-34.633331499964584">
                <ele>0.0</ele>
                <name>Brin</name>
            </trkpt>
        </trkseg>
    </trk>
    <trk>
        <name>C - Puente Saavedra por Concepcion Arenal</name>
        <trkseg>
            <trkpt lon="-58.357990980148315" lat="-34.6339494401276">
                <ele>0.0</ele>
                <name>Necochea</name>
            </trkpt>
            <trkpt lon="-58.35945010185242" lat="-34.63142468415817">
                <ele>0.0</ele>
                <name>Necochea</name>
            </trkpt>
            <trkpt lon="-58.36319446563721" lat="-34.628970477085865">
                <ele>0.0</ele>
                <name>Espinosa</name>
            </trkpt>
            <trkpt lon="-58.36405277252197" lat="-34.62983563750488">
                <ele>0.0</ele>
                <name>Av. Almirante Brown</name>
            </trkpt>
            <trkpt lon="-58.368237018585205" lat="-34.627169501970386">
                <ele>0.0</ele>
                <name>Av. Martín García</name>
            </trkpt>
            <trkpt lon="-58.375403881073" lat="-34.63428489143119">
                <ele>0.0</ele>
                <name>Av. Montes de Oca</name>
            </trkpt>
            <trkpt lon="-58.3773136138916" lat="-34.62971204371168">
                <ele>26.0</ele>
                <time>2011-09-05T23:22:25.280Z</time>
                <name>Bernardo de Irigoyen</name>
            </trkpt>
            <trkpt lon="-58.37905168533325" lat="-34.62589820188122">
                <ele>0.0</ele>
                <name>Av. Juan de Garay</name>
            </trkpt>
            <trkpt lon="-58.380231857299805" lat="-34.626286656752846">
                <ele>0.0</ele>
                <name>Lima Este</name>
            </trkpt>
            <trkpt lon="-58.37982416152954" lat="-34.627293099551224">
                <ele>0.0</ele>
                <name>Av. Brasil</name>
            </trkpt>
            <trkpt lon="-58.38218450546265" lat="-34.62734606988665">
                <ele>0.0</ele>
                <name>Lima Oeste</name>
            </trkpt>
            <trkpt lon="-58.38233470916748" lat="-34.624644539663095">
                <ele>0.0</ele>
                <name>Constitución</name>
            </trkpt>
            <trkpt lon="-58.387227058410645" lat="-34.62483877026077">
                <ele>0.0</ele>
                <name>Sáenz Pena</name>
            </trkpt>
            <trkpt lon="-58.387484550476074" lat="-34.6123364556624">
                <ele>0.0</ele>
                <name>Moreno</name>
            </trkpt>
            <trkpt lon="-58.40426445007324" lat="-34.613378387141736">
                <ele>0.0</ele>
                <name>Misiones</name>
            </trkpt>
            <trkpt lon="-58.40475797653198" lat="-34.60762111072642">
                <ele>0.0</ele>
                <name>Tte. Gral. Perón</name>
            </trkpt>
            <trkpt lon="-58.40909242630005" lat="-34.607868363930336">
                <ele>0.0</ele>
                <name>Ecuador</name>
            </trkpt>
            <trkpt lon="-58.40879201889038" lat="-34.60663209054798">
                <ele>0.0</ele>
                <name>Sarmiento</name>
            </trkpt>
            <trkpt lon="-58.409950733184814" lat="-34.60673805755915">
                <ele>0.0</ele>
                <name>Sarmiento</name>
            </trkpt>
            <trkpt lon="-58.41705322265625" lat="-34.60548410592567">
                <ele>34.0</ele>
                <time>2011-09-05T23:24:13.785Z</time>
                <name>Sarmiento</name>
            </trkpt>
            <trkpt lon="-58.42432737350464" lat="-34.60447739865728">
                <ele>0.0</ele>
                <name>Gascon</name>
            </trkpt>
            <trkpt lon="-58.42329740524292" lat="-34.597642063434044">
                <ele>0.0</ele>
                <name>Av. Córdoba</name>
            </trkpt>
            <trkpt lon="-58.42703104019165" lat="-34.59614068706819">
                <ele>0.0</ele>
                <name>Av. Córdoba</name>
            </trkpt>
            <trkpt lon="-58.4447979927063" lat="-34.584482017807204">
                <ele>0.0</ele>
                <name>Av. Córdoba</name>
            </trkpt>
            <trkpt lon="-58.446385860443115" lat="-34.58374004712613">
                <ele>0.0</ele>
                <name>Concepcion Arenal</name>
            </trkpt>
            <trkpt lon="-58.44518423080444" lat="-34.58145226249141">
                <ele>0.0</ele>
                <name>Concepcion Arenal</name>
            </trkpt>
            <trkpt lon="-58.44147205352783" lat="-34.5783428943879">
                <ele>0.0</ele>
                <name>Conesa</name>
            </trkpt>
            <trkpt lon="-58.44471216201782" lat="-34.576090296545395">
                <ele>0.0</ele>
                <name>Conesa</name>
            </trkpt>
            <trkpt lon="-58.447697" lat="-34.57478">
                <ele>0.0</ele>
                <name>Av. Lacroze</name>
            </trkpt>
            <trkpt lon="-58.448917865753174" lat="-34.57696484178035">
                <ele>0.0</ele>
                <name>Freire</name>
            </trkpt>
            <trkpt lon="-58.45269441604614" lat="-34.575277579594406">
                <ele>0.0</ele>
                <name>Freire</name>
            </trkpt>
            <trkpt lon="-58.45876693725586" lat="-34.572026632337256">
                <ele>0.0</ele>
                <name>Av. Elcano</name>
            </trkpt>
            <trkpt lon="-58.45750093460083" lat="-34.56909360345331">
                <ele>0.0</ele>
                <name>Virrey del Pino</name>
            </trkpt>
            <trkpt lon="-58.452308177948" lat="-34.56607212214245">
                <ele>0.0</ele>
                <name>Av. Cabildo</name>
            </trkpt>
            <trkpt lon="-58.45423936843872" lat="-34.56488823695742">
                <ele>0.0</ele>
                <name>Av. Cabildo</name>
            </trkpt>
            <trkpt lon="-58.465096950531006" lat="-34.55280104187223">
                <ele>0.0</ele>
                <name>Av. Cabildo</name>
            </trkpt>
            <trkpt lon="-58.475632667541504" lat="-34.539015255102505">
                <ele>0.0</ele>
                <name>Av. Maipú</name>
            </trkpt>
            <trkpt lon="-58.47668409347534" lat="-34.53712394983185">
                <ele>0.0</ele>
                <name>Av. Maipú</name>
            </trkpt>
        </trkseg>
    </trk>
    <trk>
        <name>C - La Boca por Concepcion Arenal</name>
        <trkseg>
            <trkpt lon="-58.47679138183594" lat="-34.537212329539855">
                <ele>0.0</ele>
                <name>Av. Maipú</name>
            </trkpt>
            <trkpt lon="-58.47550392150879" lat="-34.539510169014584">
                <ele>0.0</ele>
                <name>Av. Cabildo</name>
            </trkpt>
            <trkpt lon="-58.46947431564331" lat="-34.54734002255969">
                <ele>0.0</ele>
                <name>Av. Cabildo</name>
            </trkpt>
            <trkpt lon="-58.46350908279419" lat="-34.55453294077406">
                <ele>0.0</ele>
                <name>Av. Cabildo</name>
            </trkpt>
            <trkpt lon="-58.45670700073242" lat="-34.56206098027648">
                <ele>0.0</ele>
                <name>Av. Cabildo</name>
            </trkpt>
            <trkpt lon="-58.453402519226074" lat="-34.5655950361102">
                <ele>0.0</ele>
                <name>José Fernández</name>
            </trkpt>
            <trkpt lon="-58.45750093460083" lat="-34.56801577768745">
                <ele>0.0</ele>
                <name>Av. Elcano</name>
            </trkpt>
            <trkpt lon="-58.4576940536499" lat="-34.569606007524214">
                <ele>0.0</ele>
                <name>Av. Los Incas</name>
            </trkpt>
            <trkpt lon="-58.45876693725586" lat="-34.57059546851819">
                <ele>0.0</ele>
                <name>Zapiola</name>
            </trkpt>
            <trkpt lon="-58.44951868057251" lat="-34.57550726127729">
                <ele>0.0</ele>
                <name>Zapiola</name>
            </trkpt>
            <trkpt lon="-58.447415828704834" lat="-34.57646131685966">
                <ele>27.0</ele>
                <time>2011-09-05T23:46:29.328Z</time>
                <name>Olleros</name>
            </trkpt>
            <trkpt lon="-58.446106910705566" lat="-34.57405848927033">
                <ele>27.0</ele>
                <time>2011-09-05T23:46:29.328Z</time>
                <name>Cramer</name>
            </trkpt>
            <trkpt lon="-58.44398260116577" lat="-34.57534825094904">
                <ele>26.0</ele>
                <time>2011-09-05T23:46:29.328Z</time>
                <name>Newbery</name>
            </trkpt>
            <trkpt lon="-58.44574213027954" lat="-34.57715035019283">
                <ele>25.0</ele>
                <time>2011-09-05T23:46:29.328Z</time>
                <name>Newbery</name>
            </trkpt>
            <trkpt lon="-58.446900844573975" lat="-34.5792350829308">
                <ele>0.0</ele>
                <name>Conde</name>
            </trkpt>
            <trkpt lon="-58.44604253768921" lat="-34.579888759547025">
                <ele>0.0</ele>
                <name>Dumont</name>
            </trkpt>
            <trkpt lon="-58.44707250595093" lat="-34.58200875644207">
                <ele>0.0</ele>
                <name>Av. Álvarez Thomas</name>
            </trkpt>
            <trkpt lon="-58.44449758529663" lat="-34.58313939934193">
                <ele>0.0</ele>
                <name>Niceto Vega</name>
            </trkpt>
            <trkpt lon="-58.429176807403564" lat="-34.593720764514785">
                <ele>0.0</ele>
                <name>Av. Scalabrini Ortiz</name>
            </trkpt>
            <trkpt lon="-58.42803955078125" lat="-34.59292588406223">
                <ele>0.0</ele>
                <name>Cabrera</name>
            </trkpt>
            <trkpt lon="-58.42531442642212" lat="-34.594851248058035">
                <ele>0.0</ele>
                <name>Cabrera</name>
            </trkpt>
            <trkpt lon="-58.42475652694702" lat="-34.595575455993384">
                <ele>0.0</ele>
                <name>Pringles</name>
            </trkpt>
            <trkpt lon="-58.42625856399536" lat="-34.596476291199096">
                <ele>0.0</ele>
                <name>Pringles</name>
            </trkpt>
            <trkpt lon="-58.427138328552246" lat="-34.602569919837514">
                <ele>0.0</ele>
                <name>Av. Corrientes</name>
            </trkpt>
            <trkpt lon="-58.41675281524658" lat="-34.603576650229996">
                <ele>0.0</ele>
                <name>Av. Corrientes</name>
            </trkpt>
            <trkpt lon="-58.41325521469116" lat="-34.60417715026711">
                <ele>0.0</ele>
                <name>Av. Corrientes</name>
            </trkpt>
            <trkpt lon="-58.41025114059448" lat="-34.60392988607183">
                <ele>0.0</ele>
                <name>Av. Corrientes</name>
            </trkpt>
            <trkpt lon="-58.40548753738403" lat="-34.604565706800734">
                <ele>0.0</ele>
                <name>Av. Pueyrredón</name>
            </trkpt>
            <trkpt lon="-58.40613126754761" lat="-34.6077270764754">
                <ele>0.0</ele>
                <name>Av. Pueyrredón</name>
            </trkpt>
            <trkpt lon="-58.40604543685913" lat="-34.61012893051206">
                <ele>0.0</ele>
                <name>Av. Jujuy</name>
            </trkpt>
            <trkpt lon="-58.40557336807251" lat="-34.61242475544747">
                <ele>0.0</ele>
                <name>Adolfo Alsina</name>
            </trkpt>
            <trkpt lon="-58.39038133621216" lat="-34.6114181323301">
                <ele>0.0</ele>
                <name>Solís</name>
            </trkpt>
            <trkpt lon="-58.39033842086792" lat="-34.61804042883712">
                <ele>0.0</ele>
                <name>Solís</name>
            </trkpt>
            <trkpt lon="-58.38960886001587" lat="-34.62619837171444">
                <ele>0.0</ele>
                <name>Pavón</name>
            </trkpt>
            <trkpt lon="-58.38578939437866" lat="-34.626163057672784">
                <ele>0.0</ele>
                <name>San José</name>
            </trkpt>
            <trkpt lon="-58.385725021362305" lat="-34.628405469493394">
                <ele>0.0</ele>
                <name>Av. Brasil</name>
            </trkpt>
            <trkpt lon="-58.38289260864258" lat="-34.627822801383665">
                <ele>0.0</ele>
                <name>Av. Brasil</name>
            </trkpt>
            <trkpt lon="-58.37965250015259" lat="-34.62778748803338">
                <ele>0.0</ele>
                <name>Hornos</name>
            </trkpt>
            <trkpt lon="-58.37909460067749" lat="-34.629288292165704">
                <ele>0.0</ele>
                <name>Av. Caseros</name>
            </trkpt>
            <trkpt lon="-58.37666988372803" lat="-34.62784045805317">
                <ele>0.0</ele>
                <name>Tacuarí</name>
            </trkpt>
            <trkpt lon="-58.37433099746704" lat="-34.63040063535762">
                <ele>0.0</ele>
                <name>Tacuarí</name>
            </trkpt>
            <trkpt lon="-58.37261438369751" lat="-34.63145999596032">
                <ele>0.0</ele>
                <name>Av. Martín García</name>
            </trkpt>
            <trkpt lon="-58.368237018585205" lat="-34.62720481558369">
                <ele>0.0</ele>
                <name>Av. Almirante Brown</name>
            </trkpt>
            <trkpt lon="-58.3634090423584" lat="-34.63038297923296">
                <ele>0.0</ele>
                <name>20 de Septiembre</name>
            </trkpt>
            <trkpt lon="-58.36160659790039" lat="-34.628670317281454">
                <ele>0.0</ele>
                <name>Brin</name>
            </trkpt>
            <trkpt lon="-58.35795879364014" lat="-34.630877349302885">
                <ele>0.0</ele>
                <name>Brin</name>
            </trkpt>
            <trkpt lon="-58.35654258728027" lat="-34.633331499964584">
                <ele>0.0</ele>
                <name>Brin</name>
            </trkpt>
        </trkseg>
    </trk>
    <trk>
        <name>XshortX E - Estación Lacroze</name>
        <trkseg>
            <trkpt lon="-58.378944396972656" lat="-34.6291911821316">
                <ele>0.0</ele>
                <name>Hornos</name>
            </trkpt>
            <trkpt lon="-58.37954521179199" lat="-34.62767271954115">
                <ele>0.0</ele>
                <name>Av. Brasil</name>
            </trkpt>
            <trkpt lon="-58.378493785858154" lat="-34.627425525326366">
                <ele>22.0</ele>
                <time>2011-09-05T23:49:21.460Z</time>
                <name>Bernardo de Irigoyen</name>
            </trkpt>
            <trkpt lon="-58.37892293930054" lat="-34.62594234457186">
                <ele>0.0</ele>
                <name>Av. Juan de Garay</name>
            </trkpt>
            <trkpt lon="-58.3803391456604" lat="-34.626427912618915">
                <ele>20.0</ele>
                <time>2011-09-05T23:49:40.172Z</time>
                <name>Lima Este</name>
            </trkpt>
            <trkpt lon="-58.37989926338196" lat="-34.6273019279428">
                <ele>21.0</ele>
                <time>2011-09-05T23:49:40.172Z</time>
                <name>Av. Brasil</name>
            </trkpt>
            <trkpt lon="-58.38218450546265" lat="-34.627390211807">
                <ele>21.0</ele>
                <time>2011-09-05T23:49:40.172Z</time>
                <name>Lima Oeste</name>
            </trkpt>
            <trkpt lon="-58.38227033615112" lat="-34.624688683020665">
                <ele>0.0</ele>
                <name>Constitucion</name>
            </trkpt>
            <trkpt lon="-58.38441610336304" lat="-34.624688683020665">
                <ele>27.0</ele>
                <time>2011-09-05T23:50:23.425Z</time>
                <name>Santiago del Estero</name>
            </trkpt>
            <trkpt lon="-58.38435173034668" lat="-34.62692230625636">
                <ele>29.0</ele>
                <time>2011-09-05T23:50:23.425Z</time>
                <name>Av. Juan de Garay</name>
            </trkpt>
            <trkpt lon="-58.391196727752686" lat="-34.62721364398468">
                <ele>0.0</ele>
                <name>Av. Entre Rios</name>
            </trkpt>
            <trkpt lon="-58.39151859283447" lat="-34.62271986644028">
                <ele>0.0</ele>
                <name>Av. Entre Rios</name>
            </trkpt>
            <trkpt lon="-58.39184045791626" lat="-34.610234893060415">
                <ele>36.0</ele>
                <time>2011-09-05T23:51:20.662Z</time>
                <name>:2way:Yrigoyen</name>
            </trkpt>
            <trkpt lon="-58.38754892349243" lat="-34.609987646903875">
                <ele>39.0</ele>
                <time>2011-09-05T23:51:20.662Z</time>
                <name>Sáenz Pena</name>
            </trkpt>
            <trkpt lon="-58.38726997375488" lat="-34.609493152381894">
                <ele>34.0</ele>
                <time>2011-09-05T23:51:20.662Z</time>
                <name>Av. de Mayo</name>
            </trkpt>
            <trkpt lon="-58.388471603393555" lat="-34.60905163692706">
                <ele>35.0</ele>
                <time>2011-09-05T23:51:20.662Z</time>
                <name>Av. Rivadavia</name>
            </trkpt>
            <trkpt lon="-58.39201211929321" lat="-34.60913994020587">
                <ele>0.0</ele>
                <name>Av. Rivadavia</name>
            </trkpt>
            <trkpt lon="-58.41973543167114" lat="-34.61110024880987">
                <ele>0.0</ele>
                <name>Jeronimo Salguero</name>
            </trkpt>
            <trkpt lon="-58.42012166976929" lat="-34.60852181528208">
                <ele>0.0</ele>
                <name>Jeronimo Salguero</name>
            </trkpt>
            <trkpt lon="-58.419156074523926" lat="-34.6008213590973">
                <ele>0.0</ele>
                <name>Guardia Vieja</name>
            </trkpt>
            <trkpt lon="-58.43024969100952" lat="-34.599708619458355">
                <ele>0.0</ele>
                <name>Av. Estado de Israel</name>
            </trkpt>
            <trkpt lon="-58.43185901641846" lat="-34.60163382624231">
                <ele>0.0</ele>
                <name>Aguirre</name>
            </trkpt>
            <trkpt lon="-58.43406915664673" lat="-34.59939069110899">
                <ele>0.0</ele>
                <name>Julian Alvarez</name>
            </trkpt>
            <trkpt lon="-58.435163497924805" lat="-34.60002654659073">
                <ele>0.0</ele>
                <name>de Velasco</name>
            </trkpt>
            <trkpt lon="-58.443381786346436" lat="-34.591283107026065">
                <ele>14.0</ele>
                <time>2011-09-05T23:53:19.151Z</time>
                <name>de Velasco</name>
            </trkpt>
            <trkpt lon="-58.44599962234497" lat="-34.58868639320219">
                <ele>0.0</ele>
                <name>Guevara</name>
            </trkpt>
            <trkpt lon="-58.45181465148926" lat="-34.58628391902449">
                <ele>0.0</ele>
                <name>Maure</name>
            </trkpt>
            <trkpt lon="-58.45256567001343" lat="-34.58782080389308">
                <ele>0.0</ele>
                <name>Av. Corrientes</name>
            </trkpt>
            <trkpt lon="-58.45507621765137" lat="-34.586955205566916">
                <ele>0.0</ele>
                <name>Av. Lacroze</name>
            </trkpt>
            <trkpt lon="-58.45443248748779" lat="-34.58591294255609">
                <ele>0.0</ele>
                <name>Av. Lacroze</name>
            </trkpt>
        </trkseg>
    </trk>
    <trk>
        <name>XshortX E - Estación Constitución</name>
        <trkseg>
            <trkpt lon="-58.454604148864746" lat="-34.58594827371968">
                <ele>0.0</ele>
                <name>Av. Lacroze</name>
            </trkpt>
            <trkpt lon="-58.455398082733154" lat="-34.58732617738226">
                <ele>0.0</ele>
                <name>Av. Corrientes</name>
            </trkpt>
            <trkpt lon="-58.45069885253906" lat="-34.58884537801345">
                <ele>0.0</ele>
                <name>Av. Corrientes</name>
            </trkpt>
            <trkpt lon="-58.43883275985718" lat="-34.59992057101516">
                <ele>0.0</ele>
                <name>Av. Corrientes</name>
            </trkpt>
            <trkpt lon="-58.432159423828125" lat="-34.60211070543002">
                <ele>0.0</ele>
                <name>Av. Corrientes</name>
            </trkpt>
            <trkpt lon="-58.42100143432617" lat="-34.60317042715438">
                <ele>0.0</ele>
                <name>Av. Medrano</name>
            </trkpt>
            <trkpt lon="-58.42155933380127" lat="-34.608574797598735">
                <ele>0.0</ele>
                <name>Av. Medrano</name>
            </trkpt>
            <trkpt lon="-58.4212589263916" lat="-34.609952325964265">
                <ele>0.0</ele>
                <name>Bartolomé Mitre</name>
            </trkpt>
            <trkpt lon="-58.41997146606445" lat="-34.6096874184382">
                <ele>0.0</ele>
                <name>Bartolomé Mitre</name>
            </trkpt>
            <trkpt lon="-58.393492698669434" lat="-34.60808029466195">
                <ele>0.0</ele>
                <name>Combate de Los Pozos</name>
            </trkpt>
            <trkpt lon="-58.39312791824341" lat="-34.621572104280084">
                <ele>0.0</ele>
                <name>Combate de Los Pozos</name>
            </trkpt>
            <trkpt lon="-58.392226696014404" lat="-34.62725778597549">
                <ele>0.0</ele>
                <name>Av. Juan de Garay</name>
            </trkpt>
            <trkpt lon="-58.38227033615112" lat="-34.6269399631175">
                <ele>0.0</ele>
                <name>Lima Oeste</name>
            </trkpt>
            <trkpt lon="-58.38218450546265" lat="-34.627610921056494">
                <ele>0.0</ele>
                <name>Av. Brasil</name>
            </trkpt>
            <trkpt lon="-58.38008165359497" lat="-34.62759326433814">
                <ele>0.0</ele>
                <name>Av. Brasil</name>
            </trkpt>
        </trkseg>
    </trk>
    <trk>
        <name>XshortX F - Av. Córdoba y Darwin</name>
        <trkseg>
            <trkpt lon="-58.357990980148315" lat="-34.6339494401276">
                <ele>0.0</ele>
                <name>Necochea</name>
            </trkpt>
            <trkpt lon="-58.35945010185242" lat="-34.63142468415817">
                <ele>0.0</ele>
                <name>Necochea</name>
            </trkpt>
            <trkpt lon="-58.36319446563721" lat="-34.628970477085865">
                <ele>0.0</ele>
                <name>Espinosa</name>
            </trkpt>
            <trkpt lon="-58.36405277252197" lat="-34.62983563750488">
                <ele>0.0</ele>
                <name>Av. Almirante Brown</name>
            </trkpt>
            <trkpt lon="-58.368237018585205" lat="-34.627169501970386">
                <ele>0.0</ele>
                <name>Av. Martín García</name>
            </trkpt>
            <trkpt lon="-58.375403881073" lat="-34.63428489143119">
                <ele>0.0</ele>
                <name>Av. Montes de Oca</name>
            </trkpt>
            <trkpt lon="-58.3773136138916" lat="-34.62971204371168">
                <ele>26.0</ele>
                <time>2011-09-05T23:22:25.280Z</time>
                <name>Bernardo de Irigoyen</name>
            </trkpt>
            <trkpt lon="-58.37905168533325" lat="-34.62589820188122">
                <ele>0.0</ele>
                <name>Av. Juan de Garay</name>
            </trkpt>
            <trkpt lon="-58.380231857299805" lat="-34.626286656752846">
                <ele>0.0</ele>
                <name>Lima Este</name>
            </trkpt>
            <trkpt lon="-58.37982416152954" lat="-34.627293099551224">
                <ele>0.0</ele>
                <name>Av. Brasil</name>
            </trkpt>
            <trkpt lon="-58.38218450546265" lat="-34.62734606988665">
                <ele>0.0</ele>
                <name>Lima Oeste</name>
            </trkpt>
            <trkpt lon="-58.38233470916748" lat="-34.624644539663095">
                <ele>0.0</ele>
                <name>Constitución</name>
            </trkpt>
            <trkpt lon="-58.387227058410645" lat="-34.62483877026077">
                <ele>0.0</ele>
                <name>Sáenz Pena</name>
            </trkpt>
            <trkpt lon="-58.387484550476074" lat="-34.6123364556624">
                <ele>0.0</ele>
                <name>Moreno</name>
            </trkpt>
            <trkpt lon="-58.40426445007324" lat="-34.613378387141736">
                <ele>0.0</ele>
                <name>Misiones</name>
            </trkpt>
            <trkpt lon="-58.40475797653198" lat="-34.60762111072642">
                <ele>0.0</ele>
                <name>Tte. Gral. Perón</name>
            </trkpt>
            <trkpt lon="-58.40909242630005" lat="-34.607868363930336">
                <ele>0.0</ele>
                <name>Ecuador</name>
            </trkpt>
            <trkpt lon="-58.40879201889038" lat="-34.60663209054798">
                <ele>0.0</ele>
                <name>Sarmiento</name>
            </trkpt>
            <trkpt lon="-58.409950733184814" lat="-34.60673805755915">
                <ele>0.0</ele>
                <name>Sarmiento</name>
            </trkpt>
            <trkpt lon="-58.41705322265625" lat="-34.60548410592567">
                <ele>34.0</ele>
                <time>2011-09-05T23:24:13.785Z</time>
                <name>Sarmiento</name>
            </trkpt>
            <trkpt lon="-58.42432737350464" lat="-34.60447739865728">
                <ele>0.0</ele>
                <name>Gascon</name>
            </trkpt>
            <trkpt lon="-58.42329740524292" lat="-34.597642063434044">
                <ele>0.0</ele>
                <name>Av. Córdoba</name>
            </trkpt>
            <trkpt lon="-58.42703104019165" lat="-34.59614068706819">
                <ele>0.0</ele>
                <name>Av. Córdoba</name>
            </trkpt>
            <trkpt lon="-58.43806028366089" lat="-34.58891603783193">
                <ele>0.0</ele>
                <name>Av. Córdoba</name>
            </trkpt>
        </trkseg>
    </trk>
    <trk>
        <name>XshortX F - La Boca</name>
        <trkseg>
            <trkpt lon="-58.437137603759766" lat="-34.58820943694319">
                <ele>0.0</ele>
                <name>Niceto Vega</name>
            </trkpt>
            <trkpt lon="-58.429176807403564" lat="-34.593720764514785">
                <ele>0.0</ele>
                <name>Av. Scalabrini Ortiz</name>
            </trkpt>
            <trkpt lon="-58.42803955078125" lat="-34.59292588406223">
                <ele>0.0</ele>
                <name>Cabrera</name>
            </trkpt>
            <trkpt lon="-58.42531442642212" lat="-34.594851248058035">
                <ele>0.0</ele>
                <name>Cabrera</name>
            </trkpt>
            <trkpt lon="-58.42475652694702" lat="-34.595575455993384">
                <ele>0.0</ele>
                <name>Pringles</name>
            </trkpt>
            <trkpt lon="-58.42625856399536" lat="-34.596476291199096">
                <ele>0.0</ele>
                <name>Pringles</name>
            </trkpt>
            <trkpt lon="-58.427138328552246" lat="-34.602569919837514">
                <ele>0.0</ele>
                <name>Av. Corrientes</name>
            </trkpt>
            <trkpt lon="-58.41675281524658" lat="-34.603576650229996">
                <ele>0.0</ele>
                <name>Av. Corrientes</name>
            </trkpt>
            <trkpt lon="-58.41325521469116" lat="-34.60417715026711">
                <ele>0.0</ele>
                <name>Av. Corrientes</name>
            </trkpt>
            <trkpt lon="-58.41025114059448" lat="-34.60392988607183">
                <ele>0.0</ele>
                <name>Av. Corrientes</name>
            </trkpt>
            <trkpt lon="-58.40548753738403" lat="-34.604565706800734">
                <ele>0.0</ele>
                <name>Av. Pueyrredón</name>
            </trkpt>
            <trkpt lon="-58.40613126754761" lat="-34.6077270764754">
                <ele>0.0</ele>
                <name>Av. Pueyrredón</name>
            </trkpt>
            <trkpt lon="-58.40604543685913" lat="-34.61012893051206">
                <ele>0.0</ele>
                <name>Av. Jujuy</name>
            </trkpt>
            <trkpt lon="-58.40557336807251" lat="-34.61242475544747">
                <ele>0.0</ele>
                <name>Adolfo Alsina</name>
            </trkpt>
            <trkpt lon="-58.39038133621216" lat="-34.6114181323301">
                <ele>0.0</ele>
                <name>Solís</name>
            </trkpt>
            <trkpt lon="-58.39033842086792" lat="-34.61804042883712">
                <ele>0.0</ele>
                <name>Solís</name>
            </trkpt>
            <trkpt lon="-58.38960886001587" lat="-34.62619837171444">
                <ele>0.0</ele>
                <name>Pavón</name>
            </trkpt>
            <trkpt lon="-58.38578939437866" lat="-34.626163057672784">
                <ele>0.0</ele>
                <name>San José</name>
            </trkpt>
            <trkpt lon="-58.385725021362305" lat="-34.628405469493394">
                <ele>0.0</ele>
                <name>Av. Brasil</name>
            </trkpt>
            <trkpt lon="-58.38289260864258" lat="-34.627822801383665">
                <ele>0.0</ele>
                <name>Av. Brasil</name>
            </trkpt>
            <trkpt lon="-58.37965250015259" lat="-34.62778748803338">
                <ele>0.0</ele>
                <name>Hornos</name>
            </trkpt>
            <trkpt lon="-58.37909460067749" lat="-34.629288292165704">
                <ele>0.0</ele>
                <name>Av. Caseros</name>
            </trkpt>
            <trkpt lon="-58.37666988372803" lat="-34.62784045805317">
                <ele>0.0</ele>
                <name>Tacuarí</name>
            </trkpt>
            <trkpt lon="-58.37433099746704" lat="-34.63040063535762">
                <ele>0.0</ele>
                <name>Tacuarí</name>
            </trkpt>
            <trkpt lon="-58.37261438369751" lat="-34.63145999596032">
                <ele>0.0</ele>
                <name>Av. Martín García</name>
            </trkpt>
            <trkpt lon="-58.368237018585205" lat="-34.62720481558369">
                <ele>0.0</ele>
                <name>Av. Almirante Brown</name>
            </trkpt>
            <trkpt lon="-58.3634090423584" lat="-34.63038297923296">
                <ele>0.0</ele>
                <name>20 de Septiembre</name>
            </trkpt>
            <trkpt lon="-58.36160659790039" lat="-34.628670317281454">
                <ele>0.0</ele>
                <name>Brin</name>
            </trkpt>
            <trkpt lon="-58.35795879364014" lat="-34.630877349302885">
                <ele>0.0</ele>
                <name>Brin</name>
            </trkpt>
            <trkpt lon="-58.35654258728027" lat="-34.633331499964584">
                <ele>0.0</ele>
                <name>Brin</name>
            </trkpt>
        </trkseg>
    </trk>
</gpx>
