<?xml version="1.0" encoding="UTF-8" standalone="yes"?>
<gpx xmlns="http://www.topografix.com/GPX/1/1" xmlns:gpxtrx="http://www.garmin.com/xmlschemas/GpxExtensions/v3" xmlns:rcxx="http://www.routeconverter.de/xmlschemas/RouteCatalogExtensions/1.0" xmlns:xsi="http://www.w3.org/2001/XMLSchema-instance" xmlns:gpxtpx="http://www.garmin.com/xmlschemas/TrackPointExtension/v1" xmlns:gpxx="http://www.garmin.com/xmlschemas/WaypointExtension/v1" xmlns:nmea="http://trekbuddy.net/2009/01/gpx/nmea" creator="Generated by Christian Pesch's RouteConverter. See http://www.routeconverter.com" version="1.1">
    <trk>
        <name>A - Ramos Mejía por La Merced</name>
        <desc>&lt;a href=&quot;http://www.masmapas.com/colectivo-181-almagro-san-juan-y-boedo-acoyte-y-rivadavia-est-caseros-est-ramos-mejia&quot;&gt;Mas info sobre la linea de colectivos 181 (Colectivo 181 - Almagro,
San Juan Y Boedo,
Acoyte Y Rivadavia,
Est.Caseros,
Est. Ramos Mejia )&lt;/a&gt;</desc>
        <trkseg>
            <trkpt lon="-58.423640727996826" lat="-34.62902344635039">
                <ele>22.0</ele>
                <name>Constitución</name>
            </trkpt>
            <trkpt lon="-58.420937061309814" lat="-34.628617347791476">
                <ele>25.0</ele>
                <name>Bocayuva</name>
            </trkpt>
            <trkpt lon="-58.42188119888306" lat="-34.624821112952496">
                <ele>27.0</ele>
                <name>Bocayuva</name>
            </trkpt>
            <trkpt lon="-58.42224597930908" lat="-34.62136020799158">
                <ele>31.0</ele>
                <name>Av. Independencia</name>
            </trkpt>
            <trkpt lon="-58.42658042907715" lat="-34.62188994769838">
                <ele>31.0</ele>
                <name>Muniz</name>
            </trkpt>
            <trkpt lon="-58.42711687088013" lat="-34.61925887384529">
                <ele>28.0</ele>
                <name>Guayaquil</name>
            </trkpt>
            <trkpt lon="-58.43548536300659" lat="-34.620336034970066">
                <ele>38.0</ele>
                <name>Av. José Maria Moreno</name>
            </trkpt>
            <trkpt lon="-58.43754529953003" lat="-34.61609794328532">
                <ele>36.0</ele>
                <name>Av. Acoyte</name>
            </trkpt>
            <trkpt lon="-58.43778133392334" lat="-34.61404945473004">
                <ele>33.0</ele>
                <name>Av. José Maria Moreno</name>
            </trkpt>
            <trkpt lon="-58.43833923339844" lat="-34.612795613519204">
                <ele>37.0</ele>
                <name>Aranguren</name>
            </trkpt>
            <trkpt lon="-58.446128368377686" lat="-34.61599198822053">
                <ele>27.0</ele>
                <name>Neuquen</name>
            </trkpt>
            <trkpt lon="-58.44672918319702" lat="-34.615921351435524">
                <ele>27.0</ele>
                <name>Gainza</name>
            </trkpt>
            <trkpt lon="-58.4467077255249" lat="-34.61659239846609">
                <ele>27.0</ele>
                <name>Aranguren</name>
            </trkpt>
            <trkpt lon="-58.44853162765503" lat="-34.61701621484809">
                <ele>28.0</ele>
                <name>Aranguren</name>
            </trkpt>
            <trkpt lon="-58.456642627716064" lat="-34.620000527266356">
                <ele>25.0</ele>
                <name>Av. Donato Álvarez</name>
            </trkpt>
            <trkpt lon="-58.45945358276367" lat="-34.61381987958664">
                <ele>20.0</ele>
                <name>Av. Gaona</name>
            </trkpt>
            <trkpt lon="-58.46865892410278" lat="-34.61744002906607">
                <ele>25.0</ele>
                <name>Av. Gaona</name>
            </trkpt>
            <trkpt lon="-58.47943067550659" lat="-34.6231789668595">
                <ele>20.0</ele>
                <name>Av. Gaona</name>
            </trkpt>
            <trkpt lon="-58.4827995300293" lat="-34.624609224960125">
                <ele>19.0</ele>
                <name>Av. Gaona</name>
            </trkpt>
            <trkpt lon="-58.4932923316955" lat="-34.628970477085865">
                <ele>19.0</ele>
                <name>Melo</name>
            </trkpt>
            <trkpt lon="-58.49365711212107" lat="-34.62871445541512">
                <ele>18.0</ele>
                <time>2012-01-03T23:12:01.674Z</time>
                <name>Melo</name>
            </trkpt>
            <trkpt lon="-58.49405407905573" lat="-34.62791108469362">
                <ele>23.0</ele>
                <name>Dr. Belaustegui</name>
            </trkpt>
            <trkpt lon="-58.49591553211161" lat="-34.62871444929059">
                <ele>20.0</ele>
                <time>2012-01-03T23:12:23.051Z</time>
                <name>Dr. Belaustegui</name>
            </trkpt>
            <trkpt lon="-58.499397039413395" lat="-34.63142468415817">
                <ele>19.0</ele>
                <name>Av. Juan B. Justo</name>
            </trkpt>
            <trkpt lon="-58.50112438201904" lat="-34.632148573097815">
                <ele>22.0</ele>
                <name>Av. Lope de Vega</name>
            </trkpt>
            <trkpt lon="-58.523064851760864" lat="-34.6155328480435">
                <ele>32.0</ele>
                <name>Varela</name>
            </trkpt>
            <trkpt lon="-58.521820306777954" lat="-34.61433200788112">
                <ele>30.0</ele>
                <name>Calderón de La Barca</name>
            </trkpt>
            <trkpt lon="-58.52360665798136" lat="-34.61294572192483">
                <ele>30.0</ele>
                <time>2012-01-03T23:13:35.243Z</time>
                <name>Av. Beiro</name>
            </trkpt>
            <trkpt lon="-58.52515697479248" lat="-34.61391700760941">
                <ele>32.0</ele>
                <name>Av. Beiro</name>
            </trkpt>
            <trkpt lon="-58.53024244308472" lat="-34.617881499908634">
                <ele>28.0</ele>
                <name>Av. Beiro</name>
            </trkpt>
            <trkpt lon="-58.531293869018555" lat="-34.61796096441091">
                <ele>29.0</ele>
                <name>Lorca</name>
            </trkpt>
            <trkpt lon="-58.53349328041077" lat="-34.61898516674181">
                <ele>28.0</ele>
                <name>José Ingenieros</name>
            </trkpt>
            <trkpt lon="-58.53763461112976" lat="-34.61573592958889">
                <ele>28.0</ele>
                <name>Av. Marcelo T. de Alvear</name>
            </trkpt>
            <trkpt lon="-58.538997173309326" lat="-34.61620389821488">
                <ele>32.0</ele>
                <name>Urquiza</name>
            </trkpt>
            <trkpt lon="-58.54248404502869" lat="-34.613387217013646">
                <ele>29.0</ele>
                <time>2011-09-07T14:13:03.060Z</time>
                <name>Serrano</name>
            </trkpt>
            <trkpt lon="-58.543996810913086" lat="-34.614623389810845">
                <ele>32.0</ele>
                <time>2011-09-07T14:13:03.060Z</time>
                <name>Serrano</name>
            </trkpt>
            <trkpt lon="-58.54562759399414" lat="-34.61523263963152">
                <ele>29.0</ele>
                <name>La Merced</name>
            </trkpt>
            <trkpt lon="-58.546743392944336" lat="-34.61440264601861">
                <ele>31.0</ele>
                <time>2011-09-07T14:13:49.558Z</time>
                <name>La Merced</name>
            </trkpt>
            <trkpt lon="-58.55742931365967" lat="-34.609245904016454">
                <ele>29.0</ele>
                <name>Suiza</name>
            </trkpt>
            <trkpt lon="-58.55584144592285" lat="-34.60674688813731">
                <ele>33.0</ele>
                <time>2011-09-07T14:14:40.486Z</time>
                <name>Urquiza</name>
            </trkpt>
            <trkpt lon="-58.557279109954834" lat="-34.60611991475428">
                <ele>36.0</ele>
                <time>2011-09-07T14:14:40.486Z</time>
                <name>Urquiza</name>
            </trkpt>
            <trkpt lon="-58.57104499999999" lat="-34.605492">
                <ele>30.0</ele>
                <name>Olavarría</name>
            </trkpt>
            <trkpt lon="-58.57141971588135" lat="-34.61074704347096">
                <ele>31.0</ele>
                <time>2011-09-07T14:15:21.621Z</time>
                <name>Olavarría</name>
            </trkpt>
            <trkpt lon="-58.5716986656189" lat="-34.614844133016064">
                <ele>30.0</ele>
                <name>Puan</name>
            </trkpt>
            <trkpt lon="-58.57890844345093" lat="-34.614455624582284">
                <ele>31.0</ele>
                <name>de Rosas</name>
            </trkpt>
            <trkpt lon="-58.579069375991764" lat="-34.617740229494494">
                <ele>29.0</ele>
                <name>:2way:Cocchiararo</name>
            </trkpt>
            <trkpt lon="-58.57191324234009" lat="-34.61800511132375">
                <ele>30.0</ele>
                <name>Olavarría</name>
            </trkpt>
            <trkpt lon="-58.572514057159424" lat="-34.62847609565287">
                <ele>30.0</ele>
                <name>Perdriel</name>
            </trkpt>
            <trkpt lon="-58.57154846191406" lat="-34.629782668758914">
                <ele>31.0</ele>
                <name>Illia</name>
            </trkpt>
            <trkpt lon="-58.57435941696167" lat="-34.63089500532233">
                <ele>28.0</ele>
                <name>Illia</name>
            </trkpt>
            <trkpt lon="-58.57515335083008" lat="-34.63168952230788">
                <ele>28.0</ele>
                <name>3 de Febrero</name>
            </trkpt>
            <trkpt lon="-58.56563687324524" lat="-34.63752457499103">
                <ele>24.0</ele>
                <name>:2way:9 de Julio</name>
            </trkpt>
            <trkpt lon="-58.56506824493408" lat="-34.64024333982684">
                <ele>27.0</ele>
                <time>2011-09-07T14:18:46.878Z</time>
                <name>Alem</name>
            </trkpt>
            <trkpt lon="-58.56386661529541" lat="-34.64007562639371">
                <ele>26.0</ele>
                <time>2011-09-07T14:18:46.878Z</time>
                <name>Ricchieri</name>
            </trkpt>
            <trkpt lon="-58.56436014175415" lat="-34.63789532089859">
                <ele>27.0</ele>
                <time>2011-09-07T14:18:46.878Z</time>
                <name>Av. Gaona</name>
            </trkpt>
            <trkpt lon="-58.56478929519653" lat="-34.63791297542429">
                <ele>27.0</ele>
                <time>2011-09-07T14:18:46.878Z</time>
                <name>:2way:3 de Febrero</name>
            </trkpt>
            <trkpt lon="-58.56765389442444" lat="-34.636235778704325">
                <ele>28.0</ele>
                <time>2011-09-07T14:18:46.878Z</time>
                <name>Gelly y Obes</name>
            </trkpt>
            <trkpt lon="-58.58183741569519" lat="-34.635988610004574">
                <ele>28.0</ele>
                <name>Peru</name>
            </trkpt>
            <trkpt lon="-58.581955432891846" lat="-34.638071865986376">
                <ele>30.0</ele>
                <name>Peru</name>
            </trkpt>
            <trkpt lon="-58.58267426490784" lat="-34.63861915337024">
                <ele>30.0</ele>
                <name>Güemes</name>
            </trkpt>
            <trkpt lon="-58.580507040023804" lat="-34.64019920474575">
                <ele>30.0</ele>
                <name>Bayle</name>
            </trkpt>
            <trkpt lon="-58.58140826225281" lat="-34.641090728829006">
                <ele>34.0</ele>
                <time>2011-09-07T14:20:44.730Z</time>
                <name>Llavallol</name>
            </trkpt>
            <trkpt lon="-58.58276009559631" lat="-34.641240786395706">
                <ele>29.0</ele>
                <name>Punchauca</name>
            </trkpt>
            <trkpt lon="-58.58293175697327" lat="-34.640428706910946">
                <ele>29.0</ele>
                <name>Rubens</name>
            </trkpt>
            <trkpt lon="-58.58388662338257" lat="-34.639643100711424">
                <ele>30.0</ele>
                <name>Rubens</name>
            </trkpt>
        </trkseg>
    </trk>
    <trk>
        <name>A - Almagro por La Merced</name>
        <trkseg>
            <trkpt lon="-58.58388662338257" lat="-34.639643100711424">
                <ele>30.0</ele>
                <name>Rubens</name>
            </trkpt>
            <trkpt lon="-58.587234020233154" lat="-34.63725975547096">
                <ele>29.0</ele>
                <name>Argerich</name>
            </trkpt>
            <trkpt lon="-58.58741641044617" lat="-34.636156331702594">
                <ele>29.0</ele>
                <name>Lambaré</name>
            </trkpt>
            <trkpt lon="-58.58532428741455" lat="-34.63489399690915">
                <ele>34.0</ele>
                <time>2011-09-07T14:20:44.730Z</time>
                <name>Estanislao de Campo</name>
            </trkpt>
            <trkpt lon="-58.58176231384277" lat="-34.63499992784002">
                <ele>30.0</ele>
                <name>Perú</name>
            </trkpt>
            <trkpt lon="-58.58189105987549" lat="-34.6370743813038">
                <ele>28.0</ele>
                <name>Emilio Mitre</name>
            </trkpt>
            <trkpt lon="-58.576226234436035" lat="-34.637330374092315">
                <ele>26.0</ele>
                <time>2011-09-07T14:18:46.878Z</time>
                <name>Emilio Mitre</name>
            </trkpt>
            <trkpt lon="-58.5661518573761" lat="-34.63723327347244">
                <ele>28.0</ele>
                <time>2011-09-07T14:18:46.878Z</time>
                <name>:2way:3 de Febrero</name>
            </trkpt>
            <trkpt lon="-58.56565833091736" lat="-34.63754222959564">
                <ele>27.0</ele>
                <time>2011-09-07T14:18:46.878Z</time>
                <name>:2way:9 de Julio</name>
            </trkpt>
            <trkpt lon="-58.5650360584259" lat="-34.640234512812505">
                <ele>27.0</ele>
                <time>2011-09-07T14:18:46.878Z</time>
                <name>Alem</name>
            </trkpt>
            <trkpt lon="-58.56384515762329" lat="-34.64003149122335">
                <ele>26.0</ele>
                <time>2011-09-07T14:18:46.878Z</time>
                <name>Ricchieri</name>
            </trkpt>
            <trkpt lon="-58.56434941291809" lat="-34.637921802685725">
                <ele>27.0</ele>
                <time>2011-09-07T14:18:46.878Z</time>
                <name>Av. Gaona</name>
            </trkpt>
            <trkpt lon="-58.56495022773743" lat="-34.63793062994622">
                <ele>24.0</ele>
                <name>3 de Febrero</name>
            </trkpt>
            <trkpt lon="-58.57511043548584" lat="-34.63166303853095">
                <ele>28.0</ele>
                <name>Illia</name>
            </trkpt>
            <trkpt lon="-58.57435941696167" lat="-34.63089500532233">
                <ele>28.0</ele>
                <name>Illia</name>
            </trkpt>
            <trkpt lon="-58.571462631225586" lat="-34.629773840631294">
                <ele>31.0</ele>
                <name>Perdriel</name>
            </trkpt>
            <trkpt lon="-58.572514057159424" lat="-34.62847609565287">
                <ele>30.0</ele>
                <name>Olavarría</name>
            </trkpt>
            <trkpt lon="-58.571999073028564" lat="-34.620053502257115">
                <ele>30.0</ele>
                <name>Tejedor</name>
            </trkpt>
            <trkpt lon="-58.57885479927063" lat="-34.619744481001014">
                <ele>28.0</ele>
                <name>Perdriel</name>
            </trkpt>
            <trkpt lon="-58.580507040023804" lat="-34.61765193536355">
                <ele>29.0</ele>
                <name>Cocchiararo</name>
            </trkpt>
            <trkpt lon="-58.57906401157328" lat="-34.61767841707325">
                <ele>28.0</ele>
                <time>2012-01-03T23:17:11.953Z</time>
                <name>de Rosas</name>
            </trkpt>
            <trkpt lon="-58.57886552810669" lat="-34.61557699624781">
                <ele>31.0</ele>
                <name>Juan de Garay</name>
            </trkpt>
            <trkpt lon="-58.569971323013306" lat="-34.61603613618063">
                <ele>30.0</ele>
                <name>Hornos</name>
            </trkpt>
            <trkpt lon="-58.56931686401367" lat="-34.60559007440184">
                <ele>30.0</ele>
                <name>Urquiza</name>
            </trkpt>
            <trkpt lon="-58.557279109954834" lat="-34.60611991475428">
                <ele>36.0</ele>
                <time>2011-09-07T14:14:40.486Z</time>
                <name>Urquiza</name>
            </trkpt>
            <trkpt lon="-58.5535454750061" lat="-34.607868363930336">
                <ele>33.0</ele>
                <time>2011-09-07T14:14:40.486Z</time>
                <name>Zanella</name>
            </trkpt>
            <trkpt lon="-58.5552191734314" lat="-34.61027021387981">
                <ele>29.0</ele>
                <name>La Merced</name>
            </trkpt>
            <trkpt lon="-58.54869604110718" lat="-34.61343136635911">
                <ele>29.0</ele>
                <name>Marmol</name>
            </trkpt>
            <trkpt lon="-58.54756951332092" lat="-34.61177133481391">
                <ele>32.0</ele>
                <time>2011-09-07T14:13:03.060Z</time>
                <name>Diag. Bouchard</name>
            </trkpt>
            <trkpt lon="-58.54611039161682" lat="-34.613660942576956">
                <ele>29.0</ele>
                <time>2011-09-07T14:13:03.060Z</time>
                <name>Diag. Bouchard</name>
            </trkpt>
            <trkpt lon="-58.54523062705994" lat="-34.61424371012472">
                <ele>30.0</ele>
                <time>2011-09-07T14:13:03.060Z</time>
                <name>Diag. Bouchard</name>
            </trkpt>
            <trkpt lon="-58.539007902145386" lat="-34.61625687562894">
                <ele>32.0</ele>
                <name>Ejercito de Los Andes</name>
            </trkpt>
            <trkpt lon="-58.533021211624146" lat="-34.62069802860287">
                <ele>28.0</ele>
                <name>San Roque</name>
            </trkpt>
            <trkpt lon="-58.531036376953125" lat="-34.61901165456547">
                <ele>28.0</ele>
                <name>Av. Gral. Paz</name>
            </trkpt>
            <trkpt lon="-58.530306816101074" lat="-34.61887921536266">
                <ele>29.0</ele>
                <name>Av. Gral. Paz</name>
            </trkpt>
            <trkpt lon="-58.53039264678955" lat="-34.61809340507899">
                <ele>28.0</ele>
                <name>Av. Beiro</name>
            </trkpt>
            <trkpt lon="-58.5251784324646" lat="-34.613978816292004">
                <ele>32.0</ele>
                <name>Av. Lope de Vega</name>
            </trkpt>
            <trkpt lon="-58.50112438201904" lat="-34.632148573097815">
                <ele>22.0</ele>
                <name>Av. Lope de Vega</name>
            </trkpt>
            <trkpt lon="-58.50053429603577" lat="-34.632360441836404">
                <ele>21.0</ele>
                <time>2011-09-07T14:31:54.971Z</time>
                <name>Av. Lope de Vega</name>
            </trkpt>
            <trkpt lon="-58.50043773651123" lat="-34.632731210826876">
                <ele>21.0</ele>
                <time>2011-09-07T14:31:54.971Z</time>
                <name>Morón</name>
            </trkpt>
            <trkpt lon="-58.49895715713501" lat="-34.632554654371425">
                <ele>19.0</ele>
                <name>Morón</name>
            </trkpt>
            <trkpt lon="-58.494858741760254" lat="-34.630842037252734">
                <ele>23.0</ele>
                <name>Morón</name>
            </trkpt>
            <trkpt lon="-58.493614196777344" lat="-34.63054188421958">
                <ele>19.0</ele>
                <name>Morón</name>
            </trkpt>
            <trkpt lon="-58.48927974700928" lat="-34.62847609565287">
                <ele>20.0</ele>
                <time>2011-09-07T14:32:28.426Z</time>
                <name>Morón</name>
            </trkpt>
            <trkpt lon="-58.472607135772705" lat="-34.624167789904895">
                <ele>21.0</ele>
                <time>2011-09-07T14:32:28.426Z</time>
                <name>Av. Nazca</name>
            </trkpt>
            <trkpt lon="-58.47391605377197" lat="-34.62118362733787">
                <ele>19.0</ele>
                <name>Neuquén</name>
            </trkpt>
            <trkpt lon="-58.467864990234375" lat="-34.61925887384529">
                <ele>20.0</ele>
                <name>Neuquén</name>
            </trkpt>
            <trkpt lon="-58.46325159072876" lat="-34.61728109898793">
                <ele>25.0</ele>
                <name>Neuquén</name>
            </trkpt>
            <trkpt lon="-58.45853090286255" lat="-34.61585071459041">
                <ele>20.0</ele>
                <name>Neuquén</name>
            </trkpt>
            <trkpt lon="-58.45202922821045" lat="-34.61569178146911">
                <ele>25.0</ele>
                <name>Neuquén</name>
            </trkpt>
            <trkpt lon="-58.44906806945801" lat="-34.61586837380732">
                <ele>27.0</ele>
                <name>Mendez de Andes</name>
            </trkpt>
            <trkpt lon="-58.44052791595459" lat="-34.61260135473587">
                <ele>27.0</ele>
                <name>Hidalgo</name>
            </trkpt>
            <trkpt lon="-58.43906879425049" lat="-34.615939010637405">
                <ele>37.0</ele>
                <name>Neuquén</name>
            </trkpt>
            <trkpt lon="-58.437631130218506" lat="-34.61586837380732">
                <ele>36.0</ele>
                <name>Av. Acoyte</name>
            </trkpt>
            <trkpt lon="-58.43552827835083" lat="-34.62038900974666">
                <ele>38.0</ele>
                <name>Guayaquil</name>
            </trkpt>
            <trkpt lon="-58.43703031539917" lat="-34.62104236254439">
                <ele>39.0</ele>
                <time>2011-09-07T14:35:18.689Z</time>
                <name>Riglos</name>
            </trkpt>
            <trkpt lon="-58.43685865402222" lat="-34.62146615620347">
                <ele>37.0</ele>
                <time>2011-09-07T14:35:18.689Z</time>
                <name>Formosa</name>
            </trkpt>
            <trkpt lon="-58.42808246612549" lat="-34.620653883122436">
                <ele>28.0</ele>
                <name>Mejico</name>
            </trkpt>
            <trkpt lon="-58.424198627471924" lat="-34.62038900974666">
                <ele>31.0</ele>
                <name>Treinta Y Tres Orientales</name>
            </trkpt>
            <trkpt lon="-58.42402696609497" lat="-34.621519130258676">
                <ele>31.0</ele>
                <name>Treinta Y Tres Orientales</name>
            </trkpt>
            <trkpt lon="-58.42376947402954" lat="-34.621519130258676">
                <ele>27.0</ele>
                <name>Treinta Y Tres Orientales</name>
            </trkpt>
            <trkpt lon="-58.4232759475708" lat="-34.62489174216306">
                <ele>25.0</ele>
                <name>Treinta Y Tres Orientales</name>
            </trkpt>
            <trkpt lon="-58.42256784439087" lat="-34.62775217466807">
                <ele>22.0</ele>
                <name>Cochabamba</name>
            </trkpt>
            <trkpt lon="-58.423898220062256" lat="-34.62785811471891">
                <ele>31.0</ele>
                <time>2011-09-07T14:36:33.446Z</time>
                <name>Marmol</name>
            </trkpt>
            <trkpt lon="-58.42361927032471" lat="-34.62904110276437">
                <ele>30.0</ele>
                <time>2011-09-07T14:36:48.397Z</time>
                <name>Marmol</name>
            </trkpt>
        </trkseg>
    </trk>
    <trk>
        <name>B - Ramos Mejía por Puan</name>
        <trkseg>
            <trkpt lon="-58.423640727996826" lat="-34.62902344635039">
                <ele>22.0</ele>
                <name>Constitución</name>
            </trkpt>
            <trkpt lon="-58.420937061309814" lat="-34.628617347791476">
                <ele>25.0</ele>
                <name>Bocayuva</name>
            </trkpt>
            <trkpt lon="-58.42188119888306" lat="-34.624821112952496">
                <ele>27.0</ele>
                <name>Bocayuva</name>
            </trkpt>
            <trkpt lon="-58.42224597930908" lat="-34.62136020799158">
                <ele>31.0</ele>
                <name>Av. Independencia</name>
            </trkpt>
            <trkpt lon="-58.42658042907715" lat="-34.62188994769838">
                <ele>31.0</ele>
                <name>Muniz</name>
            </trkpt>
            <trkpt lon="-58.42711687088013" lat="-34.61925887384529">
                <ele>28.0</ele>
                <name>Guayaquil</name>
            </trkpt>
            <trkpt lon="-58.43548536300659" lat="-34.620336034970066">
                <ele>38.0</ele>
                <name>Av. José Maria Moreno</name>
            </trkpt>
            <trkpt lon="-58.43754529953003" lat="-34.61609794328532">
                <ele>36.0</ele>
                <name>Av. Acoyte</name>
            </trkpt>
            <trkpt lon="-58.43778133392334" lat="-34.61404945473004">
                <ele>33.0</ele>
                <name>Av. José Maria Moreno</name>
            </trkpt>
            <trkpt lon="-58.43833923339844" lat="-34.612795613519204">
                <ele>37.0</ele>
                <name>Aranguren</name>
            </trkpt>
            <trkpt lon="-58.446128368377686" lat="-34.61599198822053">
                <ele>27.0</ele>
                <name>Neuquen</name>
            </trkpt>
            <trkpt lon="-58.44672918319702" lat="-34.615921351435524">
                <ele>27.0</ele>
                <name>Gainza</name>
            </trkpt>
            <trkpt lon="-58.4467077255249" lat="-34.61659239846609">
                <ele>27.0</ele>
                <name>Aranguren</name>
            </trkpt>
            <trkpt lon="-58.44853162765503" lat="-34.61701621484809">
                <ele>28.0</ele>
                <name>Aranguren</name>
            </trkpt>
            <trkpt lon="-58.456642627716064" lat="-34.620000527266356">
                <ele>25.0</ele>
                <name>Av. Donato Álvarez</name>
            </trkpt>
            <trkpt lon="-58.45945358276367" lat="-34.61381987958664">
                <ele>20.0</ele>
                <name>Av. Gaona</name>
            </trkpt>
            <trkpt lon="-58.46865892410278" lat="-34.61744002906607">
                <ele>25.0</ele>
                <name>Av. Gaona</name>
            </trkpt>
            <trkpt lon="-58.47943067550659" lat="-34.6231789668595">
                <ele>20.0</ele>
                <name>Av. Gaona</name>
            </trkpt>
            <trkpt lon="-58.4827995300293" lat="-34.624609224960125">
                <ele>19.0</ele>
                <name>Av. Gaona</name>
            </trkpt>
            <trkpt lon="-58.4932923316955" lat="-34.628970477085865">
                <ele>19.0</ele>
                <name>Melo</name>
            </trkpt>
            <trkpt lon="-58.49365711212107" lat="-34.62871445541512">
                <ele>18.0</ele>
                <time>2012-01-03T23:12:01.674Z</time>
                <name>Melo</name>
            </trkpt>
            <trkpt lon="-58.49405407905573" lat="-34.62791108469362">
                <ele>23.0</ele>
                <name>Dr. Belaustegui</name>
            </trkpt>
            <trkpt lon="-58.49591553211161" lat="-34.62871444929059">
                <ele>20.0</ele>
                <time>2012-01-03T23:12:23.051Z</time>
                <name>Dr. Belaustegui</name>
            </trkpt>
            <trkpt lon="-58.499397039413395" lat="-34.63142468415817">
                <ele>19.0</ele>
                <name>Av. Juan B. Justo</name>
            </trkpt>
            <trkpt lon="-58.50112438201904" lat="-34.632148573097815">
                <ele>22.0</ele>
                <name>Av. Lope de Vega</name>
            </trkpt>
            <trkpt lon="-58.523064851760864" lat="-34.6155328480435">
                <ele>32.0</ele>
                <name>Varela</name>
            </trkpt>
            <trkpt lon="-58.521820306777954" lat="-34.61433200788112">
                <ele>30.0</ele>
                <name>Calderón de La Barca</name>
            </trkpt>
            <trkpt lon="-58.52360665798136" lat="-34.61294572192483">
                <ele>30.0</ele>
                <time>2012-01-03T23:13:35.243Z</time>
                <name>Av. Beiro</name>
            </trkpt>
            <trkpt lon="-58.52633714675903" lat="-34.614808814142684">
                <ele>32.0</ele>
                <name>Av. Beiro</name>
            </trkpt>
            <trkpt lon="-58.53024244308472" lat="-34.617881499908634">
                <ele>28.0</ele>
                <name>Av. Beiro</name>
            </trkpt>
            <trkpt lon="-58.531293869018555" lat="-34.61796096441091">
                <ele>29.0</ele>
                <name>Lorca</name>
            </trkpt>
            <trkpt lon="-58.53349328041077" lat="-34.61898516674181">
                <ele>28.0</ele>
                <name>José Ingenieros</name>
            </trkpt>
            <trkpt lon="-58.53686213493347" lat="-34.61638931901615">
                <ele>28.0</ele>
                <name>Asuncion</name>
            </trkpt>
            <trkpt lon="-58.539286851882935" lat="-34.61730758735541">
                <ele>31.0</ele>
                <name>Rep. Arabe Siria</name>
            </trkpt>
            <trkpt lon="-58.54015588760376" lat="-34.616680693724135">
                <ele>31.0</ele>
                <name>Av. Marcelo T. de Alvear</name>
            </trkpt>
            <trkpt lon="-58.54491949081421" lat="-34.61840243248263">
                <ele>31.0</ele>
                <name>Puan</name>
            </trkpt>
            <trkpt lon="-58.552086353302" lat="-34.617775547120566">
                <ele>30.0</ele>
                <name>Puan</name>
            </trkpt>
            <trkpt lon="-58.5555624961853" lat="-34.615524018399825">
                <ele>30.0</ele>
                <name>Puan</name>
            </trkpt>
            <trkpt lon="-58.56261134147644" lat="-34.61527678799549">
                <ele>30.0</ele>
                <name>Av. Libertador San Martín</name>
            </trkpt>
            <trkpt lon="-58.56220364570618" lat="-34.60906929759033">
                <ele>33.0</ele>
                <name>La Merced</name>
            </trkpt>
            <trkpt lon="-58.56058359146118" lat="-34.60909578857821">
                <ele>32.0</ele>
                <name>Magdalena</name>
            </trkpt>
            <trkpt lon="-58.56042265892029" lat="-34.605969793664336">
                <ele>33.0</ele>
                <name>Urquiza</name>
            </trkpt>
            <trkpt lon="-58.57104499999999" lat="-34.605492">
                <ele>30.0</ele>
                <name>Olavarría</name>
            </trkpt>
            <trkpt lon="-58.57141971588135" lat="-34.61074704347096">
                <ele>31.0</ele>
                <time>2011-09-07T14:15:21.621Z</time>
                <name>Olavarría</name>
            </trkpt>
            <trkpt lon="-58.5716986656189" lat="-34.614844133016064">
                <ele>30.0</ele>
                <name>Puan</name>
            </trkpt>
            <trkpt lon="-58.57890844345093" lat="-34.614455624582284">
                <ele>31.0</ele>
                <name>de Rosas</name>
            </trkpt>
            <trkpt lon="-58.579069375991764" lat="-34.617740229494494">
                <ele>29.0</ele>
                <name>:2way:Cocchiararo</name>
            </trkpt>
            <trkpt lon="-58.57187032699585" lat="-34.61804042883712">
                <ele>30.0</ele>
                <name>Olavarría</name>
            </trkpt>
            <trkpt lon="-58.572514057159424" lat="-34.62847609565287">
                <ele>30.0</ele>
                <name>Perdriel</name>
            </trkpt>
            <trkpt lon="-58.57154846191406" lat="-34.629782668758914">
                <ele>31.0</ele>
                <name>Illia</name>
            </trkpt>
            <trkpt lon="-58.57435941696167" lat="-34.63089500532233">
                <ele>28.0</ele>
                <name>Illia</name>
            </trkpt>
            <trkpt lon="-58.57515335083008" lat="-34.63168952230788">
                <ele>28.0</ele>
                <name>3 de Febrero</name>
            </trkpt>
            <trkpt lon="-58.56563687324524" lat="-34.63752457499103">
                <ele>24.0</ele>
                <name>:2way:9 de Julio</name>
            </trkpt>
            <trkpt lon="-58.56506824493408" lat="-34.64024333982684">
                <ele>27.0</ele>
                <time>2011-09-07T14:18:46.878Z</time>
                <name>Alem</name>
            </trkpt>
            <trkpt lon="-58.56386661529541" lat="-34.64007562639371">
                <ele>26.0</ele>
                <time>2011-09-07T14:18:46.878Z</time>
                <name>Ricchieri</name>
            </trkpt>
            <trkpt lon="-58.56436014175415" lat="-34.63789532089859">
                <ele>27.0</ele>
                <time>2011-09-07T14:18:46.878Z</time>
                <name>Av. Gaona</name>
            </trkpt>
            <trkpt lon="-58.56478929519653" lat="-34.63791297542429">
                <ele>27.0</ele>
                <time>2011-09-07T14:18:46.878Z</time>
                <name>:2way:3 de Febrero</name>
            </trkpt>
            <trkpt lon="-58.56765389442444" lat="-34.636235778704325">
                <ele>28.0</ele>
                <time>2011-09-07T14:18:46.878Z</time>
                <name>Gelly y Obes</name>
            </trkpt>
            <trkpt lon="-58.58183741569519" lat="-34.635988610004574">
                <ele>28.0</ele>
                <name>Peru</name>
            </trkpt>
            <trkpt lon="-58.581955432891846" lat="-34.638071865986376">
                <ele>30.0</ele>
                <name>Peru</name>
            </trkpt>
            <trkpt lon="-58.58267426490784" lat="-34.63861915337024">
                <ele>30.0</ele>
                <name>Güemes</name>
            </trkpt>
            <trkpt lon="-58.580507040023804" lat="-34.64019920474575">
                <ele>30.0</ele>
                <name>Bayle</name>
            </trkpt>
            <trkpt lon="-58.58140826225281" lat="-34.641090728829006">
                <ele>34.0</ele>
                <time>2011-09-07T14:20:44.730Z</time>
                <name>Llavallol</name>
            </trkpt>
            <trkpt lon="-58.58276009559631" lat="-34.641240786395706">
                <ele>29.0</ele>
                <name>Punchauca</name>
            </trkpt>
            <trkpt lon="-58.58293175697327" lat="-34.640428706910946">
                <ele>29.0</ele>
                <name>Rubens</name>
            </trkpt>
            <trkpt lon="-58.58388662338257" lat="-34.639643100711424">
                <ele>30.0</ele>
                <name>Rubens</name>
            </trkpt>
        </trkseg>
    </trk>
    <trk>
        <name>B - Almagro por Puan</name>
        <trkseg>
            <trkpt lon="-58.58388662338257" lat="-34.639643100711424">
                <ele>30.0</ele>
                <name>Rubens</name>
            </trkpt>
            <trkpt lon="-58.587234020233154" lat="-34.63725975547096">
                <ele>29.0</ele>
                <name>Argerich</name>
            </trkpt>
            <trkpt lon="-58.58741641044617" lat="-34.636156331702594">
                <ele>29.0</ele>
                <name>Lambaré</name>
            </trkpt>
            <trkpt lon="-58.58532428741455" lat="-34.63489399690915">
                <ele>34.0</ele>
                <time>2011-09-07T14:20:44.730Z</time>
                <name>Estanislao de Campo</name>
            </trkpt>
            <trkpt lon="-58.58176231384277" lat="-34.63499992784002">
                <ele>30.0</ele>
                <name>Perú</name>
            </trkpt>
            <trkpt lon="-58.58189105987549" lat="-34.6370743813038">
                <ele>28.0</ele>
                <name>Emilio Mitre</name>
            </trkpt>
            <trkpt lon="-58.576226234436035" lat="-34.637330374092315">
                <ele>26.0</ele>
                <time>2011-09-07T14:18:46.878Z</time>
                <name>Emilio Mitre</name>
            </trkpt>
            <trkpt lon="-58.5661518573761" lat="-34.63723327347244">
                <ele>28.0</ele>
                <time>2011-09-07T14:18:46.878Z</time>
                <name>:2way:3 de Febrero</name>
            </trkpt>
            <trkpt lon="-58.56565833091736" lat="-34.63754222959564">
                <ele>27.0</ele>
                <time>2011-09-07T14:18:46.878Z</time>
                <name>:2way:9 de Julio</name>
            </trkpt>
            <trkpt lon="-58.5650360584259" lat="-34.640234512812505">
                <ele>27.0</ele>
                <time>2011-09-07T14:18:46.878Z</time>
                <name>Alem</name>
            </trkpt>
            <trkpt lon="-58.56384515762329" lat="-34.64003149122335">
                <ele>26.0</ele>
                <time>2011-09-07T14:18:46.878Z</time>
                <name>Ricchieri</name>
            </trkpt>
            <trkpt lon="-58.56434941291809" lat="-34.637921802685725">
                <ele>27.0</ele>
                <time>2011-09-07T14:18:46.878Z</time>
                <name>Av. Gaona</name>
            </trkpt>
            <trkpt lon="-58.56495022773743" lat="-34.63793062994622">
                <ele>24.0</ele>
                <name>3 de Febrero</name>
            </trkpt>
            <trkpt lon="-58.57511043548584" lat="-34.63166303853095">
                <ele>28.0</ele>
                <name>Illia</name>
            </trkpt>
            <trkpt lon="-58.57435941696167" lat="-34.63089500532233">
                <ele>28.0</ele>
                <name>Illia</name>
            </trkpt>
            <trkpt lon="-58.571462631225586" lat="-34.629773840631294">
                <ele>31.0</ele>
                <name>Perdriel</name>
            </trkpt>
            <trkpt lon="-58.572514057159424" lat="-34.62847609565287">
                <ele>30.0</ele>
                <name>Olavarría</name>
            </trkpt>
            <trkpt lon="-58.571999073028564" lat="-34.620053502257115">
                <ele>30.0</ele>
                <name>Tejedor</name>
            </trkpt>
            <trkpt lon="-58.57888698577881" lat="-34.619744481001014">
                <ele>28.0</ele>
                <name>Perdriel</name>
            </trkpt>
            <trkpt lon="-58.58041048049927" lat="-34.61767842361269">
                <ele>31.0</ele>
                <name>Cocchiararo</name>
            </trkpt>
            <trkpt lon="-58.57911229133606" lat="-34.61770491185337">
                <ele>29.0</ele>
                <name>de Rosas</name>
            </trkpt>
            <trkpt lon="-58.57887625694275" lat="-34.61560348515912">
                <ele>31.0</ele>
                <name>Juan de Garay</name>
            </trkpt>
            <trkpt lon="-58.569971323013306" lat="-34.61603613618063">
                <ele>30.0</ele>
                <name>Hornos</name>
            </trkpt>
            <trkpt lon="-58.56931686401367" lat="-34.60559007440184">
                <ele>30.0</ele>
                <name>Urquiza</name>
            </trkpt>
            <trkpt lon="-58.5620641708374" lat="-34.605943301679105">
                <ele>33.0</ele>
                <name>Av. Libertador San Martín</name>
            </trkpt>
            <trkpt lon="-58.56255769729614" lat="-34.61452626261459">
                <ele>30.0</ele>
                <name>Parodi</name>
            </trkpt>
            <trkpt lon="-58.555262088775635" lat="-34.61477349525427">
                <ele>30.0</ele>
                <name>Parodi</name>
            </trkpt>
            <trkpt lon="-58.55187177658081" lat="-34.61689260196021">
                <ele>30.0</ele>
                <name>Parodi</name>
            </trkpt>
            <trkpt lon="-58.550519943237305" lat="-34.61713982755189">
                <ele>30.0</ele>
                <time>2011-09-07T14:41:39.217Z</time>
                <name>Lima</name>
            </trkpt>
            <trkpt lon="-58.550691604613746" lat="-34.61918380816955">
                <ele>32.0</ele>
                <time>2011-09-07T14:41:39.217Z</time>
                <name>Lima</name>
            </trkpt>
            <trkpt lon="-58.5501337051391" lat="-34.620503788313286">
                <ele>31.0</ele>
                <time>2011-09-07T14:41:39.217Z</time>
                <name>Lima</name>
            </trkpt>
            <trkpt lon="-58.539007902145386" lat="-34.61623921649467">
                <ele>31.0</ele>
                <name>Ejercito de Los Andes</name>
            </trkpt>
            <trkpt lon="-58.533021211624146" lat="-34.62069802860287">
                <ele>28.0</ele>
                <name>San Roque</name>
            </trkpt>
            <trkpt lon="-58.531036376953125" lat="-34.61901165456547">
                <ele>28.0</ele>
                <name>Av. Gral. Paz</name>
            </trkpt>
            <trkpt lon="-58.530306816101074" lat="-34.61887921536266">
                <ele>29.0</ele>
                <name>Av. Gral. Paz</name>
            </trkpt>
            <trkpt lon="-58.53039264678955" lat="-34.61809340507899">
                <ele>28.0</ele>
                <name>Av. Beiro</name>
            </trkpt>
            <trkpt lon="-58.5251784324646" lat="-34.613978816292004">
                <ele>32.0</ele>
                <name>Av. Lope de Vega</name>
            </trkpt>
            <trkpt lon="-58.50112438201904" lat="-34.632148573097815">
                <ele>22.0</ele>
                <name>Av. Lope de Vega</name>
            </trkpt>
            <trkpt lon="-58.50053429603577" lat="-34.632360441836404">
                <ele>21.0</ele>
                <time>2011-09-07T14:31:54.971Z</time>
                <name>Av. Lope de Vega</name>
            </trkpt>
            <trkpt lon="-58.50043773651123" lat="-34.632731210826876">
                <ele>21.0</ele>
                <time>2011-09-07T14:31:54.971Z</time>
                <name>Morón</name>
            </trkpt>
            <trkpt lon="-58.49895715713501" lat="-34.632554654371425">
                <ele>19.0</ele>
                <name>Morón</name>
            </trkpt>
            <trkpt lon="-58.494858741760254" lat="-34.630842037252734">
                <ele>23.0</ele>
                <name>Morón</name>
            </trkpt>
            <trkpt lon="-58.493614196777344" lat="-34.63054188421958">
                <ele>19.0</ele>
                <name>Morón</name>
            </trkpt>
            <trkpt lon="-58.48927974700928" lat="-34.62847609565287">
                <ele>20.0</ele>
                <time>2011-09-07T14:32:28.426Z</time>
                <name>Morón</name>
            </trkpt>
            <trkpt lon="-58.472607135772705" lat="-34.624167789904895">
                <ele>21.0</ele>
                <time>2011-09-07T14:32:28.426Z</time>
                <name>Av. Nazca</name>
            </trkpt>
            <trkpt lon="-58.47391605377197" lat="-34.62118362733787">
                <ele>19.0</ele>
                <name>Neuquén</name>
            </trkpt>
            <trkpt lon="-58.467864990234375" lat="-34.61925887384529">
                <ele>20.0</ele>
                <name>Neuquén</name>
            </trkpt>
            <trkpt lon="-58.46325159072876" lat="-34.61728109898793">
                <ele>25.0</ele>
                <name>Neuquén</name>
            </trkpt>
            <trkpt lon="-58.45853090286255" lat="-34.61585071459041">
                <ele>20.0</ele>
                <name>Neuquén</name>
            </trkpt>
            <trkpt lon="-58.45202922821045" lat="-34.61569178146911">
                <ele>25.0</ele>
                <name>Neuquén</name>
            </trkpt>
            <trkpt lon="-58.44906806945801" lat="-34.61586837380732">
                <ele>27.0</ele>
                <name>Mendez de Andes</name>
            </trkpt>
            <trkpt lon="-58.44052791595459" lat="-34.61260135473587">
                <ele>27.0</ele>
                <name>Hidalgo</name>
            </trkpt>
            <trkpt lon="-58.43906879425049" lat="-34.615939010637405">
                <ele>37.0</ele>
                <name>Neuquén</name>
            </trkpt>
            <trkpt lon="-58.437631130218506" lat="-34.61586837380732">
                <ele>36.0</ele>
                <name>Av. Acoyte</name>
            </trkpt>
            <trkpt lon="-58.43552827835083" lat="-34.62038900974666">
                <ele>38.0</ele>
                <name>Guayaquil</name>
            </trkpt>
            <trkpt lon="-58.43703031539917" lat="-34.62104236254439">
                <ele>39.0</ele>
                <time>2011-09-07T14:35:18.689Z</time>
                <name>Riglos</name>
            </trkpt>
            <trkpt lon="-58.43685865402222" lat="-34.62146615620347">
                <ele>37.0</ele>
                <time>2011-09-07T14:35:18.689Z</time>
                <name>Formosa</name>
            </trkpt>
            <trkpt lon="-58.42808246612549" lat="-34.620653883122436">
                <ele>28.0</ele>
                <name>Mejico</name>
            </trkpt>
            <trkpt lon="-58.424198627471924" lat="-34.62038900974666">
                <ele>31.0</ele>
                <name>Treinta Y Tres Orientales</name>
            </trkpt>
            <trkpt lon="-58.42402696609497" lat="-34.621519130258676">
                <ele>31.0</ele>
                <name>Treinta Y Tres Orientales</name>
            </trkpt>
            <trkpt lon="-58.42376947402954" lat="-34.621519130258676">
                <ele>27.0</ele>
                <name>Treinta Y Tres Orientales</name>
            </trkpt>
            <trkpt lon="-58.4232759475708" lat="-34.62489174216306">
                <ele>25.0</ele>
                <name>Treinta Y Tres Orientales</name>
            </trkpt>
            <trkpt lon="-58.42256784439087" lat="-34.62775217466807">
                <ele>22.0</ele>
                <name>Cochabamba</name>
            </trkpt>
            <trkpt lon="-58.423898220062256" lat="-34.62785811471891">
                <ele>31.0</ele>
                <time>2011-09-07T14:36:33.446Z</time>
                <name>Marmol</name>
            </trkpt>
            <trkpt lon="-58.42361927032471" lat="-34.62904110276437">
                <ele>30.0</ele>
                <time>2011-09-07T14:36:48.397Z</time>
                <name>Marmol</name>
            </trkpt>
        </trkseg>
    </trk>
</gpx>
