<?xml version="1.0" encoding="UTF-8" standalone="yes"?>
<gpx xmlns="http://www.topografix.com/GPX/1/1" xmlns:gpxtrx="http://www.garmin.com/xmlschemas/GpxExtensions/v3" xmlns:rcxx="http://www.routeconverter.de/xmlschemas/RouteCatalogExtensions/1.0" xmlns:xsi="http://www.w3.org/2001/XMLSchema-instance" xmlns:gpxtpx="http://www.garmin.com/xmlschemas/TrackPointExtension/v1" xmlns:gpxx="http://www.garmin.com/xmlschemas/WaypointExtension/v1" xmlns:nmea="http://trekbuddy.net/2009/01/gpx/nmea" creator="Generated by Christian Pesch's RouteConverter. See http://www.routeconverter.com" version="1.1">
    <trk>
        <name>A - Wilde por Cementerio de Avellaneda</name>
        <desc>&lt;a href=&quot;http://www.masmapas.com/colectivo-24-estacion-villa-del-parque-cementerio-de-avellaneda-wilde&quot;&gt;Mas info sobre la linea de colectivos 24 (Colectivo 24 - Estación Villa Del Parque,
Cementerio De Avellaneda,
Wilde)&lt;/a&gt;</desc>
        <trkseg>
            <trkpt lon="-58.49464416503906" lat="-34.60222550926995">
                <ele>0.0</ele>
                <name>Cuenca</name>
            </trkpt>
            <trkpt lon="-58.48888278007507" lat="-34.60897216389586">
                <ele>0.0</ele>
                <name>Lascano</name>
            </trkpt>
            <trkpt lon="-58.48275661468506" lat="-34.60560773580139">
                <ele>26.0</ele>
                <time>2011-07-18T22:43:24.365Z</time>
                <name>Lascano</name>
            </trkpt>
            <trkpt lon="-58.48051428794861" lat="-34.60468050724683">
                <ele>26.0</ele>
                <time>2011-07-18T22:43:24.365Z</time>
                <name>Lascano</name>
            </trkpt>
            <trkpt lon="-58.47639441490173" lat="-34.60236680608584">
                <ele>28.0</ele>
                <time>2011-07-18T22:43:24.365Z</time>
                <name>Lascano</name>
            </trkpt>
            <trkpt lon="-58.47594380378723" lat="-34.60045927878758">
                <ele>0.0</ele>
                <name>Av. San Martín</name>
            </trkpt>
            <trkpt lon="-58.46895933151245" lat="-34.601854603984435">
                <ele>0.0</ele>
                <name>Av. San Martín</name>
            </trkpt>
            <trkpt lon="-58.450688123703" lat="-34.606499631593856">
                <ele>0.0</ele>
                <name>Repetto</name>
            </trkpt>
            <trkpt lon="-58.45002293586731" lat="-34.60734736524896">
                <ele>0.0</ele>
                <name>Cnel. Apolinario Figueroa</name>
            </trkpt>
            <trkpt lon="-58.44253420829773" lat="-34.60223434032798">
                <ele>22.0</ele>
                <time>2011-07-18T22:44:53.019Z</time>
                <name>Av. Raúl Scalabrini Ortiz</name>
            </trkpt>
            <trkpt lon="-58.43876838684082" lat="-34.59986758317667">
                <ele>0.0</ele>
                <name>Av. Corrientes</name>
            </trkpt>
            <trkpt lon="-58.432159423828125" lat="-34.60204888791201">
                <ele>0.0</ele>
                <name>Av. Corrientes</name>
            </trkpt>
            <trkpt lon="-58.41798663139343" lat="-34.60344418640194">
                <ele>0.0</ele>
                <name>Av. Corrientes</name>
            </trkpt>
            <trkpt lon="-58.413190841674805" lat="-34.60417715026711">
                <ele>0.0</ele>
                <name>Av. Corrientes</name>
            </trkpt>
            <trkpt lon="-58.41031551361084" lat="-34.60400936392918">
                <ele>0.0</ele>
                <name>Av. Corrientes</name>
            </trkpt>
            <trkpt lon="-58.40362071990967" lat="-34.60475115359631">
                <ele>0.0</ele>
                <name>Av. Corrientes</name>
            </trkpt>
            <trkpt lon="-58.3922803401947" lat="-34.60444207537361">
                <ele>0.0</ele>
                <name>Av. Corrientes</name>
            </trkpt>
            <trkpt lon="-58.382248878479004" lat="-34.60373560654476">
                <ele>0.0</ele>
                <name>Av. Corrientes</name>
            </trkpt>
            <trkpt lon="-58.380939960479736" lat="-34.6040535182615">
                <ele>0.0</ele>
                <name>Av. Pres. Roque Sáenz Pena</name>
            </trkpt>
            <trkpt lon="-58.37354779243469" lat="-34.607965498916144">
                <ele>0.0</ele>
                <name>Bolivar</name>
            </trkpt>
            <trkpt lon="-58.373463" lat="-34.608963">
                <ele>0.0</ele>
                <name>Av. Pres. Julio A. Roca</name>
            </trkpt>
            <trkpt lon="-58.37752819061279" lat="-34.61283093324914">
                <ele>36.0</ele>
                <time>2011-07-18T23:15:01.650Z</time>
                <name>Av. Belgrano</name>
            </trkpt>
            <trkpt lon="-58.373344" lat="-34.612591">
                <ele>0.0</ele>
                <name>Bolivar</name>
            </trkpt>
            <trkpt lon="-58.37257146835327" lat="-34.62676339433702">
                <ele>0.0</ele>
                <name>Bolivar</name>
            </trkpt>
            <trkpt lon="-58.372474908828735" lat="-34.627769831352595">
                <ele>17.0</ele>
                <time>2011-07-18T22:47:43.881Z</time>
                <name>Bolivar</name>
            </trkpt>
            <trkpt lon="-58.37169170379639" lat="-34.63055954031041">
                <ele>0.0</ele>
                <name>Av. Martín Garcia</name>
            </trkpt>
            <trkpt lon="-58.37068319320679" lat="-34.62950016820924">
                <ele>0.0</ele>
                <name>Av. Patricios</name>
            </trkpt>
            <trkpt lon="-58.37029695510864" lat="-34.63360515974753">
                <ele>12.0</ele>
                <time>2011-07-18T22:48:01.320Z</time>
                <name>Av. Patricios</name>
            </trkpt>
            <trkpt lon="-58.36819410324097" lat="-34.64733112904415">
                <ele>0.0</ele>
                <name>Av. Gral. Iriarte</name>
            </trkpt>
            <trkpt lon="-58.374931" lat="-34.648529">
                <ele>0.0</ele>
                <name>Herrera</name>
            </trkpt>
            <trkpt lon="-58.374513387680054" lat="-34.649828922823154">
                <ele>0.0</ele>
                <name>Au. 9 de Julio</name>
            </trkpt>
            <trkpt lon="-58.37311863899231" lat="-34.650658562057686">
                <ele>0.0</ele>
                <name>Au. 9 de Julio</name>
            </trkpt>
            <trkpt lon="-58.37233543395996" lat="-34.65245902715334">
                <ele>0.0</ele>
                <name>Au. 9 de Julio</name>
            </trkpt>
            <trkpt lon="-58.37111234664917" lat="-34.65598923735493">
                <ele>0.0</ele>
                <name>Au. 9 de Julio</name>
            </trkpt>
            <trkpt lon="-58.37037205696106" lat="-34.6574542304422">
                <ele>10.0</ele>
                <time>2011-07-18T22:48:50.571Z</time>
                <name>Au. 9 de Julio</name>
            </trkpt>
            <trkpt lon="-58.37009310722351" lat="-34.659016272858004">
                <ele>0.0</ele>
                <name>Maipú</name>
            </trkpt>
            <trkpt lon="-58.37033987045288" lat="-34.65961637172055">
                <ele>0.0</ele>
                <name>Av. Belgrano</name>
            </trkpt>
            <trkpt lon="-58.36934208869934" lat="-34.66031353994228">
                <ele>11.0</ele>
                <time>2011-07-18T22:49:06.796Z</time>
                <name>Av. Belgrano</name>
            </trkpt>
            <trkpt lon="-58.36533" lat="-34.666046">
                <ele>0.0</ele>
                <name>Av. Belgrano</name>
            </trkpt>
            <trkpt lon="-58.36119890213013" lat="-34.67222626757144">
                <ele>0.0</ele>
                <name>Av. Gral. Güemes</name>
            </trkpt>
            <trkpt lon="-58.361746072769165" lat="-34.67293215322489">
                <ele>0.0</ele>
                <name>Av. Belgrano</name>
            </trkpt>
            <trkpt lon="-58.35844159126282" lat="-34.67474095775365">
                <ele>0.0</ele>
                <name>Av. Belgrano</name>
            </trkpt>
            <trkpt lon="-58.339762687683105" lat="-34.690180363998806">
                <ele>0.0</ele>
                <name>San Lorenzo</name>
            </trkpt>
            <trkpt lon="-58.34713339805603" lat="-34.69638178345271">
                <ele>0.0</ele>
                <name>Av. Crisólogo Larralde</name>
            </trkpt>
            <trkpt lon="-58.33984851837158" lat="-34.70240633058087">
                <ele>0.0</ele>
                <name>Av. Crisólogo Larralde</name>
            </trkpt>
            <trkpt lon="-58.33709120750427" lat="-34.70450555727188">
                <ele>0.0</ele>
                <name>Matanza</name>
            </trkpt>
            <trkpt lon="-58.3418869972229" lat="-34.70865975224447">
                <ele>0.0</ele>
                <name>Cnel. Casacuberta</name>
            </trkpt>
            <trkpt lon="-58.33394765853882" lat="-34.715177272530966">
                <ele>0.0</ele>
                <name>Paysandú</name>
            </trkpt>
            <trkpt lon="-58.33358400000001" lat="-34.714859">
                <ele>0.0</ele>
                <name>Cnel. Casacuberta</name>
            </trkpt>
            <trkpt lon="-58.32962393760681" lat="-34.71792876425124">
                <ele>0.0</ele>
                <name>Salcedo</name>
            </trkpt>
            <trkpt lon="-58.334881" lat="-34.722706">
                <ele>0.0</ele>
                <name>Manuel Raposo</name>
            </trkpt>
            <trkpt lon="-58.33723068237305" lat="-34.7209799909571">
                <ele>0.0</ele>
                <name>Onzari</name>
            </trkpt>
            <trkpt lon="-58.33807826042175" lat="-34.72168546087408">
                <ele>0.0</ele>
                <name>Onzari y Camacuá</name>
            </trkpt>
        </trkseg>
    </trk>
    <trk>
        <name>A - Estación Villa del Parque por Cementerio de Avellaneda</name>
        <desc>&lt;a href=&quot;http://www.masmapas.com/colectivo-24-estacion-villa-del-parque-cementerio-de-avellaneda-wilde&quot;&gt;Mas info sobre la linea de colectivos 24 (Colectivo 24 - Estación Villa Del Parque,
Cementerio De Avellaneda,
Wilde)&lt;/a&gt;</desc>
        <trkseg>
            <trkpt lon="-58.338056802749634" lat="-34.721676642537275">
                <ele>0.0</ele>
                <name>Onzari</name>
            </trkpt>
            <trkpt lon="-58.337231" lat="-34.721058">
                <ele>0.0</ele>
                <name>Raposo</name>
            </trkpt>
            <trkpt lon="-58.33489179611206" lat="-34.722752472686">
                <ele>0.0</ele>
                <name>Salcedo</name>
            </trkpt>
            <trkpt lon="-58.330387" lat="-34.718647">
                <ele>0.0</ele>
                <name>Cnel. Casacuberta</name>
            </trkpt>
            <trkpt lon="-58.33434462547302" lat="-34.71551239500841">
                <ele>0.0</ele>
                <name>Paysandú</name>
            </trkpt>
            <trkpt lon="-58.3339262008667" lat="-34.71515081543543">
                <ele>0.0</ele>
                <name>Cnel. Casacuberta</name>
            </trkpt>
            <trkpt lon="-58.342788219451904" lat="-34.707954171202715">
                <ele>0.0</ele>
                <name>Chascomús</name>
            </trkpt>
            <trkpt lon="-58.33687663078308" lat="-34.702873810042135">
                <ele>0.0</ele>
                <name>Gral. Arredondo</name>
            </trkpt>
            <trkpt lon="-58.345288038253784" lat="-34.696073046675735">
                <ele>0.0</ele>
                <name>El Salvador</name>
            </trkpt>
            <trkpt lon="-58.339043" lat="-34.690727">
                <ele>0.0</ele>
                <name>Av. Belgrano</name>
            </trkpt>
            <trkpt lon="-58.34062099456787" lat="-34.68950991244288">
                <ele>8.0</ele>
                <time>2011-07-18T22:53:40.837Z</time>
                <name>Av. Belgrano</name>
            </trkpt>
            <trkpt lon="-58.35840940475464" lat="-34.674776251107644">
                <ele>0.0</ele>
                <name>Av. Belgrano</name>
            </trkpt>
            <trkpt lon="-58.360769748687744" lat="-34.67344391656199">
                <ele>0.0</ele>
                <name>Av. Belgrano</name>
            </trkpt>
            <trkpt lon="-58.36058735847473" lat="-34.67317921178241">
                <ele>9.0</ele>
                <time>2011-07-18T22:54:00.451Z</time>
                <name>Av. Belgrano</name>
            </trkpt>
            <trkpt lon="-58.36388111114502" lat="-34.66829966882956">
                <ele>0.0</ele>
                <name>Arenales</name>
            </trkpt>
            <trkpt lon="-58.359525203704834" lat="-34.665317094176416">
                <ele>0.0</ele>
                <name>Av. Mitre</name>
            </trkpt>
            <trkpt lon="-58.36438536643982" lat="-34.662855065565374">
                <ele>0.0</ele>
                <name>Av. Mitre</name>
            </trkpt>
            <trkpt lon="-58.37015748023987" lat="-34.65871622179715">
                <ele>0.0</ele>
                <name>Au. 9 de Julio</name>
            </trkpt>
            <trkpt lon="-58.37031841278076" lat="-34.65740127933591">
                <ele>0.0</ele>
                <name>Au. 9 de Julio</name>
            </trkpt>
            <trkpt lon="-58.371015787124634" lat="-34.65590980927884">
                <ele>0.0</ele>
                <name>Au. 9 de Julio</name>
            </trkpt>
            <trkpt lon="-58.371883" lat="-34.653446">
                <ele>0.0</ele>
                <name>Au. 9 de Julio</name>
            </trkpt>
            <trkpt lon="-58.372710943222046" lat="-34.649678880798426">
                <ele>0.0</ele>
                <name>Av. Montes de Oca</name>
            </trkpt>
            <trkpt lon="-58.37265729904175" lat="-34.64884923175953">
                <ele>0.0</ele>
                <name>Av. Montes de Oca</name>
            </trkpt>
            <trkpt lon="-58.372946977615356" lat="-34.64743704408914">
                <ele>0.0</ele>
                <name>Gral. Daniel Cerri</name>
            </trkpt>
            <trkpt lon="-58.36832284927368" lat="-34.64643967205361">
                <ele>0.0</ele>
                <name>Av. Patricios</name>
            </trkpt>
            <trkpt lon="-58.37027549743652" lat="-34.63359633202669">
                <ele>0.0</ele>
                <name>Av. Patricios</name>
            </trkpt>
            <trkpt lon="-58.37064027786255" lat="-34.629447199249086">
                <ele>16.0</ele>
                <time>2011-07-18T22:55:41.518Z</time>
                <name>Defensa</name>
            </trkpt>
            <trkpt lon="-58.370995" lat="-34.626629">
                <ele>0.0</ele>
                <name>Av. Caseros</name>
            </trkpt>
            <trkpt lon="-58.37386965751648" lat="-34.626772222784965">
                <ele>0.0</ele>
                <name>Perú</name>
            </trkpt>
            <trkpt lon="-58.374727964401245" lat="-34.61265433444913">
                <ele>21.0</ele>
                <time>2011-07-18T23:13:11.145Z</time>
                <name>Av. Belgrano</name>
            </trkpt>
            <trkpt lon="-58.37753891944885" lat="-34.612848593108474">
                <ele>0.0</ele>
                <name>Av. Pres. Julio A. Roca</name>
            </trkpt>
            <trkpt lon="-58.37335467338562" lat="-34.60892801217897">
                <ele>0.0</ele>
                <name>Bolivar</name>
            </trkpt>
            <trkpt lon="-58.373472690582275" lat="-34.60846000253661">
                <ele>0.0</ele>
                <name>Av. de Mayo</name>
            </trkpt>
            <trkpt lon="-58.380693197250366" lat="-34.60898982457604">
                <ele>0.0</ele>
                <name>Carlos Pellegrini</name>
            </trkpt>
            <trkpt lon="-58.38103652000427" lat="-34.60252576471637">
                <ele>0.0</ele>
                <name>Lavalle</name>
            </trkpt>
            <trkpt lon="-58.40088486671448" lat="-34.60344418640194">
                <ele>0.0</ele>
                <name>Lavalle</name>
            </trkpt>
            <trkpt lon="-58.405176401138306" lat="-34.60333821518735">
                <ele>27.0</ele>
                <time>2011-07-18T22:57:54.270Z</time>
                <name>Lavalle</name>
            </trkpt>
            <trkpt lon="-58.408470153808594" lat="-34.6029319909454">
                <ele>0.0</ele>
                <name>Jean Jaures</name>
            </trkpt>
            <trkpt lon="-58.40999364852905" lat="-34.60673805755915">
                <ele>0.0</ele>
                <name>Sarmiento</name>
            </trkpt>
            <trkpt lon="-58.41704249382019" lat="-34.60549293663718">
                <ele>34.0</ele>
                <time>2011-07-18T22:58:14.828Z</time>
                <name>Sarmiento</name>
            </trkpt>
            <trkpt lon="-58.424351" lat="-34.604458">
                <ele>0.0</ele>
                <name>Sarmiento</name>
            </trkpt>
            <trkpt lon="-58.43233108520508" lat="-34.60392105519411">
                <ele>0.0</ele>
                <name>Antonio Machado</name>
            </trkpt>
            <trkpt lon="-58.43324303627014" lat="-34.604265458729856">
                <ele>0.0</ele>
                <name>Ramos Mejía</name>
            </trkpt>
            <trkpt lon="-58.433876037597656" lat="-34.602914328976766">
                <ele>0.0</ele>
                <name>Vera</name>
            </trkpt>
            <trkpt lon="-58.43534588813782" lat="-34.60147486590457">
                <ele>0.0</ele>
                <name>Lavalleja</name>
            </trkpt>
            <trkpt lon="-58.43438" lat="-34.600864">
                <ele>0.0</ele>
                <name>Juan Ramirez de Velazco</name>
            </trkpt>
            <trkpt lon="-58.436644077301025" lat="-34.598489887510254">
                <ele>0.0</ele>
                <name>Av. Raúl Scalabrini Ortiz</name>
            </trkpt>
            <trkpt lon="-58.44226598739624" lat="-34.60199590143138">
                <ele>0.0</ele>
                <name>Murillo</name>
            </trkpt>
            <trkpt lon="-58.442837" lat="-34.601463">
                <ele>0.0</ele>
                <name>Luis Viale</name>
            </trkpt>
            <trkpt lon="-58.4507417678833" lat="-34.60648197038401">
                <ele>0.0</ele>
                <name>Av. San Martín</name>
            </trkpt>
            <trkpt lon="-58.47576141357422" lat="-34.60020317224953">
                <ele>0.0</ele>
                <name>Av. San Martín</name>
            </trkpt>
            <trkpt lon="-58.47594380378723" lat="-34.60048135690044">
                <ele>26.0</ele>
                <time>2011-07-18T23:02:19.830Z</time>
                <name>Av. San Martín</name>
            </trkpt>
            <trkpt lon="-58.4766948223114" lat="-34.60036213502128">
                <ele>26.0</ele>
                <time>2011-07-18T23:02:19.830Z</time>
                <name>Arregui</name>
            </trkpt>
            <trkpt lon="-58.488598465919495" lat="-34.607100110493604">
                <ele>26.0</ele>
                <time>2011-07-18T23:02:19.830Z</time>
                <name>Helguera</name>
            </trkpt>
            <trkpt lon="-58.49311262369156" lat="-34.601695644069274">
                <ele>0.0</ele>
                <name>Gutiérrez</name>
            </trkpt>
            <trkpt lon="-58.49382609128952" lat="-34.60173096852116">
                <ele>0.0</ele>
                <name>Nazarre</name>
            </trkpt>
            <trkpt lon="-58.49464416503906" lat="-34.60221667821097">
                <ele>0.0</ele>
                <name>Nazarre y Cuenca</name>
            </trkpt>
        </trkseg>
    </trk>
    <trk>
        <name>B - Wilde por Lynch</name>
        <trkseg>
            <trkpt lon="-58.49464416503906" lat="-34.60222550926995">
                <ele>0.0</ele>
                <name>Cuenca</name>
            </trkpt>
            <trkpt lon="-58.48888278007507" lat="-34.60897216389586">
                <ele>0.0</ele>
                <name>Lascano</name>
            </trkpt>
            <trkpt lon="-58.48275661468506" lat="-34.60560773580139">
                <ele>26.0</ele>
                <time>2011-07-18T22:43:24.365Z</time>
                <name>Lascano</name>
            </trkpt>
            <trkpt lon="-58.48051428794861" lat="-34.60468050724683">
                <ele>26.0</ele>
                <time>2011-07-18T22:43:24.365Z</time>
                <name>Lascano</name>
            </trkpt>
            <trkpt lon="-58.47639441490173" lat="-34.60236680608584">
                <ele>28.0</ele>
                <time>2011-07-18T22:43:24.365Z</time>
                <name>Lascano</name>
            </trkpt>
            <trkpt lon="-58.47594380378723" lat="-34.60045927878758">
                <ele>0.0</ele>
                <name>Av. San Martín</name>
            </trkpt>
            <trkpt lon="-58.46895933151245" lat="-34.601854603984435">
                <ele>0.0</ele>
                <name>Av. San Martín</name>
            </trkpt>
            <trkpt lon="-58.450688123703" lat="-34.606499631593856">
                <ele>0.0</ele>
                <name>Repetto</name>
            </trkpt>
            <trkpt lon="-58.45002293586731" lat="-34.60734736524896">
                <ele>0.0</ele>
                <name>Cnel. Apolinario Figueroa</name>
            </trkpt>
            <trkpt lon="-58.44253420829773" lat="-34.60223434032798">
                <ele>22.0</ele>
                <time>2011-07-18T22:44:53.019Z</time>
                <name>Av. Raúl Scalabrini Ortiz</name>
            </trkpt>
            <trkpt lon="-58.43876838684082" lat="-34.59986758317667">
                <ele>0.0</ele>
                <name>Av. Corrientes</name>
            </trkpt>
            <trkpt lon="-58.432159423828125" lat="-34.60204888791201">
                <ele>0.0</ele>
                <name>Av. Corrientes</name>
            </trkpt>
            <trkpt lon="-58.41798663139343" lat="-34.60344418640194">
                <ele>0.0</ele>
                <name>Av. Corrientes</name>
            </trkpt>
            <trkpt lon="-58.413190841674805" lat="-34.60417715026711">
                <ele>0.0</ele>
                <name>Av. Corrientes</name>
            </trkpt>
            <trkpt lon="-58.41031551361084" lat="-34.60400936392918">
                <ele>0.0</ele>
                <name>Av. Corrientes</name>
            </trkpt>
            <trkpt lon="-58.40362071990967" lat="-34.60475115359631">
                <ele>0.0</ele>
                <name>Av. Corrientes</name>
            </trkpt>
            <trkpt lon="-58.3922803401947" lat="-34.60444207537361">
                <ele>0.0</ele>
                <name>Av. Corrientes</name>
            </trkpt>
            <trkpt lon="-58.382248878479004" lat="-34.60373560654476">
                <ele>0.0</ele>
                <name>Av. Corrientes</name>
            </trkpt>
            <trkpt lon="-58.380939960479736" lat="-34.6040535182615">
                <ele>0.0</ele>
                <name>Av. Pres. Roque Sáenz Pena</name>
            </trkpt>
            <trkpt lon="-58.37354779243469" lat="-34.607965498916144">
                <ele>0.0</ele>
                <name>Bolivar</name>
            </trkpt>
            <trkpt lon="-58.373463" lat="-34.608963">
                <ele>0.0</ele>
                <name>Av. Pres. Julio A. Roca</name>
            </trkpt>
            <trkpt lon="-58.37752819061279" lat="-34.61283093324914">
                <ele>36.0</ele>
                <time>2011-07-18T23:15:01.650Z</time>
                <name>Av. Belgrano</name>
            </trkpt>
            <trkpt lon="-58.373344" lat="-34.612591">
                <ele>0.0</ele>
                <name>Bolivar</name>
            </trkpt>
            <trkpt lon="-58.37257146835327" lat="-34.62676339433702">
                <ele>0.0</ele>
                <name>Bolivar</name>
            </trkpt>
            <trkpt lon="-58.372474908828735" lat="-34.627769831352595">
                <ele>17.0</ele>
                <time>2011-07-18T22:47:43.881Z</time>
                <name>Bolivar</name>
            </trkpt>
            <trkpt lon="-58.37169170379639" lat="-34.63055954031041">
                <ele>0.0</ele>
                <name>Av. Martín Garcia</name>
            </trkpt>
            <trkpt lon="-58.37068319320679" lat="-34.62950016820924">
                <ele>0.0</ele>
                <name>Av. Patricios</name>
            </trkpt>
            <trkpt lon="-58.37029695510864" lat="-34.63360515974753">
                <ele>12.0</ele>
                <time>2011-07-18T22:48:01.320Z</time>
                <name>Av. Patricios</name>
            </trkpt>
            <trkpt lon="-58.36819410324097" lat="-34.64733112904415">
                <ele>0.0</ele>
                <name>Av. Gral. Iriarte</name>
            </trkpt>
            <trkpt lon="-58.374931" lat="-34.648529">
                <ele>0.0</ele>
                <name>Herrera</name>
            </trkpt>
            <trkpt lon="-58.374513387680054" lat="-34.649828922823154">
                <ele>0.0</ele>
                <name>Au. 9 de Julio</name>
            </trkpt>
            <trkpt lon="-58.37311863899231" lat="-34.650658562057686">
                <ele>0.0</ele>
                <name>Au. 9 de Julio</name>
            </trkpt>
            <trkpt lon="-58.37233543395996" lat="-34.65245902715334">
                <ele>0.0</ele>
                <name>Au. 9 de Julio</name>
            </trkpt>
            <trkpt lon="-58.37111234664917" lat="-34.65598923735493">
                <ele>0.0</ele>
                <name>Au. 9 de Julio</name>
            </trkpt>
            <trkpt lon="-58.37037205696106" lat="-34.6574542304422">
                <ele>10.0</ele>
                <time>2011-07-18T22:48:50.571Z</time>
                <name>Au. 9 de Julio</name>
            </trkpt>
            <trkpt lon="-58.37009310722351" lat="-34.659016272858004">
                <ele>0.0</ele>
                <name>Maipú</name>
            </trkpt>
            <trkpt lon="-58.37033987045288" lat="-34.65961637172055">
                <ele>0.0</ele>
                <name>Av. Belgrano</name>
            </trkpt>
            <trkpt lon="-58.36934208869934" lat="-34.66031353994228">
                <ele>11.0</ele>
                <time>2011-07-18T22:49:06.796Z</time>
                <name>Av. Belgrano</name>
            </trkpt>
            <trkpt lon="-58.36533" lat="-34.666046">
                <ele>0.0</ele>
                <name>Av. Belgrano</name>
            </trkpt>
            <trkpt lon="-58.36119890213013" lat="-34.67222626757144">
                <ele>0.0</ele>
                <name>Av. Gral. Güemes</name>
            </trkpt>
            <trkpt lon="-58.361746072769165" lat="-34.67293215322489">
                <ele>0.0</ele>
                <name>Av. Belgrano</name>
            </trkpt>
            <trkpt lon="-58.35844159126282" lat="-34.67474095775365">
                <ele>0.0</ele>
                <name>Av. Belgrano</name>
            </trkpt>
            <trkpt lon="-58.339751958847046" lat="-34.69019800738747">
                <ele>0.0</ele>
                <name>Av. Belgrano</name>
            </trkpt>
            <trkpt lon="-58.335052728652954" lat="-34.693938320875894">
                <ele>0.0</ele>
                <name>Av. Belgrano</name>
            </trkpt>
            <trkpt lon="-58.3284866809845" lat="-34.69901923068393">
                <ele>0.0</ele>
                <name>Av. Belgrano</name>
            </trkpt>
            <trkpt lon="-58.31625044345856" lat="-34.709118376694235">
                <ele>0.0</ele>
                <name>Domingo Martinto</name>
            </trkpt>
            <trkpt lon="-58.31825137138367" lat="-34.71092639061799">
                <ele>0.0</ele>
                <name>Almirante Solier</name>
            </trkpt>
            <trkpt lon="-58.3173930644989" lat="-34.71159225895889">
                <ele>0.0</ele>
                <name>Cnel. Lynch</name>
            </trkpt>
            <trkpt lon="-58.32120716571808" lat="-34.71546389052336">
                <ele>0.0</ele>
                <name>Gral. Arredondo</name>
            </trkpt>
            <trkpt lon="-58.322542905807495" lat="-34.71445410887361">
                <ele>0.0</ele>
                <name>Domingo Martinto</name>
            </trkpt>
            <trkpt lon="-58.32348167896271" lat="-34.715239005720946">
                <ele>0.0</ele>
                <name>Av. Larralde</name>
            </trkpt>
            <trkpt lon="-58.32287013530731" lat="-34.715746098037606">
                <ele>0.0</ele>
                <name>Yapeyú</name>
            </trkpt>
            <trkpt lon="-58.33266019821167" lat="-34.724352964583744">
                <ele>0.0</ele>
                <name>Manuel Raposo</name>
            </trkpt>
            <trkpt lon="-58.33722531795502" lat="-34.72101085539188">
                <ele>0.0</ele>
                <name>Onzari</name>
            </trkpt>
            <trkpt lon="-58.338056802749634" lat="-34.72169868837753">
                <ele>9.0</ele>
                <time>2011-07-18T23:09:01.245Z</time>
                <name>Camacuá</name>
            </trkpt>
        </trkseg>
    </trk>
    <trk>
        <name>B - Estación Villa del Parque por Lynch</name>
        <trkseg>
            <trkpt lon="-58.338056802749634" lat="-34.721676642537275">
                <ele>0.0</ele>
                <name>Onzari</name>
            </trkpt>
            <trkpt lon="-58.33723068237305" lat="-34.721032901409664">
                <ele>0.0</ele>
                <name>Raposo</name>
            </trkpt>
            <trkpt lon="-58.33267092704773" lat="-34.72442350896821">
                <ele>0.0</ele>
                <name>Yapeyú</name>
            </trkpt>
            <trkpt lon="-58.32287549972534" lat="-34.715750507522365">
                <ele>0.0</ele>
                <name>Av. Larralde</name>
            </trkpt>
            <trkpt lon="-58.322076201438904" lat="-34.71636783306939">
                <ele>0.0</ele>
                <name>Cnel. Lynch</name>
            </trkpt>
            <trkpt lon="-58.315536975860596" lat="-34.70967401444794">
                <ele>0.0</ele>
                <name>Av. Belgrano</name>
            </trkpt>
            <trkpt lon="-58.329532742500305" lat="-34.69814156108793">
                <ele>0.0</ele>
                <name>Av. Belgrano</name>
            </trkpt>
            <trkpt lon="-58.329838514328" lat="-34.69812391939257">
                <ele>8.0</ele>
                <time>2011-07-18T23:11:25.958Z</time>
                <name>Av. Belgrano</name>
            </trkpt>
            <trkpt lon="-58.339043" lat="-34.690727">
                <ele>0.0</ele>
                <name>Av. Belgrano</name>
            </trkpt>
            <trkpt lon="-58.34062099456787" lat="-34.68950991244288">
                <ele>8.0</ele>
                <time>2011-07-18T22:53:40.837Z</time>
                <name>Av. Belgrano</name>
            </trkpt>
            <trkpt lon="-58.35840940475464" lat="-34.674776251107644">
                <ele>0.0</ele>
                <name>Av. Belgrano</name>
            </trkpt>
            <trkpt lon="-58.360769748687744" lat="-34.67344391656199">
                <ele>0.0</ele>
                <name>Av. Belgrano</name>
            </trkpt>
            <trkpt lon="-58.36058735847473" lat="-34.67317921178241">
                <ele>9.0</ele>
                <time>2011-07-18T22:54:00.451Z</time>
                <name>Av. Belgrano</name>
            </trkpt>
            <trkpt lon="-58.36388111114502" lat="-34.66829966882956">
                <ele>0.0</ele>
                <name>Arenales</name>
            </trkpt>
            <trkpt lon="-58.359525203704834" lat="-34.665317094176416">
                <ele>0.0</ele>
                <name>Av. Mitre</name>
            </trkpt>
            <trkpt lon="-58.36438536643982" lat="-34.662855065565374">
                <ele>0.0</ele>
                <name>Av. Mitre</name>
            </trkpt>
            <trkpt lon="-58.37015748023987" lat="-34.65871622179715">
                <ele>0.0</ele>
                <name>Au. 9 de Julio</name>
            </trkpt>
            <trkpt lon="-58.37031841278076" lat="-34.65740127933591">
                <ele>0.0</ele>
                <name>Au. 9 de Julio</name>
            </trkpt>
            <trkpt lon="-58.371015787124634" lat="-34.65590980927884">
                <ele>0.0</ele>
                <name>Au. 9 de Julio</name>
            </trkpt>
            <trkpt lon="-58.371883" lat="-34.653446">
                <ele>0.0</ele>
                <name>Au. 9 de Julio</name>
            </trkpt>
            <trkpt lon="-58.372710943222046" lat="-34.649678880798426">
                <ele>0.0</ele>
                <name>Av. Montes de Oca</name>
            </trkpt>
            <trkpt lon="-58.37265729904175" lat="-34.64884923175953">
                <ele>0.0</ele>
                <name>Av. Montes de Oca</name>
            </trkpt>
            <trkpt lon="-58.372946977615356" lat="-34.64743704408914">
                <ele>0.0</ele>
                <name>Gral. Daniel Cerri</name>
            </trkpt>
            <trkpt lon="-58.36832284927368" lat="-34.64643967205361">
                <ele>0.0</ele>
                <name>Av. Patricios</name>
            </trkpt>
            <trkpt lon="-58.37027549743652" lat="-34.63359633202669">
                <ele>0.0</ele>
                <name>Av. Patricios</name>
            </trkpt>
            <trkpt lon="-58.37064027786255" lat="-34.629447199249086">
                <ele>16.0</ele>
                <time>2011-07-18T22:55:41.518Z</time>
                <name>Defensa</name>
            </trkpt>
            <trkpt lon="-58.370995" lat="-34.626629">
                <ele>0.0</ele>
                <name>Av. Caseros</name>
            </trkpt>
            <trkpt lon="-58.37386965751648" lat="-34.626772222784965">
                <ele>0.0</ele>
                <name>Perú</name>
            </trkpt>
            <trkpt lon="-58.374727964401245" lat="-34.61265433444913">
                <ele>21.0</ele>
                <time>2011-07-18T23:13:11.145Z</time>
                <name>Av. Belgrano</name>
            </trkpt>
            <trkpt lon="-58.37753891944885" lat="-34.612848593108474">
                <ele>0.0</ele>
                <name>Av. Pres. Julio A. Roca</name>
            </trkpt>
            <trkpt lon="-58.37335467338562" lat="-34.60892801217897">
                <ele>0.0</ele>
                <name>Bolivar</name>
            </trkpt>
            <trkpt lon="-58.373472690582275" lat="-34.60846000253661">
                <ele>0.0</ele>
                <name>Av. de Mayo</name>
            </trkpt>
            <trkpt lon="-58.380693197250366" lat="-34.60898982457604">
                <ele>0.0</ele>
                <name>Carlos Pellegrini</name>
            </trkpt>
            <trkpt lon="-58.38103652000427" lat="-34.60252576471637">
                <ele>0.0</ele>
                <name>Lavalle</name>
            </trkpt>
            <trkpt lon="-58.40088486671448" lat="-34.60344418640194">
                <ele>0.0</ele>
                <name>Lavalle</name>
            </trkpt>
            <trkpt lon="-58.405176401138306" lat="-34.60333821518735">
                <ele>27.0</ele>
                <time>2011-07-18T22:57:54.270Z</time>
                <name>Lavalle</name>
            </trkpt>
            <trkpt lon="-58.408470153808594" lat="-34.6029319909454">
                <ele>0.0</ele>
                <name>Jean Jaures</name>
            </trkpt>
            <trkpt lon="-58.40999364852905" lat="-34.60673805755915">
                <ele>0.0</ele>
                <name>Sarmiento</name>
            </trkpt>
            <trkpt lon="-58.41704249382019" lat="-34.60549293663718">
                <ele>34.0</ele>
                <time>2011-07-18T22:58:14.828Z</time>
                <name>Sarmiento</name>
            </trkpt>
            <trkpt lon="-58.424351" lat="-34.604458">
                <ele>0.0</ele>
                <name>Sarmiento</name>
            </trkpt>
            <trkpt lon="-58.43233108520508" lat="-34.60392105519411">
                <ele>0.0</ele>
                <name>Antonio Machado</name>
            </trkpt>
            <trkpt lon="-58.43324303627014" lat="-34.604265458729856">
                <ele>0.0</ele>
                <name>Ramos Mejía</name>
            </trkpt>
            <trkpt lon="-58.433876037597656" lat="-34.602914328976766">
                <ele>0.0</ele>
                <name>Vera</name>
            </trkpt>
            <trkpt lon="-58.43534588813782" lat="-34.60147486590457">
                <ele>0.0</ele>
                <name>Lavalleja</name>
            </trkpt>
            <trkpt lon="-58.43438" lat="-34.600864">
                <ele>0.0</ele>
                <name>Juan Ramirez de Velazco</name>
            </trkpt>
            <trkpt lon="-58.436644077301025" lat="-34.598489887510254">
                <ele>0.0</ele>
                <name>Av. Raúl Scalabrini Ortiz</name>
            </trkpt>
            <trkpt lon="-58.44226598739624" lat="-34.60199590143138">
                <ele>0.0</ele>
                <name>Murillo</name>
            </trkpt>
            <trkpt lon="-58.442837" lat="-34.601463">
                <ele>0.0</ele>
                <name>Luis Viale</name>
            </trkpt>
            <trkpt lon="-58.4507417678833" lat="-34.60648197038401">
                <ele>0.0</ele>
                <name>Av. San Martín</name>
            </trkpt>
            <trkpt lon="-58.47576141357422" lat="-34.60020317224953">
                <ele>0.0</ele>
                <name>Av. San Martín</name>
            </trkpt>
            <trkpt lon="-58.47594380378723" lat="-34.60048135690044">
                <ele>26.0</ele>
                <time>2011-07-18T23:02:19.830Z</time>
                <name>Av. San Martín</name>
            </trkpt>
            <trkpt lon="-58.4766948223114" lat="-34.60036213502128">
                <ele>26.0</ele>
                <time>2011-07-18T23:02:19.830Z</time>
                <name>Arregui</name>
            </trkpt>
            <trkpt lon="-58.488598465919495" lat="-34.607100110493604">
                <ele>26.0</ele>
                <time>2011-07-18T23:02:19.830Z</time>
                <name>Helguera</name>
            </trkpt>
            <trkpt lon="-58.49311262369156" lat="-34.601695644069274">
                <ele>0.0</ele>
                <name>Gutiérrez</name>
            </trkpt>
            <trkpt lon="-58.49382609128952" lat="-34.60173096852116">
                <ele>0.0</ele>
                <name>Nazarre</name>
            </trkpt>
            <trkpt lon="-58.49464416503906" lat="-34.60221667821097">
                <ele>0.0</ele>
                <name>Nazarre y Cuenca</name>
            </trkpt>
        </trkseg>
    </trk>
</gpx>
