<?xml version="1.0" encoding="UTF-8" standalone="yes"?>
<gpx xmlns="http://www.topografix.com/GPX/1/1" xmlns:gpxtrx="http://www.garmin.com/xmlschemas/GpxExtensions/v3" xmlns:rcxx="http://www.routeconverter.de/xmlschemas/RouteCatalogExtensions/1.0" xmlns:xsi="http://www.w3.org/2001/XMLSchema-instance" xmlns:gpxtpx="http://www.garmin.com/xmlschemas/TrackPointExtension/v1" xmlns:gpxx="http://www.garmin.com/xmlschemas/WaypointExtension/v1" xmlns:nmea="http://trekbuddy.net/2009/01/gpx/nmea" creator="Generated by Christian Pesch's RouteConverter. See http://www.routeconverter.com" version="1.1">
    <trk>
        <name>A - Boca</name>
        <desc>&lt;a href=&quot;http://www.masmapas.com/colectivo-25-estacion-saenz-pena-plaza-flores-primera-junta-hospital-churruca-moyano-la-boca-cancha-&quot;&gt;Mas info sobre la linea de colectivos 25 (Colectivo 25 - Estación Saenz Peña,
Plaza Flores,
Primera Junta,
Hospital Churruca,
Moyano,
La Boca,
Cancha De Boca,
Argerich)&lt;/a&gt;</desc>
        <trkseg>
            <trkpt lon="-58.52985084056854" lat="-34.60352366472412">
                <ele>0.0</ele>
                <name>Senador Benito Ferro</name>
            </trkpt>
            <trkpt lon="-58.53139579296112" lat="-34.60413741142824">
                <ele>29.0</ele>
                <time>2011-07-18T23:20:06.974Z</time>
                <name>Nuestra Senora del Carmen</name>
            </trkpt>
            <trkpt lon="-58.52915346622467" lat="-34.6048527076184">
                <ele>30.0</ele>
                <time>2011-07-18T23:20:06.974Z</time>
                <name>San Pedro</name>
            </trkpt>
            <trkpt lon="-58.52874040603638" lat="-34.603898977995655">
                <ele>30.0</ele>
                <time>2011-07-18T23:20:06.974Z</time>
                <name>Gral. Las Heras</name>
            </trkpt>
            <trkpt lon="-58.52637469768524" lat="-34.60465401485028">
                <ele>32.0</ele>
                <time>2011-07-18T23:20:06.974Z</time>
                <name>Colectora Oeste</name>
            </trkpt>
            <trkpt lon="-58.52567195892334" lat="-34.603236659313154">
                <ele>0.0</ele>
                <name>Ricardo Gutierrez</name>
            </trkpt>
            <trkpt lon="-58.52394461631775" lat="-34.603236659313154">
                <ele>0.0</ele>
                <name>Position 7</name>
            </trkpt>
            <trkpt lon="-58.518269062042236" lat="-34.6030026387824">
                <ele>0.0</ele>
                <name>Av. Salvador Maria del Carril</name>
            </trkpt>
            <trkpt lon="-58.5233598947525" lat="-34.60615082200381">
                <ele>33.0</ele>
                <time>2011-07-18T23:22:38.025Z</time>
                <name>Av. Lastra</name>
            </trkpt>
            <trkpt lon="-58.51914882659912" lat="-34.60918850696917">
                <ele>31.0</ele>
                <time>2011-07-18T23:22:38.025Z</time>
                <name>NeuePosition 10</name>
            </trkpt>
            <trkpt lon="-58.51811349391937" lat="-34.60972273949051">
                <ele>0.0</ele>
                <name>Av. Fransico Beiro</name>
            </trkpt>
            <trkpt lon="-58.52043628692627" lat="-34.61113115420553">
                <ele>0.0</ele>
                <name>Bermúdez</name>
            </trkpt>
            <trkpt lon="-58.52121412754059" lat="-34.61052628937106">
                <ele>0.0</ele>
                <name>Navarro</name>
            </trkpt>
            <trkpt lon="-58.52266252040863" lat="-34.61151526316295">
                <ele>0.0</ele>
                <name>Cervantes</name>
            </trkpt>
            <trkpt lon="-58.502846360206604" lat="-34.62671483785651">
                <ele>0.0</ele>
                <name>Camarones</name>
            </trkpt>
            <trkpt lon="-58.50150525569916" lat="-34.62554064522157">
                <ele>0.0</ele>
                <name>Camarones</name>
            </trkpt>
            <trkpt lon="-58.496060371398926" lat="-34.62309509293408">
                <ele>0.0</ele>
                <name>Camarones</name>
            </trkpt>
            <trkpt lon="-58.489021" lat="-34.617146">
                <ele>0.0</ele>
                <name>Lamarca</name>
            </trkpt>
            <trkpt lon="-58.48074495792389" lat="-34.62377049634734">
                <ele>0.0</ele>
                <name>Lamarca</name>
            </trkpt>
            <trkpt lon="-58.47874939441681" lat="-34.62828628771294">
                <ele>0.0</ele>
                <name>Av. Avellaneda</name>
            </trkpt>
            <trkpt lon="-58.47548246383667" lat="-34.62745201045603">
                <ele>0.0</ele>
                <name>Cuenca</name>
            </trkpt>
            <trkpt lon="-58.47348690032959" lat="-34.631830768975334">
                <ele>0.0</ele>
                <name>Av. Rivadavia</name>
            </trkpt>
            <trkpt lon="-58.4612238407135" lat="-34.628436368445556">
                <ele>0.0</ele>
                <name>Av. Rivadavia</name>
            </trkpt>
            <trkpt lon="-58.44282925128937" lat="-34.621276332227914">
                <ele>0.0</ele>
                <name>Rosario</name>
            </trkpt>
            <trkpt lon="-58.435919880867004" lat="-34.619333922409524">
                <ele>0.0</ele>
                <name>Av. José Maria Moreno</name>
            </trkpt>
            <trkpt lon="-58.434664607048035" lat="-34.62304653430693">
                <ele>0.0</ele>
                <name>Av. José Maria Moreno</name>
            </trkpt>
            <trkpt lon="-58.43122601509094" lat="-34.64151883352219">
                <ele>0.0</ele>
                <name>Av. Cobo</name>
            </trkpt>
            <trkpt lon="-58.42350661754608" lat="-34.64021244527253">
                <ele>11.0</ele>
                <time>2011-07-18T23:26:32.789Z</time>
                <name>Av. Caseros</name>
            </trkpt>
            <trkpt lon="-58.39890003204346" lat="-34.635926817714555">
                <ele>0.0</ele>
                <name>Av. Caseros</name>
            </trkpt>
            <trkpt lon="-58.3903706073761" lat="-34.63413482127886">
                <ele>0.0</ele>
                <name>Av. Caseros</name>
            </trkpt>
            <trkpt lon="-58.383471965789795" lat="-34.6322633353984">
                <ele>0.0</ele>
                <name>Dr. Ramón Carillo</name>
            </trkpt>
            <trkpt lon="-58.38333785533905" lat="-34.63326529181694">
                <ele>0.0</ele>
                <name>Dr. Ramón Carillo</name>
            </trkpt>
            <trkpt lon="-58.382468819618225" lat="-34.634483513274155">
                <ele>0.0</ele>
                <name>Dr. Ramón Carillo</name>
            </trkpt>
            <trkpt lon="-58.38086485862732" lat="-34.640155069641146">
                <ele>0.0</ele>
                <name>Dr. Ramón Carillo</name>
            </trkpt>
            <trkpt lon="-58.380993604660034" lat="-34.64209699202269">
                <ele>0.0</ele>
                <name>Suárez</name>
            </trkpt>
            <trkpt lon="-58.37992072105408" lat="-34.642220567362514">
                <ele>0.0</ele>
                <name>Suárez</name>
            </trkpt>
            <trkpt lon="-58.37458848953247" lat="-34.6386544621097">
                <ele>0.0</ele>
                <name>Suárez</name>
            </trkpt>
            <trkpt lon="-58.370522260665894" lat="-34.638120415819635">
                <ele>0.0</ele>
                <name>Ruy Díaz de Guzmán</name>
            </trkpt>
            <trkpt lon="-58.370338" lat="-34.639236">
                <ele>0.0</ele>
                <name>Olavarría</name>
            </trkpt>
            <trkpt lon="-58.36413323879242" lat="-34.63848233186285">
                <ele>0.0</ele>
                <name>Olavarría</name>
            </trkpt>
            <trkpt lon="-58.35707902908325" lat="-34.63562668307961">
                <ele>0.0</ele>
                <name>Necochea</name>
            </trkpt>
            <trkpt lon="-58.35943400859833" lat="-34.631433512110114">
                <ele>0.0</ele>
                <name>Necochea</name>
            </trkpt>
            <trkpt lon="-58.36566200000001" lat="-34.627354">
                <ele>0.0</ele>
                <name>Pi y Margall</name>
            </trkpt>
            <trkpt lon="-58.36654186248779" lat="-34.628259802849584">
                <ele>0.0</ele>
                <name>Av. Almirante Brown y Pi y Margall</name>
            </trkpt>
        </trkseg>
    </trk>
    <trk>
        <name>A - Saenz Pena</name>
        <desc>&lt;a href=&quot;http://www.masmapas.com/colectivo-25-estacion-saenz-pena-plaza-flores-primera-junta-hospital-churruca-moyano-la-boca-cancha-&quot;&gt;Mas info sobre la linea de colectivos 25 (Colectivo 25 - Estación Saenz Peña,
Plaza Flores,
Primera Junta,
Hospital Churruca,
Moyano,
La Boca,
Cancha De Boca,
Argerich)&lt;/a&gt;</desc>
        <trkseg>
            <trkpt lon="-58.36655795574188" lat="-34.62828187356963">
                <ele>0.0</ele>
                <name>Av. Almirante Brown</name>
            </trkpt>
            <trkpt lon="-58.3608341217041" lat="-34.63201174091655">
                <ele>0.0</ele>
                <name>Av. Almirante Brown</name>
            </trkpt>
            <trkpt lon="-58.35939799999999" lat="-34.634495">
                <ele>0.0</ele>
                <name>Brandsen</name>
            </trkpt>
            <trkpt lon="-58.36518466472626" lat="-34.636827215103104">
                <ele>0.0</ele>
                <name>Brandsen</name>
            </trkpt>
            <trkpt lon="-58.37768912315369" lat="-34.63815131115327">
                <ele>0.0</ele>
                <name>Herrera</name>
            </trkpt>
            <trkpt lon="-58.37712049484253" lat="-34.64032719641621">
                <ele>0.0</ele>
                <name>Suárez</name>
            </trkpt>
            <trkpt lon="-58.379958271980286" lat="-34.64219408694806">
                <ele>0.0</ele>
                <name>Suárez</name>
            </trkpt>
            <trkpt lon="-58.38090777397156" lat="-34.64210581883878">
                <ele>0.0</ele>
                <name>Dr. Ramón Carillo</name>
            </trkpt>
            <trkpt lon="-58.38087022304535" lat="-34.64013741559273">
                <ele>0.0</ele>
                <name>Dr. Ramón Carillo</name>
            </trkpt>
            <trkpt lon="-58.382490277290344" lat="-34.63444820275905">
                <ele>0.0</ele>
                <name>Salta</name>
            </trkpt>
            <trkpt lon="-58.38265657424927" lat="-34.63085086526667">
                <ele>0.0</ele>
                <name>15 de Noviembre</name>
            </trkpt>
            <trkpt lon="-58.390687108039856" lat="-34.63152620554883">
                <ele>0.0</ele>
                <name>15 de Noviembre</name>
            </trkpt>
            <trkpt lon="-58.39140594005585" lat="-34.63174690379554">
                <ele>31.0</ele>
                <time>2011-07-18T23:30:38.302Z</time>
                <name>Combate de Los Pozos</name>
            </trkpt>
            <trkpt lon="-58.39091241359711" lat="-34.634192201075045">
                <ele>0.0</ele>
                <name>Av. Caseros</name>
            </trkpt>
            <trkpt lon="-58.40050935745239" lat="-34.63614750425326">
                <ele>0.0</ele>
                <name>Av. Caseros</name>
            </trkpt>
            <trkpt lon="-58.42348515987396" lat="-34.6401727236858">
                <ele>12.0</ele>
                <time>2011-07-18T23:31:09.180Z</time>
                <name>Av. Cobo</name>
            </trkpt>
            <trkpt lon="-58.431150913238525" lat="-34.64148352600226">
                <ele>0.0</ele>
                <name>Av. José Maria Moreno</name>
            </trkpt>
            <trkpt lon="-58.43433201313019" lat="-34.625862887711804">
                <ele>0.0</ele>
                <name>Av. José Maria Moreno</name>
            </trkpt>
            <trkpt lon="-58.43450903892517" lat="-34.624485623381375">
                <ele>0.0</ele>
                <name>Valle</name>
            </trkpt>
            <trkpt lon="-58.433094" lat="-34.624317">
                <ele>0.0</ele>
                <name>Beauchef</name>
            </trkpt>
            <trkpt lon="-58.433437" lat="-34.622868">
                <ele>0.0</ele>
                <name>Av. Juan Bautista Alberdi</name>
            </trkpt>
            <trkpt lon="-58.43670308589935" lat="-34.6232584262896">
                <ele>35.0</ele>
                <time>2011-07-18T23:32:09.571Z</time>
                <name>Av. Juan Bautista Alberdi</name>
            </trkpt>
            <trkpt lon="-58.43775987625122" lat="-34.62320103893105">
                <ele>0.0</ele>
                <name>San José de Calasanz</name>
            </trkpt>
            <trkpt lon="-58.4390527009964" lat="-34.61936923935744">
                <ele>0.0</ele>
                <name>Av. Rivadavia</name>
            </trkpt>
            <trkpt lon="-58.459882736206055" lat="-34.627928741344334">
                <ele>0.0</ele>
                <name>Av. Rivadavia</name>
            </trkpt>
            <trkpt lon="-58.46969425678253" lat="-34.630638992672665">
                <ele>0.0</ele>
                <name>Av. Nazca</name>
            </trkpt>
            <trkpt lon="-58.471577167510986" lat="-34.62638818443089">
                <ele>0.0</ele>
                <name>Av. Avellaneda</name>
            </trkpt>
            <trkpt lon="-58.47025215625763" lat="-34.625960001641545">
                <ele>0.0</ele>
                <name>Terrada</name>
            </trkpt>
            <trkpt lon="-58.47076714038849" lat="-34.62475048368183">
                <ele>0.0</ele>
                <name>Dr. Aranguren</name>
            </trkpt>
            <trkpt lon="-58.47819685935974" lat="-34.62678546545513">
                <ele>0.0</ele>
                <name>Concordia</name>
            </trkpt>
            <trkpt lon="-58.47975254058838" lat="-34.62336437207804">
                <ele>0.0</ele>
                <name>Av. Gaona</name>
            </trkpt>
            <trkpt lon="-58.47939848899841" lat="-34.6231789668595">
                <ele>0.0</ele>
                <name>Concordia</name>
            </trkpt>
            <trkpt lon="-58.48697304725647" lat="-34.61713982755189">
                <ele>0.0</ele>
                <name>Cervantes</name>
            </trkpt>
            <trkpt lon="-58.49502503871918" lat="-34.62399562959683">
                <ele>0.0</ele>
                <name>Cervantes</name>
            </trkpt>
            <trkpt lon="-58.50036799907684" lat="-34.62638818443089">
                <ele>0.0</ele>
                <name>Bermúdez</name>
            </trkpt>
            <trkpt lon="-58.52039337158203" lat="-34.61116205958968">
                <ele>0.0</ele>
                <name>Av. Francisco Beiro</name>
            </trkpt>
            <trkpt lon="-58.51944386959076" lat="-34.61056161006649">
                <ele>0.0</ele>
                <name>Quevedo</name>
            </trkpt>
            <trkpt lon="-58.518475" lat="-34.61153">
                <ele>0.0</ele>
                <name>Varela</name>
            </trkpt>
            <trkpt lon="-58.51718008518219" lat="-34.610698477619344">
                <ele>0.0</ele>
                <name>Desaguardero</name>
            </trkpt>
            <trkpt lon="-58.518049120903015" lat="-34.609727154621">
                <ele>0.0</ele>
                <name>Av. Lastra</name>
            </trkpt>
            <trkpt lon="-58.52087080478668" lat="-34.60790810098372">
                <ele>30.0</ele>
                <time>2011-07-18T23:35:25.481Z</time>
                <name>Av. Lastra</name>
            </trkpt>
            <trkpt lon="-58.525372" lat="-34.60466">
                <ele>0.0</ele>
                <name>Colectora Este</name>
            </trkpt>
            <trkpt lon="-58.5246741771698" lat="-34.603249905738565">
                <ele>0.0</ele>
                <name>Ricardo Gutiérrez</name>
            </trkpt>
            <trkpt lon="-58.52571487426758" lat="-34.60328964500214">
                <ele>32.0</ele>
                <time>2011-07-18T23:36:46.155Z</time>
                <name>Colectora Oeste</name>
            </trkpt>
            <trkpt lon="-58.52639615535736" lat="-34.604636353247884">
                <ele>30.0</ele>
                <time>2011-07-18T23:36:58.565Z</time>
                <name>Gral. Las Heras</name>
            </trkpt>
            <trkpt lon="-58.52983474731445" lat="-34.60351924926378">
                <ele>30.0</ele>
                <time>2011-07-18T23:37:09.135Z</time>
                <name>Gral. Las Heras y Senador Benito Ferro</name>
            </trkpt>
        </trkseg>
    </trk>
</gpx>
