<?xml version="1.0" encoding="UTF-8" standalone="yes"?>
<gpx xmlns="http://www.topografix.com/GPX/1/1" xmlns:gpxtrx="http://www.garmin.com/xmlschemas/GpxExtensions/v3" xmlns:rcxx="http://www.routeconverter.de/xmlschemas/RouteCatalogExtensions/1.0" xmlns:xsi="http://www.w3.org/2001/XMLSchema-instance" xmlns:gpxtpx="http://www.garmin.com/xmlschemas/TrackPointExtension/v1" xmlns:gpxx="http://www.garmin.com/xmlschemas/WaypointExtension/v1" xmlns:nmea="http://trekbuddy.net/2009/01/gpx/nmea" creator="Generated by Christian Pesch's RouteConverter. See http://www.routeconverter.com" version="1.1">
    <trk>
        <name>A - Retiro Hospital Ferroviario</name>
        <desc>&lt;a href=&quot;http://www.masmapas.com/colectivo-26-flores-sur-parque-chacabuco-primera-junta-pque-rivadavia-hosp-italiano-abasto-shopping-&quot;&gt;Mas info sobre la linea de colectivos 26 (Colectivo 26 - Flores Sur,
Parque Chacabuco,
Primera Junta,
Pque Rivadavia,
Hosp. Italiano,
Abasto Shopping,
Retiro)&lt;/a&gt;</desc>
        <trkseg>
            <trkpt lon="-58.446112275123596" lat="-34.64445813183779">
                <ele>0.0</ele>
                <name>Av. Castanares</name>
            </trkpt>
            <trkpt lon="-58.44422399997711" lat="-34.642811961082224">
                <ele>0.0</ele>
                <name>Corea</name>
            </trkpt>
            <trkpt lon="-58.442888259887695" lat="-34.64383144333832">
                <ele>0.0</ele>
                <name>Corea</name>
            </trkpt>
            <trkpt lon="-58.44149351119995" lat="-34.64357547061699">
                <ele>0.0</ele>
                <name>Av. Cobo</name>
            </trkpt>
            <trkpt lon="-58.43310356140137" lat="-34.641880734734855">
                <ele>0.0</ele>
                <name>Picheuta</name>
            </trkpt>
            <trkpt lon="-58.43271195888519" lat="-34.643085589585034">
                <ele>0.0</ele>
                <name>Somellera</name>
            </trkpt>
            <trkpt lon="-58.43226134777069" lat="-34.64297525561996">
                <ele>0.0</ele>
                <name>Av. Del Barco Centenera</name>
            </trkpt>
            <trkpt lon="-58.43259394168854" lat="-34.638243997085134">
                <ele>0.0</ele>
                <name>Av. Del Barco Centenera</name>
            </trkpt>
            <trkpt lon="-58.43360245227814" lat="-34.63628432961237">
                <ele>0.0</ele>
                <name>Av. Del Barco Centenera</name>
            </trkpt>
            <trkpt lon="-58.43530833721161" lat="-34.63453647901862">
                <ele>0.0</ele>
                <name>Av. Asamblea</name>
            </trkpt>
            <trkpt lon="-58.438886404037476" lat="-34.63523385816648">
                <ele>0.0</ele>
                <name>Emilio Mitre</name>
            </trkpt>
            <trkpt lon="-58.44281315803528" lat="-34.630135793093245">
                <ele>0.0</ele>
                <name>Emilio Mitre</name>
            </trkpt>
            <trkpt lon="-58.4435373544693" lat="-34.62309509293408">
                <ele>0.0</ele>
                <name>Emilio Mitre</name>
            </trkpt>
            <trkpt lon="-58.444427847862244" lat="-34.62187670424692">
                <ele>0.0</ele>
                <name>Av. Rivadavia</name>
            </trkpt>
            <trkpt lon="-58.441160917282104" lat="-34.620803977660124">
                <ele>37.0</ele>
                <time>2011-07-18T23:42:57.292Z</time>
                <name>Rosario</name>
            </trkpt>
            <trkpt lon="-58.435893058776855" lat="-34.61931184930943">
                <ele>0.0</ele>
                <name>Rosario</name>
            </trkpt>
            <trkpt lon="-58.42732071876526" lat="-34.6181861134209">
                <ele>0.0</ele>
                <name>Muniz</name>
            </trkpt>
            <trkpt lon="-58.427406549453735" lat="-34.61606262494542">
                <ele>0.0</ele>
                <name>Av. Belgrano</name>
            </trkpt>
            <trkpt lon="-58.422905802726746" lat="-34.6158153961453">
                <ele>0.0</ele>
                <name>Bocayuva</name>
            </trkpt>
            <trkpt lon="-58.42302918434143" lat="-34.61473376148684">
                <ele>30.0</ele>
                <time>2011-07-18T23:43:53.463Z</time>
                <name>Bocayuva</name>
            </trkpt>
            <trkpt lon="-58.4235817193985" lat="-34.61261459966735">
                <ele>0.0</ele>
                <name>Gascón</name>
            </trkpt>
            <trkpt lon="-58.424450755119324" lat="-34.61116205958968">
                <ele>0.0</ele>
                <name>Gascón</name>
            </trkpt>
            <trkpt lon="-58.424670696258545" lat="-34.60862336469261">
                <ele>33.0</ele>
                <time>2011-07-18T23:44:16.703Z</time>
                <name>Gascón</name>
            </trkpt>
            <trkpt lon="-58.424564" lat="-34.605949">
                <ele>0.0</ele>
                <name>Tte. Gral. J. D. Perón</name>
            </trkpt>
            <trkpt lon="-58.42609226703644" lat="-34.60594771701057">
                <ele>0.0</ele>
                <name>Palestina</name>
            </trkpt>
            <trkpt lon="-58.425647020339966" lat="-34.602715631570746">
                <ele>0.0</ele>
                <name>Av. Corrientes</name>
            </trkpt>
            <trkpt lon="-58.413201570510864" lat="-34.6041639039896">
                <ele>0.0</ele>
                <name>Av. Corrientes</name>
            </trkpt>
            <trkpt lon="-58.41035842895508" lat="-34.60402261023135">
                <ele>28.0</ele>
                <time>2011-07-18T23:45:03.400Z</time>
                <name>Av. Corrientes</name>
            </trkpt>
            <trkpt lon="-58.40889" lat="-34.604095">
                <ele>0.0</ele>
                <name>Av. Corrientes</name>
            </trkpt>
            <trkpt lon="-58.40365290641785" lat="-34.60475115359631">
                <ele>0.0</ele>
                <name>Av. Corrientes</name>
            </trkpt>
            <trkpt lon="-58.39231252670288" lat="-34.60448622947586">
                <ele>0.0</ele>
                <name>Av. Corrientes</name>
            </trkpt>
            <trkpt lon="-58.370049" lat="-34.602974">
                <ele>0.0</ele>
                <name>Av. Leandro N. Alem</name>
            </trkpt>
            <trkpt lon="-58.37059736251831" lat="-34.59953199274785">
                <ele>0.0</ele>
                <name>Av. Leandro N. Alem</name>
            </trkpt>
            <trkpt lon="-58.372979164123535" lat="-34.59424626463784">
                <ele>0.0</ele>
                <name>Av. Leandro N. Alem</name>
            </trkpt>
            <trkpt lon="-58.373795" lat="-34.593418">
                <ele>0.0</ele>
                <name>San Martín</name>
            </trkpt>
            <trkpt lon="-58.37235152721405" lat="-34.591671723881845">
                <ele>0.0</ele>
                <name>Gilardo Gilardi</name>
            </trkpt>
            <trkpt lon="-58.373730182647705" lat="-34.590965146428374">
                <ele>0.0</ele>
                <name>Av. Dr. José Maria Ramos Mejía</name>
            </trkpt>
            <trkpt lon="-58.37215840816498" lat="-34.58922517383121">
                <ele>7.0</ele>
                <time>2011-07-18T23:46:12.489Z</time>
                <name>Av. Antártida Argentina</name>
            </trkpt>
            <trkpt lon="-58.37128400802612" lat="-34.58925167114905">
                <ele>0.0</ele>
                <name>Av. Antártida Argentina</name>
            </trkpt>
            <trkpt lon="-58.370693" lat="-34.590469">
                <ele>0.0</ele>
                <name>Av. Comodoro Py</name>
            </trkpt>
            <trkpt lon="-58.366264" lat="-34.585514">
                <ele>0.0</ele>
                <name>Av. Comodoro Py y Av. Pres. Ramon. S. Castillo</name>
            </trkpt>
        </trkseg>
    </trk>
    <trk>
        <name>A - Flores Sur</name>
        <desc>&lt;a href=&quot;http://www.masmapas.com/colectivo-26-flores-sur-parque-chacabuco-primera-junta-pque-rivadavia-hosp-italiano-abasto-shopping-&quot;&gt;Mas info sobre la linea de colectivos 26 (Colectivo 26 - Flores Sur,
Parque Chacabuco,
Primera Junta,
Pque Rivadavia,
Hosp. Italiano,
Abasto Shopping,
Retiro)&lt;/a&gt;</desc>
        <trkseg>
            <trkpt lon="-58.36668133735657" lat="-34.58544480322051">
                <ele>0.0</ele>
                <name>Av. Comodoro Py</name>
            </trkpt>
            <trkpt lon="-58.37058663368225" lat="-34.590249730634476">
                <ele>0.0</ele>
                <name>Av. Antártida Argentina</name>
            </trkpt>
            <trkpt lon="-58.371520042419434" lat="-34.588006288075555">
                <ele>0.0</ele>
                <name>Av. Dr. José Maria Ramos Mejía</name>
            </trkpt>
            <trkpt lon="-58.375489711761475" lat="-34.59277573912278">
                <ele>0.0</ele>
                <name>Av. Del Libertador</name>
            </trkpt>
            <trkpt lon="-58.373901" lat="-34.593639">
                <ele>0.0</ele>
                <name>Av. Leandro N. Alem</name>
            </trkpt>
            <trkpt lon="-58.37312936782837" lat="-34.59440965475495">
                <ele>28.0</ele>
                <time>2011-07-18T23:52:05.652Z</time>
                <name>Av. Leandro N. Alem</name>
            </trkpt>
            <trkpt lon="-58.371466398239136" lat="-34.59840157290609">
                <ele>0.0</ele>
                <name>Av. Cordoba</name>
            </trkpt>
            <trkpt lon="-58.38254928588867" lat="-34.599134581275855">
                <ele>0.0</ele>
                <name>Cerrito</name>
            </trkpt>
            <trkpt lon="-58.38237762451172" lat="-34.60139538562161">
                <ele>0.0</ele>
                <name>Tucumán</name>
            </trkpt>
            <trkpt lon="-58.386690616607666" lat="-34.601669150720504">
                <ele>0.0</ele>
                <name>Uruguay</name>
            </trkpt>
            <trkpt lon="-58.38665843009949" lat="-34.602790695091116">
                <ele>0.0</ele>
                <name>Lavalle</name>
            </trkpt>
            <trkpt lon="-58.40088486671448" lat="-34.603461848257886">
                <ele>0.0</ele>
                <name>Lavalle</name>
            </trkpt>
            <trkpt lon="-58.405165672302246" lat="-34.60334704612707">
                <ele>0.0</ele>
                <name>Lavalle</name>
            </trkpt>
            <trkpt lon="-58.408459424972534" lat="-34.602967314871414">
                <ele>0.0</ele>
                <name>Lavalle</name>
            </trkpt>
            <trkpt lon="-58.42036843299866" lat="-34.59900211036263">
                <ele>0.0</ele>
                <name>Av. Medrano</name>
            </trkpt>
            <trkpt lon="-58.42158079147339" lat="-34.60856596721497">
                <ele>0.0</ele>
                <name>Av. Medrano</name>
            </trkpt>
            <trkpt lon="-58.42103362083435" lat="-34.61144462256851">
                <ele>0.0</ele>
                <name>Av. Rivadavia</name>
            </trkpt>
            <trkpt lon="-58.44124674797058" lat="-34.62043315536799">
                <ele>0.0</ele>
                <name>Av. Del Barco Centenera</name>
            </trkpt>
            <trkpt lon="-58.440431356430054" lat="-34.626410255648814">
                <ele>0.0</ele>
                <name>Av. Predro Goyena</name>
            </trkpt>
            <trkpt lon="-58.44103217124939" lat="-34.62653385436064">
                <ele>0.0</ele>
                <name>Av. Del Barco Centenera</name>
            </trkpt>
            <trkpt lon="-58.435689210891724" lat="-34.63465565182002">
                <ele>0.0</ele>
                <name>Picheuta</name>
            </trkpt>
            <trkpt lon="-58.43524932861328" lat="-34.6359621276002">
                <ele>0.0</ele>
                <name>Av. Castanares</name>
            </trkpt>
            <trkpt lon="-58.43922972679138" lat="-34.63864563492624">
                <ele>16.0</ele>
                <time>2011-07-18T23:55:09.457Z</time>
                <name>Av. Castanares</name>
            </trkpt>
            <trkpt lon="-58.44309210777283" lat="-34.64175274546211">
                <ele>17.0</ele>
                <time>2011-07-18T23:55:09.457Z</time>
                <name>Av. Castanares</name>
            </trkpt>
            <trkpt lon="-58.44608545303345" lat="-34.64443606542178">
                <ele>0.0</ele>
                <name>Av. Castanares</name>
            </trkpt>
        </trkseg>
    </trk>
</gpx>
