<?xml version="1.0" encoding="UTF-8" standalone="yes"?>
<gpx xmlns="http://www.topografix.com/GPX/1/1" xmlns:gpxtrx="http://www.garmin.com/xmlschemas/GpxExtensions/v3" xmlns:rcxx="http://www.routeconverter.de/xmlschemas/RouteCatalogExtensions/1.0" xmlns:xsi="http://www.w3.org/2001/XMLSchema-instance" xmlns:gpxtpx="http://www.garmin.com/xmlschemas/TrackPointExtension/v1" xmlns:gpxx="http://www.garmin.com/xmlschemas/WaypointExtension/v1" xmlns:nmea="http://trekbuddy.net/2009/01/gpx/nmea" creator="Generated by Christian Pesch's RouteConverter. See http://www.routeconverter.com" version="1.1">
    <trk>
        <name>A - Estación Lanús</name>
        <desc>&lt;a href=&quot;http://www.masmapas.com/colectivo-32-plaza-once-nueva-pompeya-lanus-remedios-de-escalada&quot;&gt;Mas info sobre la linea de colectivos 32 (Colectivo 32 - Plaza Once - Nueva Pompeya - Lanus - Remedios De Escalada)&lt;/a&gt;</desc>
        <trkseg>
            <trkpt lon="-58.40784788131714" lat="-34.609109034068965">
                <ele>0.0</ele>
                <name>Bartolomé Mitre</name>
            </trkpt>
            <trkpt lon="-58.40608298778534" lat="-34.60902073075731">
                <ele>0.0</ele>
                <name>Av. Pueyrredón</name>
            </trkpt>
            <trkpt lon="-58.40600252151489" lat="-34.610067118963066">
                <ele>0.0</ele>
                <name>Av. Rivadavia</name>
            </trkpt>
            <trkpt lon="-58.41039061546326" lat="-34.610437987566755">
                <ele>0.0</ele>
                <name>Gral. Urquiza</name>
            </trkpt>
            <trkpt lon="-58.40947866439819" lat="-34.61661005752521">
                <ele>0.0</ele>
                <name>Gral. Urquiza</name>
            </trkpt>
            <trkpt lon="-58.407676219940186" lat="-34.636350535350275">
                <ele>0.0</ele>
                <name>Rondeau</name>
            </trkpt>
            <trkpt lon="-58.409199714660645" lat="-34.636703631726526">
                <ele>0.0</ele>
                <name>24 de Noviembre</name>
            </trkpt>
            <trkpt lon="-58.40907096862793" lat="-34.637736429998284">
                <ele>18.0</ele>
                <time>2011-07-22T21:20:45.230Z</time>
                <name>Pepirí</name>
            </trkpt>
            <trkpt lon="-58.40859889984131" lat="-34.63929884396431">
                <ele>0.0</ele>
                <name>Pepirí</name>
            </trkpt>
            <trkpt lon="-58.409294" lat="-34.642704">
                <ele>0.0</ele>
                <name>Dr. Prof. Pedro Chutro</name>
            </trkpt>
            <trkpt lon="-58.41153" lat="-34.643005">
                <ele>0.0</ele>
                <name>Achala</name>
            </trkpt>
            <trkpt lon="-58.41611981391907" lat="-34.642149952905164">
                <ele>0.0</ele>
                <name>Av. Sáenz</name>
            </trkpt>
            <trkpt lon="-58.41660261154175" lat="-34.65886624746337">
                <ele>0.0</ele>
                <name>Av. Remedios de Escalada</name>
            </trkpt>
            <trkpt lon="-58.41732144355774" lat="-34.66234323681257">
                <ele>0.0</ele>
                <name>Palacios</name>
            </trkpt>
            <trkpt lon="-58.41777205467224" lat="-34.66260797621736">
                <ele>0.0</ele>
                <name>Carlos Pellegrini</name>
            </trkpt>
            <trkpt lon="-58.42182755470276" lat="-34.66253737912546">
                <ele>0.0</ele>
                <name>Carlos Pellegrini</name>
            </trkpt>
            <trkpt lon="-58.42249274253845" lat="-34.66214026936275">
                <ele>0.0</ele>
                <name>Carlos Pellegrini</name>
            </trkpt>
            <trkpt lon="-58.425647020339966" lat="-34.66434641062826">
                <ele>0.0</ele>
                <name>Carlos Pellegrini</name>
            </trkpt>
            <trkpt lon="-58.43234181404114" lat="-34.672067442470386">
                <ele>0.0</ele>
                <name>Cnel. Warnes</name>
            </trkpt>
            <trkpt lon="-58.430099" lat="-34.675125">
                <ele>0.0</ele>
                <name>Tte. Cnel. Obón</name>
            </trkpt>
            <trkpt lon="-58.42679500579834" lat="-34.673488033943016">
                <ele>0.0</ele>
                <name>Viamonte</name>
            </trkpt>
            <trkpt lon="-58.425389528274536" lat="-34.675349766002256">
                <ele>0.0</ele>
                <name>Darregueyra</name>
            </trkpt>
            <trkpt lon="-58.42432737350464" lat="-34.67482919111045">
                <ele>0.0</ele>
                <name>Cnel. Sayos</name>
            </trkpt>
            <trkpt lon="-58.42249274253845" lat="-34.67729968693783">
                <ele>0.0</ele>
                <name>Cnel. Osorio</name>
            </trkpt>
            <trkpt lon="-58.423683643341064" lat="-34.67767025495573">
                <ele>0.0</ele>
                <name>Viamonte</name>
            </trkpt>
            <trkpt lon="-58.41812610626221" lat="-34.685566488793505">
                <ele>0.0</ele>
                <name>Viamonte</name>
            </trkpt>
            <trkpt lon="-58.41681718826294" lat="-34.688596854551335">
                <ele>0.0</ele>
                <name>Position 27</name>
            </trkpt>
            <trkpt lon="-58.416414856910706" lat="-34.688927673791405">
                <ele>6.0</ele>
                <time>2011-07-22T21:23:57.492Z</time>
                <name>Humahuaca</name>
            </trkpt>
            <trkpt lon="-58.41557800769806" lat="-34.688014609477776">
                <ele>6.0</ele>
                <time>2011-07-22T21:23:57.492Z</time>
                <name>Tacuari</name>
            </trkpt>
            <trkpt lon="-58.41584622859955" lat="-34.68766614266427">
                <ele>6.0</ele>
                <time>2011-07-22T21:23:57.492Z</time>
                <name>Av. Rivadavia</name>
            </trkpt>
            <trkpt lon="-58.413904309272766" lat="-34.687053013950425">
                <ele>0.0</ele>
                <name>Cnel. D'Elia</name>
            </trkpt>
            <trkpt lon="-58.40513348579407" lat="-34.6929326871642">
                <ele>0.0</ele>
                <name>Av. Gral. José de San Martín</name>
            </trkpt>
            <trkpt lon="-58.40482771396637" lat="-34.692610705367144">
                <ele>0.0</ele>
                <name>Balcarce</name>
            </trkpt>
            <trkpt lon="-58.40048789978027" lat="-34.69617007835832">
                <ele>0.0</ele>
                <name>Rio de Janeiro</name>
            </trkpt>
            <trkpt lon="-58.401421308517456" lat="-34.6969198647967">
                <ele>0.0</ele>
                <name>Cnel. Segui</name>
            </trkpt>
            <trkpt lon="-58.398470878601074" lat="-34.69929708394268">
                <ele>0.0</ele>
                <name>Cnel. Segui</name>
            </trkpt>
            <trkpt lon="-58.39612126350403" lat="-34.699261801040905">
                <ele>0.0</ele>
                <name>Ministro Brin</name>
            </trkpt>
            <trkpt lon="-58.39554190635681" lat="-34.70792330189473">
                <ele>0.0</ele>
                <name>25 de Mayo</name>
            </trkpt>
            <trkpt lon="-58.39144100000001" lat="-34.708183">
                <ele>0.0</ele>
                <name>Estación Lanús</name>
            </trkpt>
            <trkpt lon="-58.391464948654175" lat="-34.70689578835559">
                <ele>0.0</ele>
                <name>Estación Lanús (Av. Pavón)</name>
            </trkpt>
        </trkseg>
    </trk>
    <trk>
        <name>A - Plaza Miserere (Estación Once)</name>
        <desc>&lt;a href=&quot;http://www.masmapas.com/colectivo-32-plaza-once-nueva-pompeya-lanus-remedios-de-escalada&quot;&gt;Mas info sobre la linea de colectivos 32 (Colectivo 32 - Plaza Once - Nueva Pompeya - Lanus - Remedios De Escalada)&lt;/a&gt;</desc>
        <trkseg>
            <trkpt lon="-58.391443490982056" lat="-34.70821876479866">
                <ele>0.0</ele>
                <name>Estación Lanús (Av. Pavón)</name>
            </trkpt>
            <trkpt lon="-58.39155077934265" lat="-34.706781129400866">
                <ele>0.0</ele>
                <name>Juan Pineiro</name>
            </trkpt>
            <trkpt lon="-58.396984934806824" lat="-34.70675907958366">
                <ele>0.0</ele>
                <name>2 de Mayo</name>
            </trkpt>
            <trkpt lon="-58.397435545921326" lat="-34.69812391939257">
                <ele>0.0</ele>
                <name>Carlos Cesares</name>
            </trkpt>
            <trkpt lon="-58.396738171577454" lat="-34.697506457685684">
                <ele>0.0</ele>
                <name>Ocampo</name>
            </trkpt>
            <trkpt lon="-58.40399622917175" lat="-34.69164916323008">
                <ele>0.0</ele>
                <name>Av. San Martín</name>
            </trkpt>
            <trkpt lon="-58.405171036720276" lat="-34.69282683027324">
                <ele>0.0</ele>
                <name>Cnel. D'Elia</name>
            </trkpt>
            <trkpt lon="-58.41348052024841" lat="-34.68735737337597">
                <ele>8.0</ele>
                <time>2011-07-22T21:29:24.219Z</time>
                <name>Cnel. Murature</name>
            </trkpt>
            <trkpt lon="-58.414204716682434" lat="-34.68806754101732">
                <ele>8.0</ele>
                <time>2011-07-22T21:29:24.219Z</time>
                <name>Cnel. Sayos</name>
            </trkpt>
            <trkpt lon="-58.41499865055084" lat="-34.68739707234898">
                <ele>0.0</ele>
                <name>Av. Rivadavia</name>
            </trkpt>
            <trkpt lon="-58.41701030731201" lat="-34.6880190204407">
                <ele>0.0</ele>
                <name>Gdor. Viamonte</name>
            </trkpt>
            <trkpt lon="-58.41807782649994" lat="-34.685540022228395">
                <ele>9.0</ele>
                <time>2011-07-22T21:30:02.188Z</time>
                <name>Gdor. Viamonte</name>
            </trkpt>
            <trkpt lon="-58.423651456832886" lat="-34.67767025495573">
                <ele>0.0</ele>
                <name>Cnel. Osorio</name>
            </trkpt>
            <trkpt lon="-58.42246055603027" lat="-34.67729968693783">
                <ele>0.0</ele>
                <name>Cnel. Sayos</name>
            </trkpt>
            <trkpt lon="-58.42432737350464" lat="-34.67475419276316">
                <ele>0.0</ele>
                <name>Dr. Darregueyra</name>
            </trkpt>
            <trkpt lon="-58.425400257110596" lat="-34.67528800305057">
                <ele>0.0</ele>
                <name>Gdor. Viamonte</name>
            </trkpt>
            <trkpt lon="-58.42673063278198" lat="-34.67345715177877">
                <ele>0.0</ele>
                <name>Tte. Cnel. Obón</name>
            </trkpt>
            <trkpt lon="-58.43006193637848" lat="-34.67507183235698">
                <ele>0.0</ele>
                <name>Cnel. Warnes</name>
            </trkpt>
            <trkpt lon="-58.4322988986969" lat="-34.672076266095104">
                <ele>0.0</ele>
                <name>Carlos Pellegrini</name>
            </trkpt>
            <trkpt lon="-58.42586696147919" lat="-34.66458467037045">
                <ele>0.0</ele>
                <name>Carlos Pellegrini</name>
            </trkpt>
            <trkpt lon="-58.42205822467804" lat="-34.661747570059205">
                <ele>0.0</ele>
                <name>Carlos Pellegrini</name>
            </trkpt>
            <trkpt lon="-58.41648995876312" lat="-34.6601414546606">
                <ele>0.0</ele>
                <name>Av. Remedios de Escalada</name>
            </trkpt>
            <trkpt lon="-58.41675281524658" lat="-34.6616681475019">
                <ele>0.0</ele>
                <name>Qundimil</name>
            </trkpt>
            <trkpt lon="-58.41630756855011" lat="-34.66203878545139">
                <ele>0.0</ele>
                <name>Carabobo</name>
            </trkpt>
            <trkpt lon="-58.41697812080383" lat="-34.66254620376524">
                <ele>0.0</ele>
                <name>Av. Remedios de Escalada</name>
            </trkpt>
            <trkpt lon="-58.41704249382019" lat="-34.6621005582818">
                <ele>0.0</ele>
                <name>Av. Sáenz</name>
            </trkpt>
            <trkpt lon="-58.41633439064026" lat="-34.65472720447557">
                <ele>0.0</ele>
                <name>Av. Sáenz</name>
            </trkpt>
            <trkpt lon="-58.41622710227966" lat="-34.648293185735376">
                <ele>0.0</ele>
                <name>Av. Almafuerte</name>
            </trkpt>
            <trkpt lon="-58.41451048851013" lat="-34.64576003998797">
                <ele>10.0</ele>
                <time>2011-07-22T21:33:09.910Z</time>
                <name>Av. Almafuerte</name>
            </trkpt>
            <trkpt lon="-58.41300845146179" lat="-34.642564811981025">
                <ele>0.0</ele>
                <name>Av. Almafuerte</name>
            </trkpt>
            <trkpt lon="-58.411163091659546" lat="-34.63808952047448">
                <ele>0.0</ele>
                <name>Av. Sánchez de Loria</name>
            </trkpt>
            <trkpt lon="-58.410454988479614" lat="-34.63507937594942">
                <ele>0.0</ele>
                <name>Av. Brasil</name>
            </trkpt>
            <trkpt lon="-58.40937" lat="-34.63475">
                <ele>0.0</ele>
                <name>24 de Noviembre</name>
            </trkpt>
            <trkpt lon="-58.411827" lat="-34.6092">
                <ele>0.0</ele>
                <name>Bartolomé Mitre</name>
            </trkpt>
            <trkpt lon="-58.40614199638367" lat="-34.608901521137575">
                <ele>0.0</ele>
                <name>Estación Once (Bartolomé Mitre)</name>
            </trkpt>
        </trkseg>
    </trk>
    <trk>
        <name>XshortX D - Lomas de Zamora</name>
        <trkseg>
            <trkpt lon="-58.416409492492676" lat="-34.65297974261105">
                <ele>0.0</ele>
                <name>Av. Sáenz</name>
            </trkpt>
            <trkpt lon="-58.41660261154175" lat="-34.65886624746337">
                <ele>0.0</ele>
                <name>Av. Remedios de Escalada</name>
            </trkpt>
            <trkpt lon="-58.41732144355774" lat="-34.66234323681257">
                <ele>0.0</ele>
                <name>Palacios</name>
            </trkpt>
            <trkpt lon="-58.41777205467224" lat="-34.66260797621736">
                <ele>0.0</ele>
                <name>Carlos Pellegrini</name>
            </trkpt>
            <trkpt lon="-58.42182755470276" lat="-34.66253737912546">
                <ele>0.0</ele>
                <name>Carlos Pellegrini</name>
            </trkpt>
            <trkpt lon="-58.42249274253845" lat="-34.66214026936275">
                <ele>0.0</ele>
                <name>Carlos Pellegrini</name>
            </trkpt>
            <trkpt lon="-58.425647020339966" lat="-34.66434641062826">
                <ele>0.0</ele>
                <name>Carlos Pellegrini</name>
            </trkpt>
            <trkpt lon="-58.432396" lat="-34.672108">
                <ele>0.0</ele>
                <name>Carlos Pellegrini</name>
            </trkpt>
            <trkpt lon="-58.439133" lat="-34.680191">
                <ele>0.0</ele>
                <name>Carlos Pellegrini</name>
            </trkpt>
            <trkpt lon="-58.43895077705383" lat="-34.681684635531006">
                <ele>0.0</ele>
                <name>Carlos Pellegrini</name>
            </trkpt>
            <trkpt lon="-58.43978762626648" lat="-34.68252277834536">
                <ele>0.0</ele>
                <name>Carlos Pellegrini</name>
            </trkpt>
            <trkpt lon="-58.44127893447876" lat="-34.682796275743584">
                <ele>0.0</ele>
                <name>Carlos Pellegrini</name>
            </trkpt>
            <trkpt lon="-58.460011" lat="-34.704716">
                <ele>0.0</ele>
                <name>Camino Pres. Perón</name>
            </trkpt>
            <trkpt lon="-58.45855236053467" lat="-34.70588149208709">
                <ele>0.0</ele>
                <name>Camino Pres. Perón</name>
            </trkpt>
            <trkpt lon="-58.459120988845825" lat="-34.706031432318795">
                <ele>0.0</ele>
                <name>Camino Pres. Perón</name>
            </trkpt>
            <trkpt lon="-58.459410667419434" lat="-34.70655181101466">
                <ele>5.0</ele>
                <time>2011-07-22T21:37:31.444Z</time>
                <name>Camino Pres. Perón</name>
            </trkpt>
            <trkpt lon="-58.458842039108276" lat="-34.707133925676814">
                <ele>0.0</ele>
                <name>Camino Pres. Perón</name>
            </trkpt>
            <trkpt lon="-58.45657825469971" lat="-34.70876117902448">
                <ele>0.0</ele>
                <name>Azamor</name>
            </trkpt>
            <trkpt lon="-58.46742510795593" lat="-34.714718681676935">
                <ele>0.0</ele>
                <name>Alas</name>
            </trkpt>
            <trkpt lon="-58.468403" lat="-34.71357">
                <ele>0.0</ele>
                <name>Camino de La Ribera Sud</name>
            </trkpt>
            <trkpt lon="-58.479124903678894" lat="-34.72368719899051">
                <ele>0.0</ele>
                <name>Newton</name>
            </trkpt>
            <trkpt lon="-58.47267150878906" lat="-34.73228001306962">
                <ele>0.0</ele>
                <name>Epecuén</name>
            </trkpt>
        </trkseg>
    </trk>
    <trk>
        <name>XshortX D - Nueva Pompeya</name>
        <trkseg>
            <trkpt lon="-58.4727144241333" lat="-34.732381410878695">
                <ele>0.0</ele>
                <name>Newton</name>
            </trkpt>
            <trkpt lon="-58.47920536994934" lat="-34.72359019958243">
                <ele>0.0</ele>
                <name>Camino de La Ribera Sud</name>
            </trkpt>
            <trkpt lon="-58.471620082855225" lat="-34.716694131854">
                <ele>0.0</ele>
                <name>Camino de La Ribera Sud</name>
            </trkpt>
            <trkpt lon="-58.46840143203735" lat="-34.71355455501121">
                <ele>0.0</ele>
                <name>Alas</name>
            </trkpt>
            <trkpt lon="-58.46746802330017" lat="-34.7147275007558">
                <ele>0.0</ele>
                <name>Azamor</name>
            </trkpt>
            <trkpt lon="-58.45658898353577" lat="-34.70878322830802">
                <ele>0.0</ele>
                <name>Camino Pres. Perón</name>
            </trkpt>
            <trkpt lon="-58.45319867134094" lat="-34.71276082288951">
                <ele>0.0</ele>
                <name>Camino Pres. Perón</name>
            </trkpt>
            <trkpt lon="-58.45279097557068" lat="-34.712549159703876">
                <ele>0.0</ele>
                <name>Camino Pres. Perón</name>
            </trkpt>
            <trkpt lon="-58.45619738101959" lat="-34.70832460200006">
                <ele>6.0</ele>
                <time>2011-07-22T21:46:37.212Z</time>
                <name>Camino Pres. Perón (Terminal de Omnibus)</name>
            </trkpt>
            <trkpt lon="-58.46002221107483" lat="-34.70484072298896">
                <ele>6.0</ele>
                <time>2011-07-22T21:46:37.212Z</time>
                <name>Carlos Pellegrini</name>
            </trkpt>
            <trkpt lon="-58.4322988986969" lat="-34.672076266095104">
                <ele>0.0</ele>
                <name>Carlos Pellegrini</name>
            </trkpt>
            <trkpt lon="-58.42586696147919" lat="-34.66458467037045">
                <ele>0.0</ele>
                <name>Carlos Pellegrini</name>
            </trkpt>
            <trkpt lon="-58.42205822467804" lat="-34.661747570059205">
                <ele>0.0</ele>
                <name>Carlos Pellegrini</name>
            </trkpt>
            <trkpt lon="-58.41648995876312" lat="-34.6601414546606">
                <ele>0.0</ele>
                <name>Av. Remedios de Escalada</name>
            </trkpt>
            <trkpt lon="-58.41675281524658" lat="-34.6616681475019">
                <ele>0.0</ele>
                <name>Qundimil</name>
            </trkpt>
            <trkpt lon="-58.41630756855011" lat="-34.66203878545139">
                <ele>0.0</ele>
                <name>Carabobo</name>
            </trkpt>
            <trkpt lon="-58.41697812080383" lat="-34.66254620376524">
                <ele>0.0</ele>
                <name>Av. Remedios de Escalada</name>
            </trkpt>
            <trkpt lon="-58.41704249382019" lat="-34.6621005582818">
                <ele>0.0</ele>
                <name>Av. Sáenz</name>
            </trkpt>
            <trkpt lon="-58.416409492492676" lat="-34.65338572188498">
                <ele>0.0</ele>
                <name>Av. Sáenz y Lynch</name>
            </trkpt>
        </trkseg>
    </trk>
    <trk>
        <name>XshortX E - Ingeniero Budge</name>
        <trkseg>
            <trkpt lon="-58.416430950164795" lat="-34.65297974261105">
                <ele>0.0</ele>
                <name>Av. Sáenz</name>
            </trkpt>
            <trkpt lon="-58.41660261154175" lat="-34.65886624746337">
                <ele>0.0</ele>
                <name>Av. Remedios de Escalada</name>
            </trkpt>
            <trkpt lon="-58.41732144355774" lat="-34.66234323681257">
                <ele>0.0</ele>
                <name>Palacios</name>
            </trkpt>
            <trkpt lon="-58.41777205467224" lat="-34.66260797621736">
                <ele>0.0</ele>
                <name>Carlos Pellegrini</name>
            </trkpt>
            <trkpt lon="-58.42182755470276" lat="-34.66253737912546">
                <ele>0.0</ele>
                <name>Carlos Pellegrini</name>
            </trkpt>
            <trkpt lon="-58.42249274253845" lat="-34.66214026936275">
                <ele>0.0</ele>
                <name>Carlos Pellegrini</name>
            </trkpt>
            <trkpt lon="-58.425647020339966" lat="-34.66434641062826">
                <ele>0.0</ele>
                <name>Carlos Pellegrini</name>
            </trkpt>
            <trkpt lon="-58.432396" lat="-34.672108">
                <ele>0.0</ele>
                <name>Carlos Pellegrini</name>
            </trkpt>
            <trkpt lon="-58.439133" lat="-34.680191">
                <ele>0.0</ele>
                <name>Carlos Pellegrini</name>
            </trkpt>
            <trkpt lon="-58.43895077705383" lat="-34.681684635531006">
                <ele>0.0</ele>
                <name>Carlos Pellegrini</name>
            </trkpt>
            <trkpt lon="-58.43978762626648" lat="-34.68252277834536">
                <ele>0.0</ele>
                <name>Carlos Pellegrini</name>
            </trkpt>
            <trkpt lon="-58.44127893447876" lat="-34.682796275743584">
                <ele>0.0</ele>
                <name>Carlos Pellegrini</name>
            </trkpt>
            <trkpt lon="-58.460011" lat="-34.704716">
                <ele>0.0</ele>
                <name>Camino Pres. Perón</name>
            </trkpt>
            <trkpt lon="-58.45855236053467" lat="-34.70588149208709">
                <ele>0.0</ele>
                <name>Camino Pres. Perón</name>
            </trkpt>
            <trkpt lon="-58.459120988845825" lat="-34.706031432318795">
                <ele>0.0</ele>
                <name>Camino Pres. Perón</name>
            </trkpt>
            <trkpt lon="-58.459410667419434" lat="-34.70655181101466">
                <ele>5.0</ele>
                <time>2011-07-22T21:37:31.444Z</time>
                <name>Camino Pres. Perón</name>
            </trkpt>
            <trkpt lon="-58.458842039108276" lat="-34.707133925676814">
                <ele>0.0</ele>
                <name>Camino Pres. Perón</name>
            </trkpt>
            <trkpt lon="-58.45657825469971" lat="-34.70876117902448">
                <ele>0.0</ele>
                <name>Azamor</name>
            </trkpt>
            <trkpt lon="-58.45451831817627" lat="-34.71121743306884">
                <ele>0.0</ele>
                <name>Baradero</name>
            </trkpt>
            <trkpt lon="-58.46541881561279" lat="-34.717276175137954">
                <ele>0.0</ele>
                <name>Alas</name>
            </trkpt>
            <trkpt lon="-58.46232891082764" lat="-34.72097117254505">
                <ele>0.0</ele>
                <name>Recondo</name>
            </trkpt>
        </trkseg>
    </trk>
    <trk>
        <name>XshortX E - Nueva Pompeya</name>
        <trkseg>
            <trkpt lon="-58.462350368499756" lat="-34.72092267126194">
                <ele>0.0</ele>
                <name>Alas</name>
            </trkpt>
            <trkpt lon="-58.465359807014465" lat="-34.71725412811851">
                <ele>0.0</ele>
                <name>Baradero</name>
            </trkpt>
            <trkpt lon="-58.45450758934021" lat="-34.71123507197235">
                <ele>0.0</ele>
                <name>Camino Pres. Perón</name>
            </trkpt>
            <trkpt lon="-58.45319867134094" lat="-34.71276082288951">
                <ele>0.0</ele>
                <name>Camino Pres. Perón</name>
            </trkpt>
            <trkpt lon="-58.45279097557068" lat="-34.712549159703876">
                <ele>0.0</ele>
                <name>Camino Pres. Perón</name>
            </trkpt>
            <trkpt lon="-58.45619738101959" lat="-34.70832460200006">
                <ele>6.0</ele>
                <time>2011-07-22T21:46:37.212Z</time>
                <name>Camino Pres. Perón (Terminal de Omnibus)</name>
            </trkpt>
            <trkpt lon="-58.46002221107483" lat="-34.70484072298896">
                <ele>6.0</ele>
                <time>2011-07-22T21:46:37.212Z</time>
                <name>Carlos Pellegrini</name>
            </trkpt>
            <trkpt lon="-58.4322988986969" lat="-34.672076266095104">
                <ele>0.0</ele>
                <name>Carlos Pellegrini</name>
            </trkpt>
            <trkpt lon="-58.42586696147919" lat="-34.66458467037045">
                <ele>0.0</ele>
                <name>Carlos Pellegrini</name>
            </trkpt>
            <trkpt lon="-58.42205822467804" lat="-34.661747570059205">
                <ele>0.0</ele>
                <name>Carlos Pellegrini</name>
            </trkpt>
            <trkpt lon="-58.41648995876312" lat="-34.6601414546606">
                <ele>0.0</ele>
                <name>Av. Remedios de Escalada</name>
            </trkpt>
            <trkpt lon="-58.41675281524658" lat="-34.6616681475019">
                <ele>0.0</ele>
                <name>Qundimil</name>
            </trkpt>
            <trkpt lon="-58.41630756855011" lat="-34.66203878545139">
                <ele>0.0</ele>
                <name>Carabobo</name>
            </trkpt>
            <trkpt lon="-58.41697812080383" lat="-34.66254620376524">
                <ele>0.0</ele>
                <name>Av. Remedios de Escalada</name>
            </trkpt>
            <trkpt lon="-58.41704249382019" lat="-34.6621005582818">
                <ele>0.0</ele>
                <name>Av. Sáenz</name>
            </trkpt>
            <trkpt lon="-58.41634511947632" lat="-34.65333276817941">
                <ele>0.0</ele>
                <name>Av. Sáenz y Lynch</name>
            </trkpt>
        </trkseg>
    </trk>
    <trk>
        <name>B - Barrio 9 de Abril</name>
        <trkseg>
            <trkpt lon="-58.40784788131714" lat="-34.609109034068965">
                <ele>0.0</ele>
                <name>Bartolomé Mitre</name>
            </trkpt>
            <trkpt lon="-58.40608298778534" lat="-34.60902073075731">
                <ele>0.0</ele>
                <name>Av. Pueyrredón</name>
            </trkpt>
            <trkpt lon="-58.40600252151489" lat="-34.610067118963066">
                <ele>0.0</ele>
                <name>Av. Rivadavia</name>
            </trkpt>
            <trkpt lon="-58.41039061546326" lat="-34.610437987566755">
                <ele>0.0</ele>
                <name>Gral. Urquiza</name>
            </trkpt>
            <trkpt lon="-58.40947866439819" lat="-34.61661005752521">
                <ele>0.0</ele>
                <name>Gral. Urquiza</name>
            </trkpt>
            <trkpt lon="-58.407676219940186" lat="-34.636350535350275">
                <ele>0.0</ele>
                <name>Rondeau</name>
            </trkpt>
            <trkpt lon="-58.409199714660645" lat="-34.636703631726526">
                <ele>0.0</ele>
                <name>24 de Noviembre</name>
            </trkpt>
            <trkpt lon="-58.40907096862793" lat="-34.637736429998284">
                <ele>18.0</ele>
                <time>2011-07-22T21:20:45.230Z</time>
                <name>Pepirí</name>
            </trkpt>
            <trkpt lon="-58.40859889984131" lat="-34.63929884396431">
                <ele>0.0</ele>
                <name>Pepirí</name>
            </trkpt>
            <trkpt lon="-58.409294" lat="-34.642704">
                <ele>0.0</ele>
                <name>Dr. Prof. Pedro Chutro</name>
            </trkpt>
            <trkpt lon="-58.41153" lat="-34.643005">
                <ele>0.0</ele>
                <name>Achala</name>
            </trkpt>
            <trkpt lon="-58.41611981391907" lat="-34.642149952905164">
                <ele>0.0</ele>
                <name>Av. Sáenz</name>
            </trkpt>
            <trkpt lon="-58.41660261154175" lat="-34.65886624746337">
                <ele>0.0</ele>
                <name>Av. Remedios de Escalada</name>
            </trkpt>
            <trkpt lon="-58.41732144355774" lat="-34.66234323681257">
                <ele>0.0</ele>
                <name>Palacios</name>
            </trkpt>
            <trkpt lon="-58.41777205467224" lat="-34.66260797621736">
                <ele>0.0</ele>
                <name>Carlos Pellegrini</name>
            </trkpt>
            <trkpt lon="-58.42182755470276" lat="-34.66253737912546">
                <ele>0.0</ele>
                <name>Carlos Pellegrini</name>
            </trkpt>
            <trkpt lon="-58.42249274253845" lat="-34.66214026936275">
                <ele>0.0</ele>
                <name>Carlos Pellegrini</name>
            </trkpt>
            <trkpt lon="-58.425647020339966" lat="-34.66434641062826">
                <ele>0.0</ele>
                <name>Carlos Pellegrini</name>
            </trkpt>
            <trkpt lon="-58.432396" lat="-34.672108">
                <ele>0.0</ele>
                <name>Carlos Pellegrini</name>
            </trkpt>
            <trkpt lon="-58.439133" lat="-34.680191">
                <ele>0.0</ele>
                <name>Carlos Pellegrini</name>
            </trkpt>
            <trkpt lon="-58.43895077705383" lat="-34.681684635531006">
                <ele>0.0</ele>
                <name>Carlos Pellegrini</name>
            </trkpt>
            <trkpt lon="-58.43978762626648" lat="-34.68252277834536">
                <ele>0.0</ele>
                <name>Carlos Pellegrini</name>
            </trkpt>
            <trkpt lon="-58.44127893447876" lat="-34.682796275743584">
                <ele>0.0</ele>
                <name>Carlos Pellegrini</name>
            </trkpt>
            <trkpt lon="-58.460011" lat="-34.704716">
                <ele>0.0</ele>
                <name>Camino Pres. Perón</name>
            </trkpt>
            <trkpt lon="-58.45855236053467" lat="-34.70588149208709">
                <ele>0.0</ele>
                <name>Camino Pres. Perón</name>
            </trkpt>
            <trkpt lon="-58.459120988845825" lat="-34.706031432318795">
                <ele>0.0</ele>
                <name>Camino Pres. Perón</name>
            </trkpt>
            <trkpt lon="-58.459410667419434" lat="-34.70655181101466">
                <ele>5.0</ele>
                <time>2011-07-22T21:37:31.444Z</time>
                <name>Camino Pres. Perón</name>
            </trkpt>
            <trkpt lon="-58.458842039108276" lat="-34.707133925676814">
                <ele>0.0</ele>
                <name>Camino Pres. Perón</name>
            </trkpt>
            <trkpt lon="-58.45657825469971" lat="-34.70876117902448">
                <ele>0.0</ele>
                <name>Azamor</name>
            </trkpt>
            <trkpt lon="-58.46742510795593" lat="-34.714718681676935">
                <ele>0.0</ele>
                <name>Alas</name>
            </trkpt>
            <trkpt lon="-58.468403" lat="-34.71357">
                <ele>0.0</ele>
                <name>Camino de La Ribera Sud</name>
            </trkpt>
            <trkpt lon="-58.479124903678894" lat="-34.72368719899051">
                <ele>0.0</ele>
                <name>Newton</name>
            </trkpt>
            <trkpt lon="-58.47267150878906" lat="-34.73228001306962">
                <ele>0.0</ele>
                <name>Epecuén</name>
            </trkpt>
            <trkpt lon="-58.47547173500061" lat="-34.733518821255764">
                <ele>8.0</ele>
                <time>2011-07-22T21:38:57.210Z</time>
                <name>Av. Brig. Gral. Juan Manuel de Rosas</name>
            </trkpt>
            <trkpt lon="-58.48891496658325" lat="-34.739346701681825">
                <ele>0.0</ele>
                <name>Av. Olimpo</name>
            </trkpt>
            <trkpt lon="-58.494805097579956" lat="-34.742269303898105">
                <ele>0.0</ele>
                <name>Av. Olimpo y Camino de Cintura</name>
            </trkpt>
        </trkseg>
    </trk>
    <trk>
        <name>B - Plaza Miserere (Estación Once)</name>
        <trkseg>
            <trkpt lon="-58.49477022886276" lat="-34.742269303898105">
                <ele>0.0</ele>
                <name>Av. Olimpo</name>
            </trkpt>
            <trkpt lon="-58.48891496658325" lat="-34.739346701681825">
                <ele>8.0</ele>
                <time>2011-07-22T21:42:13.991Z</time>
                <name>Av. Brig. Gral. Juan Manuel de Rosas</name>
            </trkpt>
            <trkpt lon="-58.475128412246704" lat="-34.73338656503946">
                <ele>7.0</ele>
                <time>2011-07-22T21:42:13.991Z</time>
                <name>Epecuén</name>
            </trkpt>
            <trkpt lon="-58.4727144241333" lat="-34.732381410878695">
                <ele>0.0</ele>
                <name>Newton</name>
            </trkpt>
            <trkpt lon="-58.47920536994934" lat="-34.72359019958243">
                <ele>0.0</ele>
                <name>Camino de La Ribera Sud</name>
            </trkpt>
            <trkpt lon="-58.471620082855225" lat="-34.716694131854">
                <ele>0.0</ele>
                <name>Camino de La Ribera Sud</name>
            </trkpt>
            <trkpt lon="-58.46840143203735" lat="-34.71355455501121">
                <ele>0.0</ele>
                <name>Alas</name>
            </trkpt>
            <trkpt lon="-58.46746802330017" lat="-34.7147275007558">
                <ele>0.0</ele>
                <name>Azamor</name>
            </trkpt>
            <trkpt lon="-58.45658898353577" lat="-34.70878322830802">
                <ele>0.0</ele>
                <name>Camino Pres. Perón</name>
            </trkpt>
            <trkpt lon="-58.45319867134094" lat="-34.71276082288951">
                <ele>0.0</ele>
                <name>Camino Pres. Perón</name>
            </trkpt>
            <trkpt lon="-58.45279097557068" lat="-34.712549159703876">
                <ele>0.0</ele>
                <name>Camino Pres. Perón</name>
            </trkpt>
            <trkpt lon="-58.45619738101959" lat="-34.70832460200006">
                <ele>6.0</ele>
                <time>2011-07-22T21:46:37.212Z</time>
                <name>Camino Pres. Perón (Terminal de Omnibus)</name>
            </trkpt>
            <trkpt lon="-58.46002221107483" lat="-34.70484072298896">
                <ele>6.0</ele>
                <time>2011-07-22T21:46:37.212Z</time>
                <name>Carlos Pellegrini</name>
            </trkpt>
            <trkpt lon="-58.4322988986969" lat="-34.672076266095104">
                <ele>0.0</ele>
                <name>Carlos Pellegrini</name>
            </trkpt>
            <trkpt lon="-58.42586696147919" lat="-34.66458467037045">
                <ele>0.0</ele>
                <name>Carlos Pellegrini</name>
            </trkpt>
            <trkpt lon="-58.42205822467804" lat="-34.661747570059205">
                <ele>0.0</ele>
                <name>Carlos Pellegrini</name>
            </trkpt>
            <trkpt lon="-58.41648995876312" lat="-34.6601414546606">
                <ele>0.0</ele>
                <name>Av. Remedios de Escalada</name>
            </trkpt>
            <trkpt lon="-58.41675281524658" lat="-34.6616681475019">
                <ele>0.0</ele>
                <name>Qundimil</name>
            </trkpt>
            <trkpt lon="-58.41630756855011" lat="-34.66203878545139">
                <ele>0.0</ele>
                <name>Carabobo</name>
            </trkpt>
            <trkpt lon="-58.41697812080383" lat="-34.66254620376524">
                <ele>0.0</ele>
                <name>Av. Remedios de Escalada</name>
            </trkpt>
            <trkpt lon="-58.41704249382019" lat="-34.6621005582818">
                <ele>0.0</ele>
                <name>Av. Sáenz</name>
            </trkpt>
            <trkpt lon="-58.41633439064026" lat="-34.65472720447557">
                <ele>0.0</ele>
                <name>Av. Sáenz</name>
            </trkpt>
            <trkpt lon="-58.41622710227966" lat="-34.648293185735376">
                <ele>0.0</ele>
                <name>Av. Almafuerte</name>
            </trkpt>
            <trkpt lon="-58.41451048851013" lat="-34.64576003998797">
                <ele>10.0</ele>
                <time>2011-07-22T21:33:09.910Z</time>
                <name>Av. Almafuerte</name>
            </trkpt>
            <trkpt lon="-58.411688804626465" lat="-34.639493040253754">
                <ele>0.0</ele>
                <name>Uspallata</name>
            </trkpt>
            <trkpt lon="-58.40887784957886" lat="-34.640499322834">
                <ele>21.0</ele>
                <time>2011-07-22T21:48:48.081Z</time>
                <name>Uspallata</name>
            </trkpt>
            <trkpt lon="-58.40505838394165" lat="-34.64012858856712">
                <ele>13.0</ele>
                <time>2011-07-22T21:48:48.081Z</time>
                <name>Monteagudo</name>
            </trkpt>
            <trkpt lon="-58.40562701225281" lat="-34.6371626547684">
                <ele>0.0</ele>
                <name>La Rioja</name>
            </trkpt>
            <trkpt lon="-58.40601325035095" lat="-34.63373757544743">
                <ele>0.0</ele>
                <name>Av. Brasil</name>
            </trkpt>
            <trkpt lon="-58.40937" lat="-34.63475">
                <ele>0.0</ele>
                <name>24 de Noviembre</name>
            </trkpt>
            <trkpt lon="-58.411827" lat="-34.6092">
                <ele>0.0</ele>
                <name>Bartolomé Mitre</name>
            </trkpt>
            <trkpt lon="-58.40614199638367" lat="-34.608901521137575">
                <ele>0.0</ele>
                <name>Estación Once (Bartolomé Mitre)</name>
            </trkpt>
        </trkseg>
    </trk>
    <trk>
        <name>C - Barrio 9 de Abril</name>
        <trkseg>
            <trkpt lon="-58.40784788131714" lat="-34.609109034068965">
                <ele>0.0</ele>
                <name>Bartolomé Mitre</name>
            </trkpt>
            <trkpt lon="-58.40608298778534" lat="-34.60902073075731">
                <ele>0.0</ele>
                <name>Av. Pueyrredón</name>
            </trkpt>
            <trkpt lon="-58.40600252151489" lat="-34.610067118963066">
                <ele>0.0</ele>
                <name>Av. Rivadavia</name>
            </trkpt>
            <trkpt lon="-58.41039061546326" lat="-34.610437987566755">
                <ele>0.0</ele>
                <name>Gral. Urquiza</name>
            </trkpt>
            <trkpt lon="-58.40947866439819" lat="-34.61661005752521">
                <ele>0.0</ele>
                <name>Gral. Urquiza</name>
            </trkpt>
            <trkpt lon="-58.407676219940186" lat="-34.636350535350275">
                <ele>0.0</ele>
                <name>Rondeau</name>
            </trkpt>
            <trkpt lon="-58.409199714660645" lat="-34.636703631726526">
                <ele>0.0</ele>
                <name>24 de Noviembre</name>
            </trkpt>
            <trkpt lon="-58.40907096862793" lat="-34.637736429998284">
                <ele>18.0</ele>
                <time>2011-07-22T21:20:45.230Z</time>
                <name>Pepirí</name>
            </trkpt>
            <trkpt lon="-58.40859889984131" lat="-34.63929884396431">
                <ele>0.0</ele>
                <name>Pepirí</name>
            </trkpt>
            <trkpt lon="-58.409294" lat="-34.642704">
                <ele>0.0</ele>
                <name>Dr. Prof. Pedro Chutro</name>
            </trkpt>
            <trkpt lon="-58.41153" lat="-34.643005">
                <ele>0.0</ele>
                <name>Achala</name>
            </trkpt>
            <trkpt lon="-58.41611981391907" lat="-34.642149952905164">
                <ele>0.0</ele>
                <name>Av. Sáenz</name>
            </trkpt>
            <trkpt lon="-58.41660261154175" lat="-34.65886624746337">
                <ele>0.0</ele>
                <name>Av. Remedios de Escalada</name>
            </trkpt>
            <trkpt lon="-58.41732144355774" lat="-34.66234323681257">
                <ele>0.0</ele>
                <name>Palacios</name>
            </trkpt>
            <trkpt lon="-58.41777205467224" lat="-34.66260797621736">
                <ele>0.0</ele>
                <name>Carlos Pellegrini</name>
            </trkpt>
            <trkpt lon="-58.42182755470276" lat="-34.66253737912546">
                <ele>0.0</ele>
                <name>Carlos Pellegrini</name>
            </trkpt>
            <trkpt lon="-58.42249274253845" lat="-34.66214026936275">
                <ele>0.0</ele>
                <name>Carlos Pellegrini</name>
            </trkpt>
            <trkpt lon="-58.425647020339966" lat="-34.66434641062826">
                <ele>0.0</ele>
                <name>Carlos Pellegrini</name>
            </trkpt>
            <trkpt lon="-58.432396" lat="-34.672108">
                <ele>0.0</ele>
                <name>Carlos Pellegrini</name>
            </trkpt>
            <trkpt lon="-58.439133" lat="-34.680191">
                <ele>0.0</ele>
                <name>Carlos Pellegrini</name>
            </trkpt>
            <trkpt lon="-58.43895077705383" lat="-34.681684635531006">
                <ele>0.0</ele>
                <name>Carlos Pellegrini</name>
            </trkpt>
            <trkpt lon="-58.43978762626648" lat="-34.68252277834536">
                <ele>0.0</ele>
                <name>Carlos Pellegrini</name>
            </trkpt>
            <trkpt lon="-58.44127893447876" lat="-34.682796275743584">
                <ele>0.0</ele>
                <name>Carlos Pellegrini</name>
            </trkpt>
            <trkpt lon="-58.460011" lat="-34.704716">
                <ele>0.0</ele>
                <name>Camino Pres. Perón</name>
            </trkpt>
            <trkpt lon="-58.45855236053467" lat="-34.70588149208709">
                <ele>0.0</ele>
                <name>Camino Pres. Perón</name>
            </trkpt>
            <trkpt lon="-58.459120988845825" lat="-34.706031432318795">
                <ele>0.0</ele>
                <name>Camino Pres. Perón</name>
            </trkpt>
            <trkpt lon="-58.459410667419434" lat="-34.70655181101466">
                <ele>5.0</ele>
                <time>2011-07-22T21:37:31.444Z</time>
                <name>Camino Pres. Perón</name>
            </trkpt>
            <trkpt lon="-58.458842039108276" lat="-34.707133925676814">
                <ele>0.0</ele>
                <name>Camino Pres. Perón</name>
            </trkpt>
            <trkpt lon="-58.45657825469971" lat="-34.70876117902448">
                <ele>0.0</ele>
                <name>Azamor</name>
            </trkpt>
            <trkpt lon="-58.45451831817627" lat="-34.71121743306884">
                <ele>0.0</ele>
                <name>Baradero</name>
            </trkpt>
            <trkpt lon="-58.46541881561279" lat="-34.717276175137954">
                <ele>0.0</ele>
                <name>Alas</name>
            </trkpt>
            <trkpt lon="-58.46232891082764" lat="-34.72097117254505">
                <ele>0.0</ele>
                <name>Recondo</name>
            </trkpt>
            <trkpt lon="-58.46471071243286" lat="-34.722276287297845">
                <ele>0.0</ele>
                <name>Bello</name>
            </trkpt>
            <trkpt lon="-58.4627902507782" lat="-34.7246571868118">
                <ele>0.0</ele>
                <name>Quesada</name>
            </trkpt>
            <trkpt lon="-58.46579432487488" lat="-34.72629732214448">
                <ele>0.0</ele>
                <name>Tabaré</name>
            </trkpt>
            <trkpt lon="-58.467103242874146" lat="-34.72834303673641">
                <ele>0.0</ele>
                <name>Homero</name>
            </trkpt>
            <trkpt lon="-58.46648097038269" lat="-34.72908371401852">
                <ele>0.0</ele>
                <name>Epecuén</name>
            </trkpt>
            <trkpt lon="-58.47273588180542" lat="-34.73232850768948">
                <ele>0.0</ele>
                <name>Epecuén</name>
            </trkpt>
            <trkpt lon="-58.47547173500061" lat="-34.733518821255764">
                <ele>8.0</ele>
                <time>2011-07-22T21:38:57.210Z</time>
                <name>Av. Brig. Gral. Juan Manuel de Rosas</name>
            </trkpt>
            <trkpt lon="-58.48891496658325" lat="-34.739346701681825">
                <ele>0.0</ele>
                <name>Av. Olimpo</name>
            </trkpt>
            <trkpt lon="-58.494805097579956" lat="-34.742269303898105">
                <ele>0.0</ele>
                <name>Av. Olimpo y Camino de Cintura</name>
            </trkpt>
        </trkseg>
    </trk>
    <trk>
        <name>C - Plaza Miserere (Estación Once)</name>
        <trkseg>
            <trkpt lon="-58.49477022886276" lat="-34.742269303898105">
                <ele>0.0</ele>
                <name>Av. Olimpo</name>
            </trkpt>
            <trkpt lon="-58.48891496658325" lat="-34.739346701681825">
                <ele>8.0</ele>
                <time>2011-07-22T21:42:13.991Z</time>
                <name>Av. Brig. Gral. Juan Manuel de Rosas</name>
            </trkpt>
            <trkpt lon="-58.475128412246704" lat="-34.73338656503946">
                <ele>7.0</ele>
                <time>2011-07-22T21:42:13.991Z</time>
                <name>Epecuén</name>
            </trkpt>
            <trkpt lon="-58.4727144241333" lat="-34.732337324890025">
                <ele>0.0</ele>
                <name>Epecuén</name>
            </trkpt>
            <trkpt lon="-58.46645414829254" lat="-34.72910575788355">
                <ele>0.0</ele>
                <name>Homero</name>
            </trkpt>
            <trkpt lon="-58.46703886985779" lat="-34.72829894859366">
                <ele>0.0</ele>
                <name>Tabaré</name>
            </trkpt>
            <trkpt lon="-58.46582651138306" lat="-34.726328184594195">
                <ele>0.0</ele>
                <name>Quesada</name>
            </trkpt>
            <trkpt lon="-58.46275806427002" lat="-34.72461309670319">
                <ele>0.0</ele>
                <name>Bello</name>
            </trkpt>
            <trkpt lon="-58.46468925476074" lat="-34.7222586507493">
                <ele>0.0</ele>
                <name>Recondo</name>
            </trkpt>
            <trkpt lon="-58.462350368499756" lat="-34.72092267126194">
                <ele>0.0</ele>
                <name>Alas</name>
            </trkpt>
            <trkpt lon="-58.465359807014465" lat="-34.71725412811851">
                <ele>0.0</ele>
                <name>Baradero</name>
            </trkpt>
            <trkpt lon="-58.45450758934021" lat="-34.71123507197235">
                <ele>0.0</ele>
                <name>Camino Pres. Perón</name>
            </trkpt>
            <trkpt lon="-58.45319867134094" lat="-34.71276082288951">
                <ele>0.0</ele>
                <name>Camino Pres. Perón</name>
            </trkpt>
            <trkpt lon="-58.45279097557068" lat="-34.712549159703876">
                <ele>0.0</ele>
                <name>Camino Pres. Perón</name>
            </trkpt>
            <trkpt lon="-58.45619738101959" lat="-34.70832460200006">
                <ele>6.0</ele>
                <time>2011-07-22T21:46:37.212Z</time>
                <name>Camino Pres. Perón (Terminal de Omnibus)</name>
            </trkpt>
            <trkpt lon="-58.46002221107483" lat="-34.70484072298896">
                <ele>6.0</ele>
                <time>2011-07-22T21:46:37.212Z</time>
                <name>Carlos Pellegrini</name>
            </trkpt>
            <trkpt lon="-58.4322988986969" lat="-34.672076266095104">
                <ele>0.0</ele>
                <name>Carlos Pellegrini</name>
            </trkpt>
            <trkpt lon="-58.42586696147919" lat="-34.66458467037045">
                <ele>0.0</ele>
                <name>Carlos Pellegrini</name>
            </trkpt>
            <trkpt lon="-58.42205822467804" lat="-34.661747570059205">
                <ele>0.0</ele>
                <name>Carlos Pellegrini</name>
            </trkpt>
            <trkpt lon="-58.41648995876312" lat="-34.6601414546606">
                <ele>0.0</ele>
                <name>Av. Remedios de Escalada</name>
            </trkpt>
            <trkpt lon="-58.41675281524658" lat="-34.6616681475019">
                <ele>0.0</ele>
                <name>Qundimil</name>
            </trkpt>
            <trkpt lon="-58.41630756855011" lat="-34.66203878545139">
                <ele>0.0</ele>
                <name>Carabobo</name>
            </trkpt>
            <trkpt lon="-58.41697812080383" lat="-34.66254620376524">
                <ele>0.0</ele>
                <name>Av. Remedios de Escalada</name>
            </trkpt>
            <trkpt lon="-58.41704249382019" lat="-34.6621005582818">
                <ele>0.0</ele>
                <name>Av. Sáenz</name>
            </trkpt>
            <trkpt lon="-58.41633439064026" lat="-34.65472720447557">
                <ele>0.0</ele>
                <name>Av. Sáenz</name>
            </trkpt>
            <trkpt lon="-58.41622710227966" lat="-34.648293185735376">
                <ele>0.0</ele>
                <name>Av. Almafuerte</name>
            </trkpt>
            <trkpt lon="-58.41451048851013" lat="-34.64576003998797">
                <ele>10.0</ele>
                <time>2011-07-22T21:33:09.910Z</time>
                <name>Av. Almafuerte</name>
            </trkpt>
            <trkpt lon="-58.411688804626465" lat="-34.639493040253754">
                <ele>0.0</ele>
                <name>Uspallata</name>
            </trkpt>
            <trkpt lon="-58.40887784957886" lat="-34.640499322834">
                <ele>21.0</ele>
                <time>2011-07-22T21:48:48.081Z</time>
                <name>Uspallata</name>
            </trkpt>
            <trkpt lon="-58.40505838394165" lat="-34.64012858856712">
                <ele>13.0</ele>
                <time>2011-07-22T21:48:48.081Z</time>
                <name>Monteagudo</name>
            </trkpt>
            <trkpt lon="-58.40562701225281" lat="-34.6371626547684">
                <ele>0.0</ele>
                <name>La Rioja</name>
            </trkpt>
            <trkpt lon="-58.40601325035095" lat="-34.63373757544743">
                <ele>0.0</ele>
                <name>Av. Brasil</name>
            </trkpt>
            <trkpt lon="-58.40937" lat="-34.63475">
                <ele>0.0</ele>
                <name>24 de Noviembre</name>
            </trkpt>
            <trkpt lon="-58.411827" lat="-34.6092">
                <ele>0.0</ele>
                <name>Bartolomé Mitre</name>
            </trkpt>
            <trkpt lon="-58.40614199638367" lat="-34.608901521137575">
                <ele>0.0</ele>
                <name>Estación Once (Bartolomé Mitre)</name>
            </trkpt>
        </trkseg>
    </trk>
</gpx>
