<?xml version="1.0" encoding="UTF-8" standalone="yes"?>
<gpx xmlns="http://www.topografix.com/GPX/1/1" xmlns:gpxtrx="http://www.garmin.com/xmlschemas/GpxExtensions/v3" xmlns:rcxx="http://www.routeconverter.de/xmlschemas/RouteCatalogExtensions/1.0" xmlns:xsi="http://www.w3.org/2001/XMLSchema-instance" xmlns:gpxtpx="http://www.garmin.com/xmlschemas/TrackPointExtension/v1" xmlns:gpxx="http://www.garmin.com/xmlschemas/WaypointExtension/v1" xmlns:nmea="http://trekbuddy.net/2009/01/gpx/nmea" creator="Generated by Christian Pesch's RouteConverter. See http://www.routeconverter.com" version="1.1">
    <trk>
        <name>A - Correo Central</name>
        <desc>&lt;a href=&quot;http://www.masmapas.com/colectivo-4-lomas-del-mirador-liniers-constitucion-correo-central&quot;&gt;Mas info sobre la linea de colectivos 4 (Colectivo 4 - Lomas Del Mirador - Liniers - Constitucion - Correo Central)&lt;/a&gt;</desc>
        <trkseg>
            <trkpt lon="-58.532060980796814" lat="-34.66013704221278">
                <ele>0.0</ele>
                <name>Av. Gral. Enrique Mosconi</name>
            </trkpt>
            <trkpt lon="-58.52494776248932" lat="-34.656377551297915">
                <ele>0.0</ele>
                <name>:2way:Av. Gral. Paz Este</name>
            </trkpt>
            <trkpt lon="-58.52600455284119" lat="-34.65562739772512">
                <ele>0.0</ele>
                <name>:2way:Av. Gral. Paz Este</name>
            </trkpt>
            <trkpt lon="-58.528268337249756" lat="-34.65284294479912">
                <ele>0.0</ele>
                <name>:2way:Av. Gral. Paz Este</name>
            </trkpt>
            <trkpt lon="-58.52908372879028" lat="-34.63938711506134">
                <ele>0.0</ele>
                <name>:2way:Av. Rivadavia</name>
            </trkpt>
            <trkpt lon="-58.52511405944824" lat="-34.639060511533046">
                <ele>0.0</ele>
                <name>Carhue</name>
            </trkpt>
            <trkpt lon="-58.5247385501861" lat="-34.64371228372153">
                <ele>0.0</ele>
                <name>Palmar</name>
            </trkpt>
            <trkpt lon="-58.527399301528874" lat="-34.643774070210874">
                <ele>0.0</ele>
                <name>José Leon Suárez</name>
            </trkpt>
            <trkpt lon="-58.527259826660156" lat="-34.64552613935215">
                <ele>0.0</ele>
                <name>José Leon Suárez</name>
            </trkpt>
            <trkpt lon="-58.52684676647186" lat="-34.645879196661966">
                <ele>0.0</ele>
                <name>José Leon Suárez</name>
            </trkpt>
            <trkpt lon="-58.52721154689789" lat="-34.64620577333507">
                <ele>0.0</ele>
                <name>José Leon Suárez</name>
            </trkpt>
            <trkpt lon="-58.526793122291565" lat="-34.65248109143401">
                <ele>0.0</ele>
                <name>José Leon Suárez</name>
            </trkpt>
            <trkpt lon="-58.523268699645996" lat="-34.65512876247615">
                <ele>0.0</ele>
                <name>Patrón</name>
            </trkpt>
            <trkpt lon="-58.51637005805969" lat="-34.64894631877814">
                <ele>0.0</ele>
                <name>Pilar</name>
            </trkpt>
            <trkpt lon="-58.51350009441376" lat="-34.65106455269992">
                <ele>0.0</ele>
                <name>Av. Emilio Castro</name>
            </trkpt>
            <trkpt lon="-58.49817395210266" lat="-34.64388881642608">
                <ele>0.0</ele>
                <name>Guardia Nacional</name>
            </trkpt>
            <trkpt lon="-58.496044278144836" lat="-34.64564529636228">
                <ele>0.0</ele>
                <name>Av. Juan Bautista Alberdi</name>
            </trkpt>
            <trkpt lon="-58.49527180194855" lat="-34.64489504566548">
                <ele>0.0</ele>
                <name>Av. Bruix</name>
            </trkpt>
            <trkpt lon="-58.48663508892059" lat="-34.647070753983414">
                <ele>0.0</ele>
                <name>Av. Directorio</name>
            </trkpt>
            <trkpt lon="-58.47995638847351" lat="-34.64130698817705">
                <ele>0.0</ele>
                <name>Av. Directorio</name>
            </trkpt>
            <trkpt lon="-58.47741365432739" lat="-34.63976226617556">
                <ele>0.0</ele>
                <name>Martinez Castro</name>
            </trkpt>
            <trkpt lon="-58.46795618534088" lat="-34.647251692671624">
                <ele>0.0</ele>
                <name>Av. Eva Peron</name>
            </trkpt>
            <trkpt lon="-58.46706569194794" lat="-34.64591450231025">
                <ele>0.0</ele>
                <name>Av. Eva Peron</name>
            </trkpt>
            <trkpt lon="-58.46269369125366" lat="-34.643835856654164">
                <ele>0.0</ele>
                <name>Av. Eva Peron</name>
            </trkpt>
            <trkpt lon="-58.46202313899994" lat="-34.64423746741345">
                <ele>0.0</ele>
                <name>Av. Eva Peron</name>
            </trkpt>
            <trkpt lon="-58.461132645606995" lat="-34.64401238909564">
                <ele>0.0</ele>
                <name>Av. Eva Peron</name>
            </trkpt>
            <trkpt lon="-58.46072494983673" lat="-34.642931121992824">
                <ele>0.0</ele>
                <name>Av. Eva Peron</name>
            </trkpt>
            <trkpt lon="-58.45493137836456" lat="-34.64002266418646">
                <ele>0.0</ele>
                <name>Av. Eva Peron</name>
            </trkpt>
            <trkpt lon="-58.45368683338165" lat="-34.63871625236759">
                <ele>0.0</ele>
                <name>Av. Eva Peron</name>
            </trkpt>
            <trkpt lon="-58.44751238822937" lat="-34.63493813481346">
                <ele>0.0</ele>
                <name>Curapaligüe</name>
            </trkpt>
            <trkpt lon="-58.44581723213196" lat="-34.63663301257153">
                <ele>0.0</ele>
                <name>Av. Asamblea</name>
            </trkpt>
            <trkpt lon="-58.43274700000001" lat="-34.634014">
                <ele>0.0</ele>
                <name>Av. Asamblea</name>
            </trkpt>
            <trkpt lon="-58.429155349731445" lat="-34.631610070951744">
                <ele>0.0</ele>
                <name>Av. Asamblea</name>
            </trkpt>
            <trkpt lon="-58.42578113079071" lat="-34.63149972171976">
                <ele>0.0</ele>
                <name>Av. Pavón</name>
            </trkpt>
            <trkpt lon="-58.415905237197876" lat="-34.630188761613766">
                <ele>0.0</ele>
                <name>Pavón</name>
            </trkpt>
            <trkpt lon="-58.40849697589874" lat="-34.62831718670949">
                <ele>0.0</ele>
                <name>Pavón</name>
            </trkpt>
            <trkpt lon="-58.392311" lat="-34.626457">
                <ele>0.0</ele>
                <name>Combate de los Pozos</name>
            </trkpt>
            <trkpt lon="-58.391738533973694" lat="-34.629508996365985">
                <ele>0.0</ele>
                <name>Av. Brasil</name>
            </trkpt>
            <trkpt lon="-58.390928506851196" lat="-34.629288292165704">
                <ele>28.0</ele>
                <time>2011-07-12T20:46:10.920Z</time>
                <name>Av. Entre Rios</name>
            </trkpt>
            <trkpt lon="-58.391185998916626" lat="-34.627248957579205">
                <ele>27.0</ele>
                <time>2011-07-12T20:46:10.920Z</time>
                <name>Av. Juan de Garay</name>
            </trkpt>
            <trkpt lon="-58.38227033615112" lat="-34.62698410525392">
                <ele>26.0</ele>
                <time>2011-07-12T20:46:10.920Z</time>
                <name>Lima Oeste</name>
            </trkpt>
            <trkpt lon="-58.382205963134766" lat="-34.6278139730475">
                <ele>0.0</ele>
                <name>Av. Brasil</name>
            </trkpt>
            <trkpt lon="-58.3796364068985" lat="-34.62777424552314">
                <ele>0.0</ele>
                <name>Av. Brasil</name>
            </trkpt>
            <trkpt lon="-58.378493785858154" lat="-34.62747849557725">
                <ele>0.0</ele>
                <name>Av. Brasil</name>
            </trkpt>
            <trkpt lon="-58.375044465065" lat="-34.62563334524424">
                <ele>0.0</ele>
                <name>Av. Brasil</name>
            </trkpt>
            <trkpt lon="-58.36793661117554" lat="-34.625169844095225">
                <ele>0.0</ele>
                <name>Av. Paseo Colón</name>
            </trkpt>
            <trkpt lon="-58.3682906627655" lat="-34.6216912957046">
                <ele>0.0</ele>
                <name>Av. San Juan</name>
            </trkpt>
            <trkpt lon="-58.36691737174988" lat="-34.621572104280084">
                <ele>0.0</ele>
                <name>Azopardo</name>
            </trkpt>
            <trkpt lon="-58.36756110191345" lat="-34.615700611094944">
                <ele>0.0</ele>
                <name>Chile</name>
            </trkpt>
            <trkpt lon="-58.366026878356934" lat="-34.61558141106695">
                <ele>0.0</ele>
                <name>Av. Alicia Moreau de Justo</name>
            </trkpt>
            <trkpt lon="-58.366214632987976" lat="-34.611952350504446">
                <ele>0.0</ele>
                <name>Av. Alicia Moreau de Justo</name>
            </trkpt>
            <trkpt lon="-58.3675342798233" lat="-34.600163431509046">
                <ele>0.0</ele>
                <name>Tucumán</name>
            </trkpt>
            <trkpt lon="-58.369308" lat="-34.600533">
                <ele>0.0</ele>
                <name>Bouchard</name>
            </trkpt>
            <trkpt lon="-58.36915969848633" lat="-34.60180161737986">
                <ele>0.0</ele>
                <name>Correo Central</name>
            </trkpt>
        </trkseg>
    </trk>
    <trk>
        <name>A - Lomas del Mirador</name>
        <desc>&lt;a href=&quot;http://www.masmapas.com/colectivo-4-lomas-del-mirador-liniers-constitucion-correo-central&quot;&gt;Mas info sobre la linea de colectivos 4 (Colectivo 4 - Lomas Del Mirador - Liniers - Constitucion - Correo Central)&lt;/a&gt;</desc>
        <trkseg>
            <trkpt lon="-58.36915969848633" lat="-34.60180603293152">
                <ele>0.0</ele>
                <name>Lavalle</name>
            </trkpt>
            <trkpt lon="-58.36904168128967" lat="-34.60290108249782">
                <ele>0.0</ele>
                <name>Av. Corrientes</name>
            </trkpt>
            <trkpt lon="-58.367245" lat="-34.602734">
                <ele>0.0</ele>
                <name>Av. Alicia Moreau de Justo</name>
            </trkpt>
            <trkpt lon="-58.365758657455444" lat="-34.61805808758816">
                <ele>0.0</ele>
                <name>Estados Unidos</name>
            </trkpt>
            <trkpt lon="-58.36653649806976" lat="-34.61811989318725">
                <ele>0.0</ele>
                <name>Av. Ing. Huergo</name>
            </trkpt>
            <trkpt lon="-58.36586594581604" lat="-34.62399121522526">
                <ele>0.0</ele>
                <name>Av. Juan de Garay</name>
            </trkpt>
            <trkpt lon="-58.375468254089355" lat="-34.624498866416474">
                <ele>0.0</ele>
                <name>Av. Juan de Garay</name>
            </trkpt>
            <trkpt lon="-58.3790248632431" lat="-34.62602621561937">
                <ele>0.0</ele>
                <name>Av. Juan de Garay</name>
            </trkpt>
            <trkpt lon="-58.382248878479004" lat="-34.62686050721278">
                <ele>0.0</ele>
                <name>Av. Juan de Garay</name>
            </trkpt>
            <trkpt lon="-58.39213013648987" lat="-34.62726661437083">
                <ele>25.0</ele>
                <time>2011-07-12T20:50:08.129Z</time>
                <name>Av. Juan de Garay</name>
            </trkpt>
            <trkpt lon="-58.39683473110199" lat="-34.628030267013045">
                <ele>0.0</ele>
                <name>Pichincha</name>
            </trkpt>
            <trkpt lon="-58.39628756046295" lat="-34.63033001083645">
                <ele>0.0</ele>
                <name>Av. Brasil</name>
            </trkpt>
            <trkpt lon="-58.39775741100311" lat="-34.630586024439616">
                <ele>0.0</ele>
                <name>Matheu</name>
            </trkpt>
            <trkpt lon="-58.39862644672394" lat="-34.62835249983432">
                <ele>0.0</ele>
                <name>Av. Juan de Garay</name>
            </trkpt>
            <trkpt lon="-58.40837359428406" lat="-34.6294648555729">
                <ele>0.0</ele>
                <name>Av. Juan de Garay</name>
            </trkpt>
            <trkpt lon="-58.41657042503357" lat="-34.631407028251466">
                <ele>0.0</ele>
                <name>Colombres</name>
            </trkpt>
            <trkpt lon="-58.41648459434509" lat="-34.630188761613766">
                <ele>0.0</ele>
                <name>Av. Pavón</name>
            </trkpt>
            <trkpt lon="-58.42577040195465" lat="-34.63147323788225">
                <ele>0.0</ele>
                <name>Av. Asamblea</name>
            </trkpt>
            <trkpt lon="-58.4292197227478" lat="-34.631610070951744">
                <ele>0.0</ele>
                <name>Av. Asamblea</name>
            </trkpt>
            <trkpt lon="-58.43278169631958" lat="-34.6339494401276">
                <ele>0.0</ele>
                <name>Av. Asamblea</name>
            </trkpt>
            <trkpt lon="-58.44592988491058" lat="-34.63661977147328">
                <ele>0.0</ele>
                <name>Av. Asamblea</name>
            </trkpt>
            <trkpt lon="-58.447383642196655" lat="-34.637321546767936">
                <ele>0.0</ele>
                <name>Thorne</name>
            </trkpt>
            <trkpt lon="-58.44857454299927" lat="-34.63556047676393">
                <ele>0.0</ele>
                <name>Av. Eva Perón</name>
            </trkpt>
            <trkpt lon="-58.45370292663574" lat="-34.63868977083413">
                <ele>0.0</ele>
                <name>Av. Eva Perón</name>
            </trkpt>
            <trkpt lon="-58.45493674278259" lat="-34.640013837148636">
                <ele>0.0</ele>
                <name>Av. Eva Perón</name>
            </trkpt>
            <trkpt lon="-58.460945" lat="-34.642986">
                <ele>0.0</ele>
                <name>Av. Eva Perón</name>
            </trkpt>
            <trkpt lon="-58.461872935295105" lat="-34.6426883866237">
                <ele>0.0</ele>
                <name>Av. Eva Perón</name>
            </trkpt>
            <trkpt lon="-58.462629318237305" lat="-34.64298849570352">
                <ele>0.0</ele>
                <name>Av. Eva Perón</name>
            </trkpt>
            <trkpt lon="-58.46291899681091" lat="-34.64384909660033">
                <ele>0.0</ele>
                <name>Av. Eva Perón</name>
            </trkpt>
            <trkpt lon="-58.46721053123474" lat="-34.64591450231025">
                <ele>0.0</ele>
                <name>Mariano Acosta</name>
            </trkpt>
            <trkpt lon="-58.47864210605621" lat="-34.636937557248">
                <ele>0.0</ele>
                <name>Av. Juan Bautista Alberdi</name>
            </trkpt>
            <trkpt lon="-58.49536836147308" lat="-34.64482002022244">
                <ele>0.0</ele>
                <name>Av. Juan Bautista Alberdi</name>
            </trkpt>
            <trkpt lon="-58.496854305267334" lat="-34.64625873159328">
                <ele>0.0</ele>
                <name>Basualdo</name>
            </trkpt>
            <trkpt lon="-58.4992790222168" lat="-34.644334559832515">
                <ele>0.0</ele>
                <name>Av. Emilio Castro</name>
            </trkpt>
            <trkpt lon="-58.5117244720459" lat="-34.6502040266969">
                <ele>0.0</ele>
                <name>Martiniano Leguizamon</name>
            </trkpt>
            <trkpt lon="-58.51388096809387" lat="-34.64859327452912">
                <ele>0.0</ele>
                <name>Acassuso</name>
            </trkpt>
            <trkpt lon="-58.5194331407547" lat="-34.653557821194475">
                <ele>0.0</ele>
                <name>Carhue</name>
            </trkpt>
            <trkpt lon="-58.52416455745697" lat="-34.64997896457633">
                <ele>0.0</ele>
                <name>:2way:Tonelero</name>
            </trkpt>
            <trkpt lon="-58.52563440799713" lat="-34.65138228311993">
                <ele>0.0</ele>
                <name>:2way:Montiel</name>
            </trkpt>
            <trkpt lon="-58.52642297744751" lat="-34.639069338672336">
                <ele>0.0</ele>
                <name>:2way:Av. Rivadavia</name>
            </trkpt>
            <trkpt lon="-58.530011773109436" lat="-34.63937828795586">
                <ele>0.0</ele>
                <name>Av. Gral. Paz Oeste</name>
            </trkpt>
            <trkpt lon="-58.52912664413452" lat="-34.65451980562548">
                <ele>0.0</ele>
                <name>Av. Gral. Paz Oeste</name>
            </trkpt>
            <trkpt lon="-58.52583825588226" lat="-34.6569070673791">
                <ele>0.0</ele>
                <name>Av. Gral. Enrique Mosconi</name>
            </trkpt>
            <trkpt lon="-58.53264033794403" lat="-34.660348839443074">
                <ele>0.0</ele>
                <name>Av. Gral. Enrique Mosconi</name>
            </trkpt>
        </trkseg>
    </trk>
    <trk>
        <name>B y C - Darsena Sur y Central Costanera</name>
        <trkseg>
            <trkpt lon="-58.532060980796814" lat="-34.66013704221278">
                <ele>0.0</ele>
                <name>Av. Gral. Enrique Mosconi</name>
            </trkpt>
            <trkpt lon="-58.52494776248932" lat="-34.656377551297915">
                <ele>0.0</ele>
                <name>:2way:Av. Gral. Paz Este</name>
            </trkpt>
            <trkpt lon="-58.52600455284119" lat="-34.65562739772512">
                <ele>0.0</ele>
                <name>:2way:Av. Gral. Paz Este</name>
            </trkpt>
            <trkpt lon="-58.528268337249756" lat="-34.65284294479912">
                <ele>0.0</ele>
                <name>:2way:Av. Gral. Paz Este</name>
            </trkpt>
            <trkpt lon="-58.52908372879028" lat="-34.63938711506134">
                <ele>0.0</ele>
                <name>:2way:Av. Rivadavia</name>
            </trkpt>
            <trkpt lon="-58.52511405944824" lat="-34.639060511533046">
                <ele>0.0</ele>
                <name>Carhue</name>
            </trkpt>
            <trkpt lon="-58.5247385501861" lat="-34.64371228372153">
                <ele>0.0</ele>
                <name>Palmar</name>
            </trkpt>
            <trkpt lon="-58.527399301528874" lat="-34.643774070210874">
                <ele>0.0</ele>
                <name>José Leon Suárez</name>
            </trkpt>
            <trkpt lon="-58.527259826660156" lat="-34.64552613935215">
                <ele>0.0</ele>
                <name>José Leon Suárez</name>
            </trkpt>
            <trkpt lon="-58.52684676647186" lat="-34.645879196661966">
                <ele>0.0</ele>
                <name>José Leon Suárez</name>
            </trkpt>
            <trkpt lon="-58.52721154689789" lat="-34.64620577333507">
                <ele>0.0</ele>
                <name>José Leon Suárez</name>
            </trkpt>
            <trkpt lon="-58.526793122291565" lat="-34.65248109143401">
                <ele>0.0</ele>
                <name>José Leon Suárez</name>
            </trkpt>
            <trkpt lon="-58.523268699645996" lat="-34.65512876247615">
                <ele>0.0</ele>
                <name>Patrón</name>
            </trkpt>
            <trkpt lon="-58.51637005805969" lat="-34.64894631877814">
                <ele>0.0</ele>
                <name>Pilar</name>
            </trkpt>
            <trkpt lon="-58.51350009441376" lat="-34.65106455269992">
                <ele>0.0</ele>
                <name>Av. Emilio Castro</name>
            </trkpt>
            <trkpt lon="-58.49817395210266" lat="-34.64388881642608">
                <ele>0.0</ele>
                <name>Guardia Nacional</name>
            </trkpt>
            <trkpt lon="-58.496044278144836" lat="-34.64564529636228">
                <ele>0.0</ele>
                <name>Av. Juan Bautista Alberdi</name>
            </trkpt>
            <trkpt lon="-58.49527180194855" lat="-34.64489504566548">
                <ele>0.0</ele>
                <name>Av. Bruix</name>
            </trkpt>
            <trkpt lon="-58.48663508892059" lat="-34.647070753983414">
                <ele>0.0</ele>
                <name>Av. Directorio</name>
            </trkpt>
            <trkpt lon="-58.47995638847351" lat="-34.64130698817705">
                <ele>0.0</ele>
                <name>Av. Directorio</name>
            </trkpt>
            <trkpt lon="-58.47741365432739" lat="-34.63976226617556">
                <ele>0.0</ele>
                <name>Martinez Castro</name>
            </trkpt>
            <trkpt lon="-58.46795618534088" lat="-34.647251692671624">
                <ele>0.0</ele>
                <name>Av. Eva Peron</name>
            </trkpt>
            <trkpt lon="-58.46706569194794" lat="-34.64591450231025">
                <ele>0.0</ele>
                <name>Av. Eva Peron</name>
            </trkpt>
            <trkpt lon="-58.46269369125366" lat="-34.643835856654164">
                <ele>0.0</ele>
                <name>Av. Eva Peron</name>
            </trkpt>
            <trkpt lon="-58.46202313899994" lat="-34.64423746741345">
                <ele>0.0</ele>
                <name>Av. Eva Peron</name>
            </trkpt>
            <trkpt lon="-58.461132645606995" lat="-34.64401238909564">
                <ele>0.0</ele>
                <name>Av. Eva Peron</name>
            </trkpt>
            <trkpt lon="-58.46072494983673" lat="-34.642931121992824">
                <ele>0.0</ele>
                <name>Av. Eva Peron</name>
            </trkpt>
            <trkpt lon="-58.45493137836456" lat="-34.64002266418646">
                <ele>0.0</ele>
                <name>Av. Eva Peron</name>
            </trkpt>
            <trkpt lon="-58.45368683338165" lat="-34.63871625236759">
                <ele>0.0</ele>
                <name>Av. Eva Peron</name>
            </trkpt>
            <trkpt lon="-58.44751238822937" lat="-34.63493813481346">
                <ele>0.0</ele>
                <name>Curapaligüe</name>
            </trkpt>
            <trkpt lon="-58.44581723213196" lat="-34.63663301257153">
                <ele>0.0</ele>
                <name>Av. Asamblea</name>
            </trkpt>
            <trkpt lon="-58.43274700000001" lat="-34.634014">
                <ele>0.0</ele>
                <name>Av. Asamblea</name>
            </trkpt>
            <trkpt lon="-58.429155349731445" lat="-34.631610070951744">
                <ele>0.0</ele>
                <name>Av. Asamblea</name>
            </trkpt>
            <trkpt lon="-58.42578113079071" lat="-34.63149972171976">
                <ele>0.0</ele>
                <name>Av. Pavón</name>
            </trkpt>
            <trkpt lon="-58.415905237197876" lat="-34.630188761613766">
                <ele>0.0</ele>
                <name>Pavón</name>
            </trkpt>
            <trkpt lon="-58.40849697589874" lat="-34.62831718670949">
                <ele>0.0</ele>
                <name>Pavón</name>
            </trkpt>
            <trkpt lon="-58.392311" lat="-34.626457">
                <ele>0.0</ele>
                <name>Combate de los Pozos</name>
            </trkpt>
            <trkpt lon="-58.391738533973694" lat="-34.629508996365985">
                <ele>0.0</ele>
                <name>Av. Brasil</name>
            </trkpt>
            <trkpt lon="-58.390928506851196" lat="-34.629288292165704">
                <ele>28.0</ele>
                <time>2011-07-12T20:46:10.920Z</time>
                <name>Av. Entre Rios</name>
            </trkpt>
            <trkpt lon="-58.391185998916626" lat="-34.627248957579205">
                <ele>27.0</ele>
                <time>2011-07-12T20:46:10.920Z</time>
                <name>Av. Juan de Garay</name>
            </trkpt>
            <trkpt lon="-58.38227033615112" lat="-34.62698410525392">
                <ele>26.0</ele>
                <time>2011-07-12T20:46:10.920Z</time>
                <name>Lima Oeste</name>
            </trkpt>
            <trkpt lon="-58.382205963134766" lat="-34.6278139730475">
                <ele>0.0</ele>
                <name>Av. Brasil</name>
            </trkpt>
            <trkpt lon="-58.3796364068985" lat="-34.62777424552314">
                <ele>0.0</ele>
                <name>Av. Brasil</name>
            </trkpt>
            <trkpt lon="-58.378493785858154" lat="-34.62747849557725">
                <ele>0.0</ele>
                <name>Av. Brasil</name>
            </trkpt>
            <trkpt lon="-58.375044465065" lat="-34.62563334524424">
                <ele>0.0</ele>
                <name>Av. Brasil</name>
            </trkpt>
            <trkpt lon="-58.36345195770264" lat="-34.625085972182106">
                <ele>0.0</ele>
                <name>Av. Ing. Huergo</name>
            </trkpt>
            <trkpt lon="-58.36544752120972" lat="-34.623964728990906">
                <ele>0.0</ele>
                <name>Av. Juan de Garay</name>
            </trkpt>
            <trkpt lon="-58.36464822292328" lat="-34.623602749607485">
                <ele>0.0</ele>
                <name>Av. Elvira Rawson de Dellepiane</name>
            </trkpt>
            <trkpt lon="-58.36288869380951" lat="-34.62441057947588">
                <ele>0.0</ele>
                <name>Av. Elvira Rawson de Dellepiane</name>
            </trkpt>
            <trkpt lon="-58.362271785736084" lat="-34.62422076223551">
                <ele>4.0</ele>
                <time>2011-07-12T21:01:44.861Z</time>
                <name>Av. Elvira Rawson de Dellepiane</name>
            </trkpt>
            <trkpt lon="-58.35642457008362" lat="-34.618049258213105">
                <ele>2.0</ele>
                <time>2011-07-12T21:01:51.230Z</time>
                <name>Av. Espana</name>
            </trkpt>
            <trkpt lon="-58.35346341133118" lat="-34.6237351812724">
                <ele>10.0</ele>
                <time>2011-07-12T21:01:53.424Z</time>
                <name>Central Costanera</name>
            </trkpt>
        </trkseg>
    </trk>
    <trk>
        <name>B y C - Lomas del Mirador</name>
        <trkseg>
            <trkpt lon="-58.35304498672485" lat="-34.62376166758001">
                <ele>4.0</ele>
                <time>2011-07-12T21:07:31.702Z</time>
                <name>Av. Espana</name>
            </trkpt>
            <trkpt lon="-58.3563494682312" lat="-34.61802277008232">
                <ele>0.0</ele>
                <name>Av. Elvira Rawson de Dellepiane</name>
            </trkpt>
            <trkpt lon="-58.3628511428833" lat="-34.624459137304825">
                <ele>0.0</ele>
                <name>Av. Elvira Rawson de Dellepiane</name>
            </trkpt>
            <trkpt lon="-58.36459457874298" lat="-34.62366896546636">
                <ele>0.0</ele>
                <name>Av. Juan de Garay</name>
            </trkpt>
            <trkpt lon="-58.36586594581604" lat="-34.62399121522526">
                <ele>0.0</ele>
                <name>Av. Juan de Garay</name>
            </trkpt>
            <trkpt lon="-58.375468254089355" lat="-34.624498866416474">
                <ele>0.0</ele>
                <name>Av. Juan de Garay</name>
            </trkpt>
            <trkpt lon="-58.3790248632431" lat="-34.62602621561937">
                <ele>0.0</ele>
                <name>Av. Juan de Garay</name>
            </trkpt>
            <trkpt lon="-58.382248878479004" lat="-34.62686050721278">
                <ele>0.0</ele>
                <name>Av. Juan de Garay</name>
            </trkpt>
            <trkpt lon="-58.39213013648987" lat="-34.62726661437083">
                <ele>25.0</ele>
                <time>2011-07-12T20:50:08.129Z</time>
                <name>Av. Juan de Garay</name>
            </trkpt>
            <trkpt lon="-58.39683473110199" lat="-34.628030267013045">
                <ele>0.0</ele>
                <name>Pichincha</name>
            </trkpt>
            <trkpt lon="-58.39628756046295" lat="-34.63033001083645">
                <ele>0.0</ele>
                <name>Av. Brasil</name>
            </trkpt>
            <trkpt lon="-58.39775741100311" lat="-34.630586024439616">
                <ele>0.0</ele>
                <name>Matheu</name>
            </trkpt>
            <trkpt lon="-58.39862644672394" lat="-34.62835249983432">
                <ele>0.0</ele>
                <name>Av. Juan de Garay</name>
            </trkpt>
            <trkpt lon="-58.40837359428406" lat="-34.6294648555729">
                <ele>0.0</ele>
                <name>Av. Juan de Garay</name>
            </trkpt>
            <trkpt lon="-58.41657042503357" lat="-34.631407028251466">
                <ele>0.0</ele>
                <name>Colombres</name>
            </trkpt>
            <trkpt lon="-58.41648459434509" lat="-34.630188761613766">
                <ele>0.0</ele>
                <name>Av. Pavón</name>
            </trkpt>
            <trkpt lon="-58.42577040195465" lat="-34.63147323788225">
                <ele>0.0</ele>
                <name>Av. Asamblea</name>
            </trkpt>
            <trkpt lon="-58.4292197227478" lat="-34.631610070951744">
                <ele>0.0</ele>
                <name>Av. Asamblea</name>
            </trkpt>
            <trkpt lon="-58.43278169631958" lat="-34.6339494401276">
                <ele>0.0</ele>
                <name>Av. Asamblea</name>
            </trkpt>
            <trkpt lon="-58.44592988491058" lat="-34.63661977147328">
                <ele>0.0</ele>
                <name>Av. Asamblea</name>
            </trkpt>
            <trkpt lon="-58.447383642196655" lat="-34.637321546767936">
                <ele>0.0</ele>
                <name>Thorne</name>
            </trkpt>
            <trkpt lon="-58.44857454299927" lat="-34.63556047676393">
                <ele>0.0</ele>
                <name>Av. Eva Perón</name>
            </trkpt>
            <trkpt lon="-58.45370292663574" lat="-34.63868977083413">
                <ele>0.0</ele>
                <name>Av. Eva Perón</name>
            </trkpt>
            <trkpt lon="-58.45493674278259" lat="-34.640013837148636">
                <ele>0.0</ele>
                <name>Av. Eva Perón</name>
            </trkpt>
            <trkpt lon="-58.460945" lat="-34.642986">
                <ele>0.0</ele>
                <name>Av. Eva Perón</name>
            </trkpt>
            <trkpt lon="-58.461872935295105" lat="-34.6426883866237">
                <ele>0.0</ele>
                <name>Av. Eva Perón</name>
            </trkpt>
            <trkpt lon="-58.462629318237305" lat="-34.64298849570352">
                <ele>0.0</ele>
                <name>Av. Eva Perón</name>
            </trkpt>
            <trkpt lon="-58.46291899681091" lat="-34.64384909660033">
                <ele>0.0</ele>
                <name>Av. Eva Perón</name>
            </trkpt>
            <trkpt lon="-58.46721053123474" lat="-34.64591450231025">
                <ele>0.0</ele>
                <name>Mariano Acosta</name>
            </trkpt>
            <trkpt lon="-58.47864210605621" lat="-34.636937557248">
                <ele>0.0</ele>
                <name>Av. Juan Bautista Alberdi</name>
            </trkpt>
            <trkpt lon="-58.49536836147308" lat="-34.64482002022244">
                <ele>0.0</ele>
                <name>Av. Juan Bautista Alberdi</name>
            </trkpt>
            <trkpt lon="-58.496854305267334" lat="-34.64625873159328">
                <ele>0.0</ele>
                <name>Basualdo</name>
            </trkpt>
            <trkpt lon="-58.4992790222168" lat="-34.644334559832515">
                <ele>0.0</ele>
                <name>Av. Emilio Castro</name>
            </trkpt>
            <trkpt lon="-58.5117244720459" lat="-34.6502040266969">
                <ele>0.0</ele>
                <name>Martiniano Leguizamon</name>
            </trkpt>
            <trkpt lon="-58.51388096809387" lat="-34.64859327452912">
                <ele>0.0</ele>
                <name>Acassuso</name>
            </trkpt>
            <trkpt lon="-58.5194331407547" lat="-34.653557821194475">
                <ele>0.0</ele>
                <name>Carhue</name>
            </trkpt>
            <trkpt lon="-58.52416455745697" lat="-34.64997896457633">
                <ele>0.0</ele>
                <name>:2way:Tonelero</name>
            </trkpt>
            <trkpt lon="-58.52563440799713" lat="-34.65138228311993">
                <ele>0.0</ele>
                <name>:2way:Montiel</name>
            </trkpt>
            <trkpt lon="-58.52642297744751" lat="-34.639069338672336">
                <ele>0.0</ele>
                <name>:2way:Av. Rivadavia</name>
            </trkpt>
            <trkpt lon="-58.530011773109436" lat="-34.63937828795586">
                <ele>0.0</ele>
                <name>Av. Gral. Paz Oeste</name>
            </trkpt>
            <trkpt lon="-58.52912664413452" lat="-34.65451980562548">
                <ele>0.0</ele>
                <name>Av. Gral. Paz Oeste</name>
            </trkpt>
            <trkpt lon="-58.52583825588226" lat="-34.6569070673791">
                <ele>0.0</ele>
                <name>Av. Gral. Enrique Mosconi</name>
            </trkpt>
            <trkpt lon="-58.53264033794403" lat="-34.660348839443074">
                <ele>0.0</ele>
                <name>Av. Gral. Enrique Mosconi</name>
            </trkpt>
        </trkseg>
    </trk>
</gpx>
