<?xml version="1.0" encoding="UTF-8" standalone="yes"?>
<gpx xmlns="http://www.topografix.com/GPX/1/1" xmlns:gpxtrx="http://www.garmin.com/xmlschemas/GpxExtensions/v3" xmlns:rcxx="http://www.routeconverter.de/xmlschemas/RouteCatalogExtensions/1.0" xmlns:xsi="http://www.w3.org/2001/XMLSchema-instance" xmlns:gpxtpx="http://www.garmin.com/xmlschemas/TrackPointExtension/v1" xmlns:gpxx="http://www.garmin.com/xmlschemas/WaypointExtension/v1" xmlns:nmea="http://trekbuddy.net/2009/01/gpx/nmea" creator="Generated by Christian Pesch's RouteConverter. See http://www.routeconverter.com" version="1.1">
    <trk>
        <name>A - Puerto Nuevo (Retiro)</name>
        <desc>&lt;a href=&quot;http://www.masmapas.com/colectivo-5-barrio-piedrabuena-primera-junta-once-congreso-retiro-terminal-omnibus&quot;&gt;Mas info sobre la linea de colectivos 5 (Colectivo 5 - Barrio Piedrabuena - Primera Junta - Once - Congreso - Retiro - Terminal Omnibus)&lt;/a&gt;</desc>
        <trkseg>
            <trkpt lon="-58.48699450492859" lat="-34.67577328214446">
                <ele>0.0</ele>
                <name>Canada de Gómez</name>
            </trkpt>
            <trkpt lon="-58.48616302013397" lat="-34.67647913756878">
                <ele>0.0</ele>
                <name>Saraza</name>
            </trkpt>
            <trkpt lon="-58.487863540649414" lat="-34.67782906931294">
                <ele>0.0</ele>
                <name>Av. Piedra Buena</name>
            </trkpt>
            <trkpt lon="-58.48680138587952" lat="-34.67877753760538">
                <ele>0.0</ele>
                <name>Av. Castanares</name>
            </trkpt>
            <trkpt lon="-58.48351836204529" lat="-34.67595415817022">
                <ele>0.0</ele>
                <name>Av. Lisandro de La Torre</name>
            </trkpt>
            <trkpt lon="-58.48642587661743" lat="-34.67354979823696">
                <ele>0.0</ele>
                <name>Santander</name>
            </trkpt>
            <trkpt lon="-58.47474753856659" lat="-34.66350367159827">
                <ele>0.0</ele>
                <name>Basualdo</name>
            </trkpt>
            <trkpt lon="-58.475831151008606" lat="-34.662674160936405">
                <ele>0.0</ele>
                <name>Crisóstomo Alvarez</name>
            </trkpt>
            <trkpt lon="-58.47893178462982" lat="-34.6653568037158">
                <ele>0.0</ele>
                <name>Miralla</name>
            </trkpt>
            <trkpt lon="-58.49097490310669" lat="-34.65595834866772">
                <ele>0.0</ele>
                <name>Av. Gral. Eugenio Garzón</name>
            </trkpt>
            <trkpt lon="-58.4834486246109" lat="-34.64948912137825">
                <ele>0.0</ele>
                <name>Av. Olivera</name>
            </trkpt>
            <trkpt lon="-58.484081625938416" lat="-34.64818285869988">
                <ele>0.0</ele>
                <name>Av. Olivera</name>
            </trkpt>
            <trkpt lon="-58.484569787979126" lat="-34.645327543954714">
                <ele>0.0</ele>
                <name>Av. Olivera</name>
            </trkpt>
            <trkpt lon="-58.48727345466614" lat="-34.63655356595029">
                <ele>0.0</ele>
                <name>Av. Cnel. Ramón L. Falcón</name>
            </trkpt>
            <trkpt lon="-58.48628103733063" lat="-34.63628432961237">
                <ele>0.0</ele>
                <name>Av. Lacarra</name>
            </trkpt>
            <trkpt lon="-58.48763823509216" lat="-34.63523385816648">
                <ele>0.0</ele>
                <name>Av. Rivadavia</name>
            </trkpt>
            <trkpt lon="-58.47566485404968" lat="-34.63233837220139">
                <ele>0.0</ele>
                <name>Av. Rivadavia</name>
            </trkpt>
            <trkpt lon="-58.459861278533936" lat="-34.62798612543323">
                <ele>0.0</ele>
                <name>Av. Rivadavia</name>
            </trkpt>
            <trkpt lon="-58.44445466995239" lat="-34.62188994769838">
                <ele>35.0</ele>
                <time>2011-07-13T18:25:54.092Z</time>
                <name>Av. Rivadavia</name>
            </trkpt>
            <trkpt lon="-58.43594670295715" lat="-34.61935599550374">
                <ele>0.0</ele>
                <name>Rosario</name>
            </trkpt>
            <trkpt lon="-58.42732071876526" lat="-34.618194942781386">
                <ele>0.0</ele>
                <name>Muniz</name>
            </trkpt>
            <trkpt lon="-58.427471" lat="-34.614967">
                <ele>0.0</ele>
                <name>Hipólito Yrigoyen</name>
            </trkpt>
            <trkpt lon="-58.42036843299866" lat="-34.61461456007042">
                <ele>0.0</ele>
                <name>Hipólito Yrigoyen</name>
            </trkpt>
            <trkpt lon="-58.41724097728729" lat="-34.613872858522235">
                <ele>0.0</ele>
                <name>Hipólito Yrigoyen</name>
            </trkpt>
            <trkpt lon="-58.411678075790405" lat="-34.611855220182996">
                <ele>0.0</ele>
                <name>24 de Noviembre</name>
            </trkpt>
            <trkpt lon="-58.41172635555267" lat="-34.6105395346336">
                <ele>0.0</ele>
                <name>Anchorena</name>
            </trkpt>
            <trkpt lon="-58.41182827949524" lat="-34.609245904016454">
                <ele>0.0</ele>
                <name>Bartolomé Mitre</name>
            </trkpt>
            <trkpt lon="-58.38352024555206" lat="-34.60747099235054">
                <ele>0.0</ele>
                <name>Libertad</name>
            </trkpt>
            <trkpt lon="-58.38429272174835" lat="-34.595575455993384">
                <ele>0.0</ele>
                <name>Av. Sta. Fe</name>
            </trkpt>
            <trkpt lon="-58.37759792804718" lat="-34.59503671654534">
                <ele>0.0</ele>
                <name>Maipú</name>
            </trkpt>
            <trkpt lon="-58.37533950805664" lat="-34.592921468038476">
                <ele>0.0</ele>
                <name>Av. Del Libertador</name>
            </trkpt>
            <trkpt lon="-58.37391257286072" lat="-34.59365894075236">
                <ele>11.0</ele>
                <time>2011-07-13T18:31:58.779Z</time>
                <name>San Martín</name>
            </trkpt>
            <trkpt lon="-58.3718204498291" lat="-34.59087682382417">
                <ele>0.0</ele>
                <name>Madero</name>
            </trkpt>
            <trkpt lon="-58.373000621795654" lat="-34.59024089830222">
                <ele>0.0</ele>
                <name>Av. Dr. José Maria Ramos Mejía</name>
            </trkpt>
            <trkpt lon="-58.372238874435425" lat="-34.58924283871072">
                <ele>0.0</ele>
                <name>Av. Antardida Argentina</name>
            </trkpt>
            <trkpt lon="-58.37108016014099" lat="-34.58925167114905">
                <ele>12.0</ele>
                <time>2011-07-13T18:33:09.534Z</time>
                <name>Av. Antardida Argentina</name>
            </trkpt>
            <trkpt lon="-58.37228178977966" lat="-34.585917358952365">
                <ele>0.0</ele>
                <name>Mayor Arturo Luisoni</name>
            </trkpt>
            <trkpt lon="-58.37160050868988" lat="-34.585025242141064">
                <ele>0.0</ele>
                <name>Av. Gendarmería Nacional</name>
            </trkpt>
            <trkpt lon="-58.376514315605164" lat="-34.582445999075006">
                <ele>0.0</ele>
                <name>Prefectura Naval Argentina</name>
            </trkpt>
            <trkpt lon="-58.377151" lat="-34.58326">
                <ele>0.0</ele>
                <name>Prefectura Naval Argentina y Carlos H. Perette</name>
            </trkpt>
        </trkseg>
    </trk>
    <trk>
        <name>A - Balbastro Y Canada de Goméz (Piedrabuena)</name>
        <desc>&lt;a href=&quot;http://www.masmapas.com/colectivo-5-barrio-piedrabuena-primera-junta-once-congreso-retiro-terminal-omnibus&quot;&gt;Mas info sobre la linea de colectivos 5 (Colectivo 5 - Barrio Piedrabuena - Primera Junta - Once - Congreso - Retiro - Terminal Omnibus)&lt;/a&gt;</desc>
        <trkseg>
            <trkpt lon="-58.37718486785889" lat="-34.5832983947661">
                <ele>0.0</ele>
                <name>Carlos H. Perette</name>
            </trkpt>
            <trkpt lon="-58.37244272232056" lat="-34.58601893600178">
                <ele>0.0</ele>
                <name>Av. Antardida Argentina</name>
            </trkpt>
            <trkpt lon="-58.37175800000001" lat="-34.588242">
                <ele>0.0</ele>
                <name>Av. Dr. José Maria Ramos Mejía</name>
            </trkpt>
            <trkpt lon="-58.375457525253296" lat="-34.59277573912278">
                <ele>0.0</ele>
                <name>Av. Del Libertador</name>
            </trkpt>
            <trkpt lon="-58.3738911151886" lat="-34.59364127681178">
                <ele>0.0</ele>
                <name>Av. Leandro N. Alem</name>
            </trkpt>
            <trkpt lon="-58.37332248687744" lat="-34.59433016771109">
                <ele>0.0</ele>
                <name>Reconquista</name>
            </trkpt>
            <trkpt lon="-58.37279677391052" lat="-34.598489887510254">
                <ele>0.0</ele>
                <name>Av. Córdoba</name>
            </trkpt>
            <trkpt lon="-58.38252782821655" lat="-34.59912574988822">
                <ele>0.0</ele>
                <name>Cerrito</name>
            </trkpt>
            <trkpt lon="-58.38237762451172" lat="-34.60139538562161">
                <ele>0.0</ele>
                <name>Tucumán</name>
            </trkpt>
            <trkpt lon="-58.38528513908386" lat="-34.601580839496876">
                <ele>0.0</ele>
                <name>Talcahuano</name>
            </trkpt>
            <trkpt lon="-58.38484525680542" lat="-34.60929005556428">
                <ele>0.0</ele>
                <name>Av. De Mayo</name>
            </trkpt>
            <trkpt lon="-58.38760256767273" lat="-34.609449000942064">
                <ele>0.0</ele>
                <name>Av. Rivadavia</name>
            </trkpt>
            <trkpt lon="-58.388471603393555" lat="-34.60899865491471">
                <ele>0.0</ele>
                <name>Av. Rivadavia</name>
            </trkpt>
            <trkpt lon="-58.4197461605072" lat="-34.61112673914972">
                <ele>0.0</ele>
                <name>Av. Rivadavia</name>
            </trkpt>
            <trkpt lon="-58.42103362083435" lat="-34.61144462256851">
                <ele>40.0</ele>
                <time>2011-07-13T18:39:35.167Z</time>
                <name>Av. Rivadavia</name>
            </trkpt>
            <trkpt lon="-58.44583868980408" lat="-34.622410855112605">
                <ele>0.0</ele>
                <name>Av. Rivadavia</name>
            </trkpt>
            <trkpt lon="-58.459850549697876" lat="-34.62798171127395">
                <ele>0.0</ele>
                <name>Av. Rivadavia</name>
            </trkpt>
            <trkpt lon="-58.47351908683777" lat="-34.63175131775448">
                <ele>0.0</ele>
                <name>Av. Rivadavia</name>
            </trkpt>
            <trkpt lon="-58.48944067955017" lat="-34.63568847559323">
                <ele>0.0</ele>
                <name>Santiago de Las Carreras</name>
            </trkpt>
            <trkpt lon="-58.489118814468384" lat="-34.63699493510533">
                <ele>0.0</ele>
                <name>Av. Cnel. Ramón L. Falcon</name>
            </trkpt>
            <trkpt lon="-58.487316370010376" lat="-34.636562393356414">
                <ele>0.0</ele>
                <name>Av. Olivera</name>
            </trkpt>
            <trkpt lon="-58.484569787979126" lat="-34.64531871748157">
                <ele>0.0</ele>
                <name>Av. Olivera</name>
            </trkpt>
            <trkpt lon="-58.484086990356445" lat="-34.648196097951896">
                <ele>0.0</ele>
                <name>Av. Olivera</name>
            </trkpt>
            <trkpt lon="-58.48345398902893" lat="-34.64948470836332">
                <ele>0.0</ele>
                <name>Gral. Eugenio Garzón</name>
            </trkpt>
            <trkpt lon="-58.49026679992676" lat="-34.655186127746006">
                <ele>0.0</ele>
                <name>Albarino</name>
            </trkpt>
            <trkpt lon="-58.4781539440155" lat="-34.664681738957874">
                <ele>0.0</ele>
                <name>Crisóstomo Alvarez</name>
            </trkpt>
            <trkpt lon="-58.474366664886475" lat="-34.66142546699401">
                <ele>0.0</ele>
                <name>Av. Escalada</name>
            </trkpt>
            <trkpt lon="-58.472984" lat="-34.662437">
                <ele>0.0</ele>
                <name>Dellepiane (Lateral Norte)</name>
            </trkpt>
            <trkpt lon="-58.4737765789032" lat="-34.66421404380878">
                <ele>0.0</ele>
                <name>Basualdo</name>
            </trkpt>
            <trkpt lon="-58.47475290298462" lat="-34.6634904347912">
                <ele>0.0</ele>
                <name>Santander</name>
            </trkpt>
            <trkpt lon="-58.48645806312561" lat="-34.67354979823696">
                <ele>0.0</ele>
                <name>Lisandro de La Torre</name>
            </trkpt>
            <trkpt lon="-58.48353981971741" lat="-34.67597621619512">
                <ele>0.0</ele>
                <name>Av. Castanares</name>
            </trkpt>
            <trkpt lon="-58.48682758810282" lat="-34.67875629452567">
                <ele>0.0</ele>
                <name>Av. Piedrabuena</name>
            </trkpt>
            <trkpt lon="-58.487820625305176" lat="-34.67788200736433">
                <ele>0.0</ele>
                <name>Saraza</name>
            </trkpt>
            <trkpt lon="-58.48615765571594" lat="-34.67643502178101">
                <ele>0.0</ele>
                <name>Canada de Gómez</name>
            </trkpt>
            <trkpt lon="-58.48697109326098" lat="-34.67577345697564">
                <ele>0.0</ele>
                <name>Canada de Gómez y Balbastro</name>
            </trkpt>
        </trkseg>
    </trk>
    <trk>
        <name>XshortX B - Puerto Nuevo (Retiro)</name>
        <trkseg>
            <trkpt lon="-58.48763823509216" lat="-34.63523385816648">
                <ele>0.0</ele>
                <name>Av. Rivadavia</name>
            </trkpt>
            <trkpt lon="-58.47566485404968" lat="-34.63233837220139">
                <ele>0.0</ele>
                <name>Av. Rivadavia</name>
            </trkpt>
            <trkpt lon="-58.459861278533936" lat="-34.62798612543323">
                <ele>0.0</ele>
                <name>Av. Rivadavia</name>
            </trkpt>
            <trkpt lon="-58.44445466995239" lat="-34.62188994769838">
                <ele>35.0</ele>
                <time>2011-07-13T18:25:54.092Z</time>
                <name>Av. Rivadavia</name>
            </trkpt>
            <trkpt lon="-58.43594670295715" lat="-34.61935599550374">
                <ele>0.0</ele>
                <name>Rosario</name>
            </trkpt>
            <trkpt lon="-58.42732071876526" lat="-34.618194942781386">
                <ele>0.0</ele>
                <name>Muniz</name>
            </trkpt>
            <trkpt lon="-58.427471" lat="-34.614967">
                <ele>0.0</ele>
                <name>Hipólito Yrigoyen</name>
            </trkpt>
            <trkpt lon="-58.42036843299866" lat="-34.61461456007042">
                <ele>0.0</ele>
                <name>Hipólito Yrigoyen</name>
            </trkpt>
            <trkpt lon="-58.41724097728729" lat="-34.613872858522235">
                <ele>0.0</ele>
                <name>Hipólito Yrigoyen</name>
            </trkpt>
            <trkpt lon="-58.411678075790405" lat="-34.611855220182996">
                <ele>0.0</ele>
                <name>24 de Noviembre</name>
            </trkpt>
            <trkpt lon="-58.41172635555267" lat="-34.6105395346336">
                <ele>0.0</ele>
                <name>Anchorena</name>
            </trkpt>
            <trkpt lon="-58.41182827949524" lat="-34.609245904016454">
                <ele>0.0</ele>
                <name>Bartolomé Mitre</name>
            </trkpt>
            <trkpt lon="-58.38352024555206" lat="-34.60747099235054">
                <ele>0.0</ele>
                <name>Libertad</name>
            </trkpt>
            <trkpt lon="-58.38429272174835" lat="-34.595575455993384">
                <ele>0.0</ele>
                <name>Av. Sta. Fe</name>
            </trkpt>
            <trkpt lon="-58.37767839431763" lat="-34.59503671654534">
                <ele>0.0</ele>
                <name>Av. Sta. Fe</name>
            </trkpt>
            <trkpt lon="-58.37636947631836" lat="-34.59614068706819">
                <ele>0.0</ele>
                <name>Av. Sta. Fe</name>
            </trkpt>
            <trkpt lon="-58.375446796417236" lat="-34.596184845583934">
                <ele>29.0</ele>
                <time>2011-07-13T18:31:58.779Z</time>
                <name>Florida</name>
            </trkpt>
            <trkpt lon="-58.37380528450012" lat="-34.59348230117761">
                <ele>11.0</ele>
                <time>2011-07-13T18:31:58.779Z</time>
                <name>San Martín</name>
            </trkpt>
            <trkpt lon="-58.372485637664795" lat="-34.59168055606199">
                <ele>0.0</ele>
                <name>Gilardo Gilardi</name>
            </trkpt>
            <trkpt lon="-58.373746275901794" lat="-34.59103138831991">
                <ele>0.0</ele>
                <name>Av. Dr. José Maria Ramos Mejía</name>
            </trkpt>
            <trkpt lon="-58.372238874435425" lat="-34.58924283871072">
                <ele>0.0</ele>
                <name>Av. Antardida Argentina</name>
            </trkpt>
            <trkpt lon="-58.37108016014099" lat="-34.58925167114905">
                <ele>12.0</ele>
                <time>2011-07-13T18:33:09.534Z</time>
                <name>Av. Antardida Argentina</name>
            </trkpt>
            <trkpt lon="-58.37228178977966" lat="-34.585917358952365">
                <ele>0.0</ele>
                <name>Mayor Arturo Luisoni</name>
            </trkpt>
            <trkpt lon="-58.37160050868988" lat="-34.585025242141064">
                <ele>0.0</ele>
                <name>Av. Gendarmería Nacional</name>
            </trkpt>
            <trkpt lon="-58.376514315605164" lat="-34.582445999075006">
                <ele>0.0</ele>
                <name>Prefectura Naval Argentina</name>
            </trkpt>
            <trkpt lon="-58.377151" lat="-34.58326">
                <ele>0.0</ele>
                <name>Prefectura Naval Argentina y Carlos H. Perette</name>
            </trkpt>
        </trkseg>
    </trk>
    <trk>
        <name>XshortX B - Av. Rivadavia y Av. Lacarra (Vélez Sarsfield)</name>
        <trkseg>
            <trkpt lon="-58.37718486785889" lat="-34.5832983947661">
                <ele>0.0</ele>
                <name>Carlos H. Perette</name>
            </trkpt>
            <trkpt lon="-58.37244272232056" lat="-34.58601893600178">
                <ele>0.0</ele>
                <name>Av. Antardida Argentina</name>
            </trkpt>
            <trkpt lon="-58.37175800000001" lat="-34.588242">
                <ele>0.0</ele>
                <name>Av. Dr. José Maria Ramos Mejía</name>
            </trkpt>
            <trkpt lon="-58.375457525253296" lat="-34.59277573912278">
                <ele>0.0</ele>
                <name>Av. Del Libertador</name>
            </trkpt>
            <trkpt lon="-58.3738911151886" lat="-34.59364127681178">
                <ele>0.0</ele>
                <name>Av. Leandro N. Alem</name>
            </trkpt>
            <trkpt lon="-58.37317228317261" lat="-34.59437432718929">
                <ele>0.0</ele>
                <name>Av. Leandro N. Alem</name>
            </trkpt>
            <trkpt lon="-58.37139129638672" lat="-34.5984280672972">
                <ele>0.0</ele>
                <name>Av. Córdoba</name>
            </trkpt>
            <trkpt lon="-58.38252782821655" lat="-34.59912574988822">
                <ele>0.0</ele>
                <name>Cerrito</name>
            </trkpt>
            <trkpt lon="-58.38237762451172" lat="-34.60139538562161">
                <ele>0.0</ele>
                <name>Tucumán</name>
            </trkpt>
            <trkpt lon="-58.38528513908386" lat="-34.601580839496876">
                <ele>0.0</ele>
                <name>Talcahuano</name>
            </trkpt>
            <trkpt lon="-58.38484525680542" lat="-34.60929005556428">
                <ele>0.0</ele>
                <name>Av. De Mayo</name>
            </trkpt>
            <trkpt lon="-58.38760256767273" lat="-34.609449000942064">
                <ele>0.0</ele>
                <name>Av. Rivadavia</name>
            </trkpt>
            <trkpt lon="-58.388471603393555" lat="-34.60899865491471">
                <ele>0.0</ele>
                <name>Av. Rivadavia</name>
            </trkpt>
            <trkpt lon="-58.4197461605072" lat="-34.61112673914972">
                <ele>0.0</ele>
                <name>Av. Rivadavia</name>
            </trkpt>
            <trkpt lon="-58.42103362083435" lat="-34.61144462256851">
                <ele>40.0</ele>
                <time>2011-07-13T18:39:35.167Z</time>
                <name>Av. Rivadavia</name>
            </trkpt>
            <trkpt lon="-58.44583868980408" lat="-34.622410855112605">
                <ele>0.0</ele>
                <name>Av. Rivadavia</name>
            </trkpt>
            <trkpt lon="-58.459850549697876" lat="-34.62798171127395">
                <ele>0.0</ele>
                <name>Av. Rivadavia</name>
            </trkpt>
            <trkpt lon="-58.47351908683777" lat="-34.63175131775448">
                <ele>0.0</ele>
                <name>Av. Rivadavia</name>
            </trkpt>
            <trkpt lon="-58.48944067955017" lat="-34.63568847559323">
                <ele>0.0</ele>
                <name>Santiago de Las Carreras</name>
            </trkpt>
            <trkpt lon="-58.489118814468384" lat="-34.63699493510533">
                <ele>0.0</ele>
                <name>Av. Cnel. Ramón L. Falcon</name>
            </trkpt>
            <trkpt lon="-58.486361503601074" lat="-34.636297570764185">
                <ele>0.0</ele>
                <name>Av. Olivera</name>
            </trkpt>
            <trkpt lon="-58.48753094673157" lat="-34.63535302996593">
                <ele>31.0</ele>
                <time>2011-07-13T18:50:42.442Z</time>
                <name>Av. Rivadavia y Av. Lacarra</name>
            </trkpt>
        </trkseg>
    </trk>
</gpx>
