<?xml version="1.0" encoding="UTF-8" standalone="yes"?>
<gpx xmlns="http://www.topografix.com/GPX/1/1" xmlns:gpxtrx="http://www.garmin.com/xmlschemas/GpxExtensions/v3" xmlns:rcxx="http://www.routeconverter.de/xmlschemas/RouteCatalogExtensions/1.0" xmlns:xsi="http://www.w3.org/2001/XMLSchema-instance" xmlns:gpxtpx="http://www.garmin.com/xmlschemas/TrackPointExtension/v1" xmlns:gpxx="http://www.garmin.com/xmlschemas/WaypointExtension/v1" xmlns:nmea="http://trekbuddy.net/2009/01/gpx/nmea" creator="Generated by Christian Pesch's RouteConverter. See http://www.routeconverter.com" version="1.1">
    <trk>
        <name>A - Retiro</name>
        <desc>&lt;a href=&quot;http://www.masmapas.com/colectivo-50-barrio-comandante-luis-piedrabuena-terminal-de-omnibus-de-retiro&quot;&gt;Mas info sobre la linea de colectivos 50 (Colectivo 50 - Barrio Comandante Luis Piedrabuena - Terminal De Omnibus De Retiro )&lt;/a&gt;</desc>
        <trkseg>
            <trkpt lon="-58.50165009498596" lat="-34.674008617264406">
                <ele>0.0</ele>
                <name>Av. Eva Perón</name>
            </trkpt>
            <trkpt lon="-58.50070595741272" lat="-34.673488033943016">
                <ele>0.0</ele>
                <name>Suárez</name>
            </trkpt>
            <trkpt lon="-58.500040769577026" lat="-34.673902736175975">
                <ele>0.0</ele>
                <name>Av. Argentina</name>
            </trkpt>
            <trkpt lon="-58.49271297454834" lat="-34.673196858794036">
                <ele>31.0</ele>
                <time>2011-07-28T20:27:06.505Z</time>
                <name>Av. Piedrabuena</name>
            </trkpt>
            <trkpt lon="-58.49175810813904" lat="-34.67423802582501">
                <ele>0.0</ele>
                <name>Zuviria</name>
            </trkpt>
            <trkpt lon="-58.49387168884277" lat="-34.67611738741534">
                <ele>0.0</ele>
                <name>Montiel</name>
            </trkpt>
            <trkpt lon="-58.491253" lat="-34.678082">
                <ele>0.0</ele>
                <name>2 de Abril</name>
            </trkpt>
            <trkpt lon="-58.48944067955017" lat="-34.67652325333306">
                <ele>0.0</ele>
                <name>Av. Piedrabuena</name>
            </trkpt>
            <trkpt lon="-58.486822843551636" lat="-34.67877312615009">
                <ele>0.0</ele>
                <name>Av. Castanares</name>
            </trkpt>
            <trkpt lon="-58.479838371276855" lat="-34.67287921200955">
                <ele>0.0</ele>
                <name>Av. Argentina</name>
            </trkpt>
            <trkpt lon="-58.4776496887207" lat="-34.67279980012309">
                <ele>0.0</ele>
                <name>Dellepiane Este</name>
            </trkpt>
            <trkpt lon="-58.47681283950806" lat="-34.67317921178241">
                <ele>0.0</ele>
                <name>Dellepiane Este</name>
            </trkpt>
            <trkpt lon="-58.47641587257385" lat="-34.672888035547786">
                <ele>0.0</ele>
                <name>Dellepiane Este</name>
            </trkpt>
            <trkpt lon="-58.474366664886475" lat="-34.66820260448092">
                <ele>0.0</ele>
                <name>Av. Castanares</name>
            </trkpt>
            <trkpt lon="-58.47016096115112" lat="-34.664681738957874">
                <ele>0.0</ele>
                <name>Av. Escalada</name>
            </trkpt>
            <trkpt lon="-58.46919536590576" lat="-34.665043539054594">
                <ele>0.0</ele>
                <name>Av. Escalada</name>
            </trkpt>
            <trkpt lon="-58.46866965293884" lat="-34.6644876016693">
                <ele>0.0</ele>
                <name>Av. Escalada</name>
            </trkpt>
            <trkpt lon="-58.46972107887268" lat="-34.66362280276669">
                <ele>0.0</ele>
                <name>Av. Escalada</name>
            </trkpt>
            <trkpt lon="-58.470890522003174" lat="-34.66373752150772">
                <ele>0.0</ele>
                <name>Av. Escalada</name>
            </trkpt>
            <trkpt lon="-58.47201704978943" lat="-34.6631815753594">
                <ele>0.0</ele>
                <name>Av. Escalada</name>
            </trkpt>
            <trkpt lon="-58.47879767417908" lat="-34.65784253752128">
                <ele>0.0</ele>
                <name>Av. Eva Perón</name>
            </trkpt>
            <trkpt lon="-58.469592332839966" lat="-34.64949353439295">
                <ele>0.0</ele>
                <name>Av. Eva Perón</name>
            </trkpt>
            <trkpt lon="-58.46706032752991" lat="-34.645936568332814">
                <ele>0.0</ele>
                <name>Av. Eva Perón</name>
            </trkpt>
            <trkpt lon="-58.46277952194214" lat="-34.64379172348508">
                <ele>0.0</ele>
                <name>Av. Eva Perón</name>
            </trkpt>
            <trkpt lon="-58.46179246902466" lat="-34.64423305411897">
                <ele>0.0</ele>
                <name>Av. Eva Perón</name>
            </trkpt>
            <trkpt lon="-58.4611701965332" lat="-34.64398590925339">
                <ele>0.0</ele>
                <name>Av. Eva Perón</name>
            </trkpt>
            <trkpt lon="-58.46069812774658" lat="-34.642917881900104">
                <ele>0.0</ele>
                <name>Av. Eva Perón</name>
            </trkpt>
            <trkpt lon="-58.456867933273315" lat="-34.64112603651619">
                <ele>0.0</ele>
                <name>Varela</name>
            </trkpt>
            <trkpt lon="-58.45247983932495" lat="-34.64513336132841">
                <ele>0.0</ele>
                <name>Avelino Díaz</name>
            </trkpt>
            <trkpt lon="-58.445409536361694" lat="-34.63892810433082">
                <ele>0.0</ele>
                <name>Thorne</name>
            </trkpt>
            <trkpt lon="-58.44477653503418" lat="-34.63936063374209">
                <ele>20.0</ele>
                <time>2011-07-28T20:31:05.176Z</time>
                <name>Av. Curapaligüe</name>
            </trkpt>
            <trkpt lon="-58.44310283660889" lat="-34.64178805286742">
                <ele>19.0</ele>
                <time>2011-07-28T20:31:05.176Z</time>
                <name>Av. Curapaligüe</name>
            </trkpt>
            <trkpt lon="-58.44244837760925" lat="-34.64267955986962">
                <ele>13.0</ele>
                <time>2011-07-28T20:31:05.176Z</time>
                <name>Av. Curapaligüe</name>
            </trkpt>
            <trkpt lon="-58.44148278236389" lat="-34.64356223062715">
                <ele>0.0</ele>
                <name>Av. Cobo</name>
            </trkpt>
            <trkpt lon="-58.431161642074585" lat="-34.6415320738383">
                <ele>0.0</ele>
                <name>Av. Cobo</name>
            </trkpt>
            <trkpt lon="-58.42351198196411" lat="-34.64019920474575">
                <ele>11.0</ele>
                <time>2011-07-28T20:32:24.527Z</time>
                <name>Av. Caseros</name>
            </trkpt>
            <trkpt lon="-58.398921489715576" lat="-34.635935645187374">
                <ele>0.0</ele>
                <name>Av. Caseros</name>
            </trkpt>
            <trkpt lon="-58.391969203948975" lat="-34.63450558233846">
                <ele>0.0</ele>
                <name>Juan Carlos Gómez</name>
            </trkpt>
            <trkpt lon="-58.39157223701477" lat="-34.63569730309142">
                <ele>30.0</ele>
                <time>2011-07-28T20:33:59.593Z</time>
                <name>Dr. Finochietto</name>
            </trkpt>
            <trkpt lon="-58.39025259017944" lat="-34.635397167625975">
                <ele>27.0</ele>
                <time>2011-07-28T20:33:59.593Z</time>
                <name>Av. Vélez Sarsfield</name>
            </trkpt>
            <trkpt lon="-58.3903706073761" lat="-34.63413482127886">
                <ele>27.0</ele>
                <time>2011-07-28T20:33:59.593Z</time>
                <name>Av. Entre Rios</name>
            </trkpt>
            <trkpt lon="-58.391443490982056" lat="-34.624000043968174">
                <ele>0.0</ele>
                <name>Av. Entre Rios</name>
            </trkpt>
            <trkpt lon="-58.391733169555664" lat="-34.61385519888079">
                <ele>0.0</ele>
                <name>Av. Entre Rios</name>
            </trkpt>
            <trkpt lon="-58.391958475112915" lat="-34.60921941307648">
                <ele>41.0</ele>
                <time>2011-07-28T20:35:02.150Z</time>
                <name>Av. Callao</name>
            </trkpt>
            <trkpt lon="-58.39229106903076" lat="-34.60450389111019">
                <ele>0.0</ele>
                <name>Av. Corrientes</name>
            </trkpt>
            <trkpt lon="-58.383718729019165" lat="-34.60383274636512">
                <ele>30.0</ele>
                <time>2011-07-28T20:35:17.929Z</time>
                <name>Av. Corrientes</name>
            </trkpt>
            <trkpt lon="-58.37003946304321" lat="-34.602967314871414">
                <ele>0.0</ele>
                <name>Av. Leandro N. Alem</name>
            </trkpt>
            <trkpt lon="-58.37085485458374" lat="-34.59841040437074">
                <ele>0.0</ele>
                <name>Av. Leandro N. Alem</name>
            </trkpt>
            <trkpt lon="-58.373751640319824" lat="-34.593455805209">
                <ele>0.0</ele>
                <name>San Martín</name>
            </trkpt>
            <trkpt lon="-58.3723247051239" lat="-34.59160106640691">
                <ele>0.0</ele>
                <name>Gilardo Gilardi</name>
            </trkpt>
            <trkpt lon="-58.373611" lat="-34.590927">
                <ele>0.0</ele>
                <name>Av. Dr. Jose María Ramos Mejía</name>
            </trkpt>
            <trkpt lon="-58.372217416763306" lat="-34.58924283871072">
                <ele>7.0</ele>
                <time>2011-07-28T20:36:18.520Z</time>
                <name>Av. Antártida Argentina</name>
            </trkpt>
            <trkpt lon="-58.371015787124634" lat="-34.58920750894795">
                <ele>6.0</ele>
                <time>2011-07-28T20:36:18.520Z</time>
                <name>Av. Antártida Argentina</name>
            </trkpt>
            <trkpt lon="-58.3722710609436" lat="-34.58590410976286">
                <ele>0.0</ele>
                <name>Luisoni</name>
            </trkpt>
            <trkpt lon="-58.37155222892761" lat="-34.58504732435595">
                <ele>0.0</ele>
                <name>Gendarmeria Nacional</name>
            </trkpt>
            <trkpt lon="-58.374825" lat="-34.58342">
                <ele>0.0</ele>
                <name>Calle 4</name>
            </trkpt>
            <trkpt lon="-58.375587" lat="-34.584278">
                <ele>0.0</ele>
                <name>Perette</name>
            </trkpt>
            <trkpt lon="-58.37364435195923" lat="-34.58640757747925">
                <ele>0.0</ele>
                <name>Terminal Retiro</name>
            </trkpt>
        </trkseg>
    </trk>
    <trk>
        <name>A - Av. Eva Perón y Av. Gral. Paz</name>
        <desc>&lt;a href=&quot;http://www.masmapas.com/colectivo-50-barrio-comandante-luis-piedrabuena-terminal-de-omnibus-de-retiro&quot;&gt;Mas info sobre la linea de colectivos 50 (Colectivo 50 - Barrio Comandante Luis Piedrabuena - Terminal De Omnibus De Retiro )&lt;/a&gt;</desc>
        <trkseg>
            <trkpt lon="-58.3753502368927" lat="-34.5852239818638">
                <ele>0.0</ele>
                <name>Terminal de Omnibus Retiro</name>
            </trkpt>
            <trkpt lon="-58.37230324745178" lat="-34.58621325696772">
                <ele>0.0</ele>
                <name>Av. Antártida Argentina</name>
            </trkpt>
            <trkpt lon="-58.371723890304565" lat="-34.58817410674101">
                <ele>0.0</ele>
                <name>Av. Dr. José Maria Ramos Mejía</name>
            </trkpt>
            <trkpt lon="-58.375446796417236" lat="-34.59286405970827">
                <ele>0.0</ele>
                <name>Av. Del Libertador</name>
            </trkpt>
            <trkpt lon="-58.373901" lat="-34.593788">
                <ele>0.0</ele>
                <name>Av. Leandro N. Alem</name>
            </trkpt>
            <trkpt lon="-58.37314009666443" lat="-34.5943036720129">
                <ele>28.0</ele>
                <time>2011-07-28T20:38:38.554Z</time>
                <name>Av. Leandro N. Alem</name>
            </trkpt>
            <trkpt lon="-58.37144494056702" lat="-34.59841923583444">
                <ele>0.0</ele>
                <name>25 de Mayo</name>
            </trkpt>
            <trkpt lon="-58.3708119392395" lat="-34.607718246001475">
                <ele>0.0</ele>
                <name>Av. Rivadavia</name>
            </trkpt>
            <trkpt lon="-58.3734405040741" lat="-34.60799199025618">
                <ele>0.0</ele>
                <name>Av. Saenz Pena</name>
            </trkpt>
            <trkpt lon="-58.379480838775635" lat="-34.604865953786025">
                <ele>0.0</ele>
                <name>Sarmiento</name>
            </trkpt>
            <trkpt lon="-58.39079976081848" lat="-34.60552825947383">
                <ele>0.0</ele>
                <name>Rodriguez Pena</name>
            </trkpt>
            <trkpt lon="-58.390587" lat="-34.60918">
                <ele>0.0</ele>
                <name>Av. Rivadavia</name>
            </trkpt>
            <trkpt lon="-58.391711711883545" lat="-34.60923707370407">
                <ele>0.0</ele>
                <name>Solis</name>
            </trkpt>
            <trkpt lon="-58.39165806770325" lat="-34.6102967044845">
                <ele>0.0</ele>
                <name>Hipolito Yrigoyen</name>
            </trkpt>
            <trkpt lon="-58.39039206504822" lat="-34.610190742015035">
                <ele>0.0</ele>
                <name>Solis</name>
            </trkpt>
            <trkpt lon="-58.39033842086792" lat="-34.61806691696228">
                <ele>0.0</ele>
                <name>Solis</name>
            </trkpt>
            <trkpt lon="-58.389458656311035" lat="-34.627222472384716">
                <ele>0.0</ele>
                <name>Av. Juan de Garay</name>
            </trkpt>
            <trkpt lon="-58.39216232299805" lat="-34.627293099551224">
                <ele>0.0</ele>
                <name>Combate de Los Pozos</name>
            </trkpt>
            <trkpt lon="-58.390939235687256" lat="-34.63424075317928">
                <ele>0.0</ele>
                <name>Av. Caseros</name>
            </trkpt>
            <trkpt lon="-58.39599251747131" lat="-34.63535302996593">
                <ele>25.0</ele>
                <time>2011-07-28T20:40:50.939Z</time>
                <name>Av. Caseros</name>
            </trkpt>
            <trkpt lon="-58.40561628341675" lat="-34.63709203600424">
                <ele>0.0</ele>
                <name>Av. Caseros</name>
            </trkpt>
            <trkpt lon="-58.42350125312805" lat="-34.6401727236858">
                <ele>10.0</ele>
                <time>2011-07-28T20:41:15.497Z</time>
                <name>Av. Cobo</name>
            </trkpt>
            <trkpt lon="-58.431183099746704" lat="-34.64148793944307">
                <ele>0.0</ele>
                <name>Av. Cobo</name>
            </trkpt>
            <trkpt lon="-58.44145059585571" lat="-34.643579883946465">
                <ele>0.0</ele>
                <name>Corea</name>
            </trkpt>
            <trkpt lon="-58.442866802215576" lat="-34.64379172348508">
                <ele>13.0</ele>
                <time>2011-07-28T20:41:54.847Z</time>
                <name>Corea</name>
            </trkpt>
            <trkpt lon="-58.44422936439514" lat="-34.64282078782222">
                <ele>0.0</ele>
                <name>Av. Carabobo</name>
            </trkpt>
            <trkpt lon="-58.448124" lat="-34.639721">
                <ele>0.0</ele>
                <name>Santander</name>
            </trkpt>
            <trkpt lon="-58.45333814620972" lat="-34.6442860136372">
                <ele>0.0</ele>
                <name>Varela</name>
            </trkpt>
            <trkpt lon="-58.45532298088074" lat="-34.64246771748972">
                <ele>20.0</ele>
                <time>2011-07-28T20:42:55.245Z</time>
                <name>Zuviria</name>
            </trkpt>
            <trkpt lon="-58.454411029815674" lat="-34.64165565001997">
                <ele>20.0</ele>
                <time>2011-07-28T20:42:55.245Z</time>
                <name>Pedernera</name>
            </trkpt>
            <trkpt lon="-58.45568776130676" lat="-34.64047284186991">
                <ele>0.0</ele>
                <name>Av. Eva Perón</name>
            </trkpt>
            <trkpt lon="-58.46092343330383" lat="-34.642979668981376">
                <ele>0.0</ele>
                <name>Av. Eva Perón</name>
            </trkpt>
            <trkpt lon="-58.46191048622131" lat="-34.642591292277096">
                <ele>0.0</ele>
                <name>Av. Eva Perón</name>
            </trkpt>
            <trkpt lon="-58.46269369125366" lat="-34.64299732242471">
                <ele>0.0</ele>
                <name>Av. Eva Perón</name>
            </trkpt>
            <trkpt lon="-58.462843894958496" lat="-34.64384468328517">
                <ele>0.0</ele>
                <name>Av. Eva Perón</name>
            </trkpt>
            <trkpt lon="-58.46723198890686" lat="-34.64594539474018">
                <ele>0.0</ele>
                <name>Av. Eva Perón</name>
            </trkpt>
            <trkpt lon="-58.46942067146301" lat="-34.6493081875731">
                <ele>0.0</ele>
                <name>Av. Eva Perón</name>
            </trkpt>
            <trkpt lon="-58.47867965698242" lat="-34.65772781061909">
                <ele>0.0</ele>
                <name>Av. Olivera</name>
            </trkpt>
            <trkpt lon="-58.479607701301575" lat="-34.65619221987026">
                <ele>0.0</ele>
                <name>Primera Junta</name>
            </trkpt>
            <trkpt lon="-58.48018705844879" lat="-34.65677910130281">
                <ele>0.0</ele>
                <name>Av. Escalada</name>
            </trkpt>
            <trkpt lon="-58.47297191619873" lat="-34.6624667819734">
                <ele>0.0</ele>
                <name>Dellepiane Oeste</name>
            </trkpt>
            <trkpt lon="-58.475085496902466" lat="-34.66732019609506">
                <ele>14.0</ele>
                <time>2011-07-28T20:44:44.964Z</time>
                <name>Dellepiane Oeste</name>
            </trkpt>
            <trkpt lon="-58.475621938705444" lat="-34.667911410752616">
                <ele>11.0</ele>
                <time>2011-07-28T20:44:44.964Z</time>
                <name>Dellepiane Oeste</name>
            </trkpt>
            <trkpt lon="-58.476083278656006" lat="-34.6696673816506">
                <ele>0.0</ele>
                <name>Av. Castanares</name>
            </trkpt>
            <trkpt lon="-58.48680138587952" lat="-34.67877312615009">
                <ele>0.0</ele>
                <name>Av. Piedrabuena</name>
            </trkpt>
            <trkpt lon="-58.48944067955017" lat="-34.67647913756878">
                <ele>0.0</ele>
                <name>2 de Abril</name>
            </trkpt>
            <trkpt lon="-58.4912645816803" lat="-34.67806729027772">
                <ele>0.0</ele>
                <name>Montiel</name>
            </trkpt>
            <trkpt lon="-58.493807315826416" lat="-34.676108564221124">
                <ele>0.0</ele>
                <name>Zuviria</name>
            </trkpt>
            <trkpt lon="-58.49168300628662" lat="-34.674229202430595">
                <ele>0.0</ele>
                <name>Av. Piedrabuena</name>
            </trkpt>
            <trkpt lon="-58.4927237033844" lat="-34.67318803528869">
                <ele>0.0</ele>
                <name>Av. Argentina</name>
            </trkpt>
            <trkpt lon="-58.500051498413086" lat="-34.67392038303345">
                <ele>0.0</ele>
                <name>Saladillo</name>
            </trkpt>
            <trkpt lon="-58.50074887275696" lat="-34.673452740040084">
                <ele>0.0</ele>
                <name>Av. Eva Perón</name>
            </trkpt>
            <trkpt lon="-58.5016930103302" lat="-34.67401744068234">
                <ele>0.0</ele>
                <name>Av. Eva Perón</name>
            </trkpt>
        </trkseg>
    </trk>
    <trk>
        <name>XshortX B - Hospital Pinero</name>
        <trkseg>
            <trkpt lon="-58.3753502368927" lat="-34.5852239818638">
                <ele>0.0</ele>
                <name>Terminal de Omnibus Retiro</name>
            </trkpt>
            <trkpt lon="-58.37230324745178" lat="-34.58621325696772">
                <ele>0.0</ele>
                <name>Av. Antártida Argentina</name>
            </trkpt>
            <trkpt lon="-58.371723890304565" lat="-34.58817410674101">
                <ele>0.0</ele>
                <name>Av. Dr. José Maria Ramos Mejía</name>
            </trkpt>
            <trkpt lon="-58.375446796417236" lat="-34.59286405970827">
                <ele>0.0</ele>
                <name>Av. Del Libertador</name>
            </trkpt>
            <trkpt lon="-58.373901" lat="-34.593788">
                <ele>0.0</ele>
                <name>Av. Leandro N. Alem</name>
            </trkpt>
            <trkpt lon="-58.37314009666443" lat="-34.5943036720129">
                <ele>28.0</ele>
                <time>2011-07-28T20:38:38.554Z</time>
                <name>Av. Leandro N. Alem</name>
            </trkpt>
            <trkpt lon="-58.37144494056702" lat="-34.59841923583444">
                <ele>0.0</ele>
                <name>25 de Mayo</name>
            </trkpt>
            <trkpt lon="-58.3708119392395" lat="-34.607718246001475">
                <ele>0.0</ele>
                <name>Av. Rivadavia</name>
            </trkpt>
            <trkpt lon="-58.3734405040741" lat="-34.60799199025618">
                <ele>0.0</ele>
                <name>Av. Saenz Pena</name>
            </trkpt>
            <trkpt lon="-58.379480838775635" lat="-34.604865953786025">
                <ele>0.0</ele>
                <name>Sarmiento</name>
            </trkpt>
            <trkpt lon="-58.39079976081848" lat="-34.60552825947383">
                <ele>0.0</ele>
                <name>Rodriguez Pena</name>
            </trkpt>
            <trkpt lon="-58.390587" lat="-34.60918">
                <ele>0.0</ele>
                <name>Av. Rivadavia</name>
            </trkpt>
            <trkpt lon="-58.391711711883545" lat="-34.60923707370407">
                <ele>0.0</ele>
                <name>Solis</name>
            </trkpt>
            <trkpt lon="-58.39165806770325" lat="-34.6102967044845">
                <ele>0.0</ele>
                <name>Hipolito Yrigoyen</name>
            </trkpt>
            <trkpt lon="-58.39039206504822" lat="-34.610190742015035">
                <ele>0.0</ele>
                <name>Solis</name>
            </trkpt>
            <trkpt lon="-58.39033842086792" lat="-34.61806691696228">
                <ele>0.0</ele>
                <name>Solis</name>
            </trkpt>
            <trkpt lon="-58.389458656311035" lat="-34.627222472384716">
                <ele>0.0</ele>
                <name>Av. Juan de Garay</name>
            </trkpt>
            <trkpt lon="-58.39216232299805" lat="-34.627293099551224">
                <ele>0.0</ele>
                <name>Combate de Los Pozos</name>
            </trkpt>
            <trkpt lon="-58.390939235687256" lat="-34.63424075317928">
                <ele>0.0</ele>
                <name>Av. Caseros</name>
            </trkpt>
            <trkpt lon="-58.39599251747131" lat="-34.63535302996593">
                <ele>25.0</ele>
                <time>2011-07-28T20:40:50.939Z</time>
                <name>Av. Caseros</name>
            </trkpt>
            <trkpt lon="-58.40561628341675" lat="-34.63709203600424">
                <ele>0.0</ele>
                <name>Av. Caseros</name>
            </trkpt>
            <trkpt lon="-58.42350125312805" lat="-34.6401727236858">
                <ele>10.0</ele>
                <time>2011-07-28T20:41:15.497Z</time>
                <name>Av. Cobo</name>
            </trkpt>
            <trkpt lon="-58.431183099746704" lat="-34.64148793944307">
                <ele>0.0</ele>
                <name>Av. Cobo</name>
            </trkpt>
            <trkpt lon="-58.44145059585571" lat="-34.643579883946465">
                <ele>0.0</ele>
                <name>Corea</name>
            </trkpt>
            <trkpt lon="-58.442866802215576" lat="-34.64379172348508">
                <ele>13.0</ele>
                <time>2011-07-28T20:41:54.847Z</time>
                <name>Corea</name>
            </trkpt>
            <trkpt lon="-58.44422936439514" lat="-34.64282078782222">
                <ele>0.0</ele>
                <name>Av. Carabobo</name>
            </trkpt>
            <trkpt lon="-58.448124" lat="-34.639721">
                <ele>0.0</ele>
                <name>Santander</name>
            </trkpt>
            <trkpt lon="-58.45333814620972" lat="-34.6442860136372">
                <ele>0.0</ele>
                <name>Varela</name>
            </trkpt>
            <trkpt lon="-58.45392823219299" lat="-34.643756416932895">
                <ele>20.0</ele>
                <time>2011-07-28T20:42:55.245Z</time>
                <name>Zuviria</name>
            </trkpt>
        </trkseg>
    </trk>
    <trk>
        <name>XshortX B - Retiro</name>
        <trkseg>
            <trkpt lon="-58.45394968986511" lat="-34.643774070210874">
                <ele>0.0</ele>
                <name>Varela</name>
            </trkpt>
            <trkpt lon="-58.45247983932495" lat="-34.64513336132841">
                <ele>0.0</ele>
                <name>Avelino Díaz</name>
            </trkpt>
            <trkpt lon="-58.445409536361694" lat="-34.63892810433082">
                <ele>0.0</ele>
                <name>Thorne</name>
            </trkpt>
            <trkpt lon="-58.44477653503418" lat="-34.63936063374209">
                <ele>20.0</ele>
                <time>2011-07-28T20:31:05.176Z</time>
                <name>Av. Curapaligüe</name>
            </trkpt>
            <trkpt lon="-58.44310283660889" lat="-34.64178805286742">
                <ele>19.0</ele>
                <time>2011-07-28T20:31:05.176Z</time>
                <name>Av. Curapaligüe</name>
            </trkpt>
            <trkpt lon="-58.44244837760925" lat="-34.64267955986962">
                <ele>13.0</ele>
                <time>2011-07-28T20:31:05.176Z</time>
                <name>Av. Curapaligüe</name>
            </trkpt>
            <trkpt lon="-58.44148278236389" lat="-34.64356223062715">
                <ele>0.0</ele>
                <name>Av. Cobo</name>
            </trkpt>
            <trkpt lon="-58.431161642074585" lat="-34.6415320738383">
                <ele>0.0</ele>
                <name>Av. Cobo</name>
            </trkpt>
            <trkpt lon="-58.42351198196411" lat="-34.64019920474575">
                <ele>11.0</ele>
                <time>2011-07-28T20:32:24.527Z</time>
                <name>Av. Caseros</name>
            </trkpt>
            <trkpt lon="-58.398921489715576" lat="-34.635935645187374">
                <ele>0.0</ele>
                <name>Av. Caseros</name>
            </trkpt>
            <trkpt lon="-58.391969203948975" lat="-34.63450558233846">
                <ele>0.0</ele>
                <name>Juan Carlos Gómez</name>
            </trkpt>
            <trkpt lon="-58.39157223701477" lat="-34.63569730309142">
                <ele>30.0</ele>
                <time>2011-07-28T20:33:59.593Z</time>
                <name>Dr. Finochietto</name>
            </trkpt>
            <trkpt lon="-58.39025259017944" lat="-34.635397167625975">
                <ele>27.0</ele>
                <time>2011-07-28T20:33:59.593Z</time>
                <name>Av. Vélez Sarsfield</name>
            </trkpt>
            <trkpt lon="-58.3903706073761" lat="-34.63413482127886">
                <ele>27.0</ele>
                <time>2011-07-28T20:33:59.593Z</time>
                <name>Av. Entre Rios</name>
            </trkpt>
            <trkpt lon="-58.391443490982056" lat="-34.624000043968174">
                <ele>0.0</ele>
                <name>Av. Entre Rios</name>
            </trkpt>
            <trkpt lon="-58.391733169555664" lat="-34.61385519888079">
                <ele>0.0</ele>
                <name>Av. Entre Rios</name>
            </trkpt>
            <trkpt lon="-58.391958475112915" lat="-34.60921941307648">
                <ele>41.0</ele>
                <time>2011-07-28T20:35:02.150Z</time>
                <name>Av. Callao</name>
            </trkpt>
            <trkpt lon="-58.39229106903076" lat="-34.60450389111019">
                <ele>0.0</ele>
                <name>Av. Corrientes</name>
            </trkpt>
            <trkpt lon="-58.383718729019165" lat="-34.60383274636512">
                <ele>30.0</ele>
                <time>2011-07-28T20:35:17.929Z</time>
                <name>Av. Corrientes</name>
            </trkpt>
            <trkpt lon="-58.37003946304321" lat="-34.602967314871414">
                <ele>0.0</ele>
                <name>Av. Leandro N. Alem</name>
            </trkpt>
            <trkpt lon="-58.37085485458374" lat="-34.59841040437074">
                <ele>0.0</ele>
                <name>Av. Leandro N. Alem</name>
            </trkpt>
            <trkpt lon="-58.373751640319824" lat="-34.593455805209">
                <ele>0.0</ele>
                <name>San Martín</name>
            </trkpt>
            <trkpt lon="-58.3723247051239" lat="-34.59160106640691">
                <ele>0.0</ele>
                <name>Gilardo Gilardi</name>
            </trkpt>
            <trkpt lon="-58.373611" lat="-34.590927">
                <ele>0.0</ele>
                <name>Av. Dr. Jose María Ramos Mejía</name>
            </trkpt>
            <trkpt lon="-58.372217416763306" lat="-34.58924283871072">
                <ele>7.0</ele>
                <time>2011-07-28T20:36:18.520Z</time>
                <name>Av. Antártida Argentina</name>
            </trkpt>
            <trkpt lon="-58.371015787124634" lat="-34.58920750894795">
                <ele>6.0</ele>
                <time>2011-07-28T20:36:18.520Z</time>
                <name>Av. Antártida Argentina</name>
            </trkpt>
            <trkpt lon="-58.3722710609436" lat="-34.58590410976286">
                <ele>0.0</ele>
                <name>Luisoni</name>
            </trkpt>
            <trkpt lon="-58.37155222892761" lat="-34.58504732435595">
                <ele>0.0</ele>
                <name>Gendarmeria Nacional</name>
            </trkpt>
            <trkpt lon="-58.374825" lat="-34.58342">
                <ele>0.0</ele>
                <name>Calle 4</name>
            </trkpt>
            <trkpt lon="-58.375587" lat="-34.584278">
                <ele>0.0</ele>
                <name>Perette</name>
            </trkpt>
            <trkpt lon="-58.37364435195923" lat="-34.58640757747925">
                <ele>0.0</ele>
                <name>Terminal Retiro</name>
            </trkpt>
        </trkseg>
    </trk>
</gpx>
