<?xml version="1.0" encoding="UTF-8" standalone="yes"?>
<gpx xmlns="http://www.topografix.com/GPX/1/1" xmlns:gpxtrx="http://www.garmin.com/xmlschemas/GpxExtensions/v3" xmlns:rcxx="http://www.routeconverter.de/xmlschemas/RouteCatalogExtensions/1.0" xmlns:xsi="http://www.w3.org/2001/XMLSchema-instance" xmlns:gpxtpx="http://www.garmin.com/xmlschemas/TrackPointExtension/v1" xmlns:gpxx="http://www.garmin.com/xmlschemas/WaypointExtension/v1" xmlns:nmea="http://trekbuddy.net/2009/01/gpx/nmea" creator="Generated by Christian Pesch's RouteConverter. See http://www.routeconverter.com" version="1.1">
    <trk>
        <name>C 38 - Rincón de Milberg por Alto San Isidro y Alto Tigre</name>
        <desc>&lt;a href=&quot;http://www.masmapas.com/colectivo-60-constitucion-martinez-san-isidro-tigre-escobar&quot;&gt;Mas info sobre la linea de colectivos 60 (Colectivo 60 - Constitucion - Martinez - San Isidro - Tigre - Escobar)&lt;/a&gt;</desc>
        <trkseg>
            <trkpt lon="-58.37587594985962" lat="-34.63953717571067">
                <ele>0.0</ele>
                <name>Av. Suárez</name>
            </trkpt>
            <trkpt lon="-58.37455630302429" lat="-34.63864563492624">
                <ele>0.0</ele>
                <name>Av. Montes de Oca</name>
            </trkpt>
            <trkpt lon="-58.37537169456482" lat="-34.63437316786456">
                <ele>0.0</ele>
                <name>Av. Montes de Oca</name>
            </trkpt>
            <trkpt lon="-58.37718486785889" lat="-34.629773840631294">
                <ele>0.0</ele>
                <name>Av. Montes de Oca</name>
            </trkpt>
            <trkpt lon="-58.378440141677856" lat="-34.62748732394911">
                <ele>0.0</ele>
                <name>Bernardo de Irigoyen</name>
            </trkpt>
            <trkpt lon="-58.379074" lat="-34.625961">
                <ele>0.0</ele>
                <name>Av. Juan de Garay</name>
            </trkpt>
            <trkpt lon="-58.380242586135864" lat="-34.62639259867494">
                <ele>0.0</ele>
                <name>Lima Este</name>
            </trkpt>
            <trkpt lon="-58.37987780570984" lat="-34.6273019279428">
                <ele>0.0</ele>
                <name>Av. Brasil Norte</name>
            </trkpt>
            <trkpt lon="-58.382205963134766" lat="-34.627363726657606">
                <ele>0.0</ele>
                <name>Lima Oeste</name>
            </trkpt>
            <trkpt lon="-58.38227033615112" lat="-34.62465336833649">
                <ele>0.0</ele>
                <name>Constitución</name>
            </trkpt>
            <trkpt lon="-58.382935523986816" lat="-34.62469751168937">
                <ele>0.0</ele>
                <name>Salta</name>
            </trkpt>
            <trkpt lon="-58.382967710494995" lat="-34.61858784837255">
                <ele>31.0</ele>
                <time>2011-08-20T16:30:44.035Z</time>
                <name>Salta</name>
            </trkpt>
            <trkpt lon="-58.383471965789795" lat="-34.608592458363425">
                <ele>0.0</ele>
                <name>Libertad</name>
            </trkpt>
            <trkpt lon="-58.383986949920654" lat="-34.599134581275855">
                <ele>25.0</ele>
                <time>2011-08-20T16:31:20.645Z</time>
                <name>Libertad</name>
            </trkpt>
            <trkpt lon="-58.384501934051514" lat="-34.592837563542474">
                <ele>0.0</ele>
                <name>Juncal</name>
            </trkpt>
            <trkpt lon="-58.38864326477051" lat="-34.592837563542474">
                <ele>0.0</ele>
                <name>Vicente López</name>
            </trkpt>
            <trkpt lon="-58.39300990104675" lat="-34.58919867650491">
                <ele>0.0</ele>
                <name>Junin</name>
            </trkpt>
            <trkpt lon="-58.393975496292114" lat="-34.59007308381113">
                <ele>42.0</ele>
                <time>2011-08-20T16:32:19.905Z</time>
                <name>Av. Las Heras</name>
            </trkpt>
            <trkpt lon="-58.40188264846802" lat="-34.58334256010772">
                <ele>0.0</ele>
                <name>Av. Las Heras</name>
            </trkpt>
            <trkpt lon="-58.40610980987549" lat="-34.58340439154656">
                <ele>0.0</ele>
                <name>Av. Las Heras</name>
            </trkpt>
            <trkpt lon="-58.41100215911865" lat="-34.58190275788161">
                <ele>0.0</ele>
                <name>Av. Las Heras</name>
            </trkpt>
            <trkpt lon="-58.42007875442505" lat="-34.58132859666303">
                <ele>0.0</ele>
                <name>Plaza Italia</name>
            </trkpt>
            <trkpt lon="-58.420411348342896" lat="-34.580710264761024">
                <ele>0.0</ele>
                <name>Plaza Italia</name>
            </trkpt>
            <trkpt lon="-58.421666622161865" lat="-34.58076326481858">
                <ele>0.0</ele>
                <name>Av. Santa Fe</name>
            </trkpt>
            <trkpt lon="-58.42587232589722" lat="-34.57829872638948">
                <ele>0.0</ele>
                <name>Av. Santa Fe</name>
            </trkpt>
            <trkpt lon="-58.43158006668091" lat="-34.576637992617776">
                <ele>0.0</ele>
                <name>:ign:Viaducto Carranza</name>
            </trkpt>
            <trkpt lon="-58.43705713748932" lat="-34.57416008081346">
                <ele>13.0</ele>
                <time>2011-08-20T16:34:42.633Z</time>
                <name>Av. Cabildo</name>
            </trkpt>
            <trkpt lon="-58.45425009727478" lat="-34.56484406181093">
                <ele>26.0</ele>
                <time>2011-08-20T16:35:05.389Z</time>
                <name>Av. Cabildo</name>
            </trkpt>
            <trkpt lon="-58.46250057220459" lat="-34.5554518928982">
                <ele>0.0</ele>
                <name>Av. Cabildo</name>
            </trkpt>
            <trkpt lon="-58.468862771987915" lat="-34.54809999169801">
                <ele>0.0</ele>
                <name>Av. Cabildo</name>
            </trkpt>
            <trkpt lon="-58.47626566886902" lat="-34.53810495933116">
                <ele>0.0</ele>
                <name>Av. Maipú</name>
            </trkpt>
            <trkpt lon="-58.48052501678467" lat="-34.52961133173244">
                <ele>34.0</ele>
                <time>2011-08-20T16:50:57.290Z</time>
                <name>Av. Maipú</name>
            </trkpt>
            <trkpt lon="-58.486586809158325" lat="-34.51854445273207">
                <ele>22.0</ele>
                <time>2011-08-20T16:50:57.290Z</time>
                <name>Av. Maipú</name>
            </trkpt>
            <trkpt lon="-58.497562408447266" lat="-34.497785670649534">
                <ele>0.0</ele>
                <name>Av. Santa Fe</name>
            </trkpt>
            <trkpt lon="-58.49817395210266" lat="-34.49404535746603">
                <ele>0.0</ele>
                <name>Av. Santa Fe</name>
            </trkpt>
            <trkpt lon="-58.50268006324768" lat="-34.48554723750784">
                <ele>0.0</ele>
                <name>Av. Santa Fe</name>
            </trkpt>
            <trkpt lon="-58.506585359573364" lat="-34.480727419447334">
                <ele>0.0</ele>
                <name>Av. Santa Fe</name>
            </trkpt>
            <trkpt lon="-58.51263642311096" lat="-34.474359526430774">
                <ele>24.0</ele>
                <time>2011-08-20T16:52:17.169Z</time>
                <name>Av. Centenario</name>
            </trkpt>
            <trkpt lon="-58.519030809402466" lat="-34.4672923651518">
                <ele>0.0</ele>
                <name>Av. Centenario</name>
            </trkpt>
            <trkpt lon="-58.52224946022034" lat="-34.46522252001821">
                <ele>0.0</ele>
                <name>Av. Centenario</name>
            </trkpt>
            <trkpt lon="-58.52792501449585" lat="-34.460374989547596">
                <ele>0.0</ele>
                <name>Av. Centenario</name>
            </trkpt>
            <trkpt lon="-58.53638470172882" lat="-34.455257354986216">
                <ele>0.0</ele>
                <name>Av. J.D. Perón</name>
            </trkpt>
            <trkpt lon="-58.5390830039978" lat="-34.45273159605992">
                <ele>0.0</ele>
                <name>Av. J.D. Perón</name>
            </trkpt>
            <trkpt lon="-58.54016661643982" lat="-34.451811510779">
                <ele>17.0</ele>
                <time>2011-08-20T16:54:23.959Z</time>
                <name>Av. J.D. Perón</name>
            </trkpt>
            <trkpt lon="-58.54295611381531" lat="-34.450325197758715">
                <ele>15.0</ele>
                <time>2011-08-20T16:54:23.959Z</time>
                <name>Av. J.D. Perón</name>
            </trkpt>
            <trkpt lon="-58.54695796966553" lat="-34.44733479737564">
                <ele>0.0</ele>
                <name>Quintana</name>
            </trkpt>
            <trkpt lon="-58.546260595321655" lat="-34.446538518869424">
                <ele>0.0</ele>
                <name>Av. San Martín</name>
            </trkpt>
            <trkpt lon="-58.553951" lat="-34.440781">
                <ele>0.0</ele>
                <name>Av. San Martín</name>
            </trkpt>
            <trkpt lon="-58.56361" lat="-34.433064">
                <ele>0.0</ele>
                <name>Colón</name>
            </trkpt>
            <trkpt lon="-58.565014600753784" lat="-34.43404480018621">
                <ele>0.0</ele>
                <name>Murcho</name>
            </trkpt>
            <trkpt lon="-58.565518856048584" lat="-34.433611202754534">
                <ele>0.0</ele>
                <name>Almirante Brown</name>
            </trkpt>
            <trkpt lon="-58.56659173965454" lat="-34.43441645333712">
                <ele>0.0</ele>
                <name>Av. Cazón</name>
            </trkpt>
            <trkpt lon="-58.570979833602905" lat="-34.430372424251956">
                <ele>6.0</ele>
                <time>2011-08-20T16:55:54.766Z</time>
                <name>Av. Cazón</name>
            </trkpt>
            <trkpt lon="-58.5746169090271" lat="-34.42739900890164">
                <ele>0.0</ele>
                <name>Av. Cazón</name>
            </trkpt>
            <trkpt lon="-58.58085036277771" lat="-34.422637784298495">
                <ele>0.0</ele>
                <name>Av. San Martín</name>
            </trkpt>
            <trkpt lon="-58.58630061149597" lat="-34.41923042180211">
                <ele>0.0</ele>
                <name>Av. San Martín</name>
            </trkpt>
            <trkpt lon="-58.587727" lat="-34.41901">
                <ele>0.0</ele>
                <name>Liniers</name>
            </trkpt>
            <trkpt lon="-58.58955144882202" lat="-34.417239041771325">
                <ele>0.0</ele>
                <name>Liniers</name>
            </trkpt>
            <trkpt lon="-58.59263062477112" lat="-34.410521103335356">
                <ele>0.0</ele>
                <name>Galarza</name>
            </trkpt>
            <trkpt lon="-58.594218492507935" lat="-34.40911371980904">
                <ele>0.0</ele>
                <name>Yagán Yagán</name>
            </trkpt>
            <trkpt lon="-58.59332799911499" lat="-34.40851181270712">
                <ele>0.0</ele>
                <name>Chubut</name>
            </trkpt>
            <trkpt lon="-58.5941219329834" lat="-34.407821384521746">
                <ele>0.0</ele>
                <name>Chubut</name>
            </trkpt>
            <trkpt lon="-58.59737277030945" lat="-34.40567925055254">
                <ele>0.0</ele>
                <name>Callao</name>
            </trkpt>
            <trkpt lon="-58.599668741226196" lat="-34.40827281898013">
                <ele>0.0</ele>
                <name>Callao</name>
            </trkpt>
            <trkpt lon="-58.600689" lat="-34.415813">
                <ele>0.0</ele>
                <name>Santa Maria de Las Conchas</name>
            </trkpt>
            <trkpt lon="-58.6110520362854" lat="-34.411043333966155">
                <ele>3.0</ele>
                <time>2011-08-20T17:00:13.478Z</time>
                <name>Santa Maria de Las Conchas</name>
            </trkpt>
        </trkseg>
    </trk>
    <trk>
        <name>A 38 - Barracas</name>
        <desc>&lt;a href=&quot;http://www.masmapas.com/colectivo-60-constitucion-martinez-san-isidro-tigre-escobar&quot;&gt;Mas info sobre la linea de colectivos 60 (Colectivo 60 - Constitucion - Martinez - San Isidro - Tigre - Escobar)&lt;/a&gt;</desc>
        <trkseg>
            <trkpt lon="-58.463380336761475" lat="-34.548647872120306">
                <ele>0.0</ele>
                <name>Juana Azurduy</name>
            </trkpt>
            <trkpt lon="-58.46501111984253" lat="-34.54949619597995">
                <ele>0.0</ele>
                <name>Cuba</name>
            </trkpt>
            <trkpt lon="-58.46326231956482" lat="-34.551802532754046">
                <ele>0.0</ele>
                <name>Guayra</name>
            </trkpt>
            <trkpt lon="-58.46119165420532" lat="-34.55081284817543">
                <ele>0.0</ele>
                <name>O Higgins</name>
            </trkpt>
            <trkpt lon="-58.45850944519043" lat="-34.55337540009537">
                <ele>0.0</ele>
                <name>O Higgins</name>
            </trkpt>
            <trkpt lon="-58.45299482345581" lat="-34.5598874613618">
                <ele>0.0</ele>
                <name>Juramento</name>
            </trkpt>
            <trkpt lon="-58.45057010650635" lat="-34.55847376003918">
                <ele>0.0</ele>
                <name>Av. Virrey Vertiz</name>
            </trkpt>
            <trkpt lon="-58.448166847229004" lat="-34.559843283559154">
                <ele>0.0</ele>
                <name>Sucre</name>
            </trkpt>
            <trkpt lon="-58.455129861831665" lat="-34.5639517188273">
                <ele>0.0</ele>
                <name>Av. Cabildo</name>
            </trkpt>
            <trkpt lon="-58.45430374145508" lat="-34.56487940193001">
                <ele>0.0</ele>
                <name>Av. Cabildo</name>
            </trkpt>
            <trkpt lon="-58.43844652175903" lat="-34.57338709855965">
                <ele>0.0</ele>
                <name>:ign:Viaducto Carranza</name>
            </trkpt>
            <trkpt lon="-58.431644439697266" lat="-34.576646826395816">
                <ele>0.0</ele>
                <name>Av. Santa Fe</name>
            </trkpt>
            <trkpt lon="-58.42587232589722" lat="-34.57831639359166">
                <ele>0.0</ele>
                <name>Av. Santa Fe</name>
            </trkpt>
            <trkpt lon="-58.4217095375061" lat="-34.58116076417304">
                <ele>0.0</ele>
                <name>Av. Santa Fe</name>
            </trkpt>
            <trkpt lon="-58.42078685760498" lat="-34.58184092532557">
                <ele>0.0</ele>
                <name>Plaza Italia</name>
            </trkpt>
            <trkpt lon="-58.42008948326111" lat="-34.581425762686536">
                <ele>0.0</ele>
                <name>Av. Las Heras</name>
            </trkpt>
            <trkpt lon="-58.411173820495605" lat="-34.581982256814634">
                <ele>0.0</ele>
                <name>Av. Las Heras</name>
            </trkpt>
            <trkpt lon="-58.40615272521973" lat="-34.58346622293939">
                <ele>0.0</ele>
                <name>Av. Las Heras</name>
            </trkpt>
            <trkpt lon="-58.40200066566467" lat="-34.58345738988609">
                <ele>0.0</ele>
                <name>Av. Las Heras</name>
            </trkpt>
            <trkpt lon="-58.39190483093262" lat="-34.59176887781177">
                <ele>0.0</ele>
                <name>Av. Callao</name>
            </trkpt>
            <trkpt lon="-58.39000582695007" lat="-34.590037754401386">
                <ele>0.0</ele>
                <name>Guido</name>
            </trkpt>
            <trkpt lon="-58.38606834411621" lat="-34.59318201303856">
                <ele>0.0</ele>
                <name>Talcahuano</name>
            </trkpt>
            <trkpt lon="-58.385714292526245" lat="-34.595672605358075">
                <ele>42.0</ele>
                <time>2011-08-20T16:43:28.187Z</time>
                <name>Talcahuano</name>
            </trkpt>
            <trkpt lon="-58.38504910469055" lat="-34.60519269191887">
                <ele>0.0</ele>
                <name>Talcahuano</name>
            </trkpt>
            <trkpt lon="-58.38488817214966" lat="-34.60868959250213">
                <ele>35.0</ele>
                <time>2011-08-20T16:43:43.627Z</time>
                <name>Santiago del Estero</name>
            </trkpt>
            <trkpt lon="-58.38480234146118" lat="-34.61211570578882">
                <ele>29.0</ele>
                <time>2011-08-20T16:43:43.627Z</time>
                <name>Santiago del Estero</name>
            </trkpt>
            <trkpt lon="-58.38428735733032" lat="-34.61781086473161">
                <ele>32.0</ele>
                <time>2011-08-20T16:43:43.627Z</time>
                <name>Santiago del Estero</name>
            </trkpt>
            <trkpt lon="-58.3844268321991" lat="-34.62226959240814">
                <ele>29.0</ele>
                <time>2011-08-20T16:43:43.627Z</time>
                <name>Santiago del Estero</name>
            </trkpt>
            <trkpt lon="-58.38434100151062" lat="-34.628184762357506">
                <ele>0.0</ele>
                <name>Av. Brasil</name>
            </trkpt>
            <trkpt lon="-58.38284969329834" lat="-34.627866943050385">
                <ele>0.0</ele>
                <name>Av. Brasil</name>
            </trkpt>
            <trkpt lon="-58.37962031364441" lat="-34.627769831352595">
                <ele>0.0</ele>
                <name>Gral. Hornos</name>
            </trkpt>
            <trkpt lon="-58.378708362579346" lat="-34.63044477565281">
                <ele>0.0</ele>
                <name>Finochietto</name>
            </trkpt>
            <trkpt lon="-58.37952375411987" lat="-34.632228023938204">
                <ele>0.0</ele>
                <name>Herrera</name>
            </trkpt>
            <trkpt lon="-58.37709903717041" lat="-34.640375744929194">
                <ele>0.0</ele>
                <name>Suárez</name>
            </trkpt>
            <trkpt lon="-58.37584376335144" lat="-34.63955482988686">
                <ele>13.0</ele>
                <time>2011-08-20T16:45:19.165Z</time>
                <name>Suárez</name>
            </trkpt>
        </trkseg>
    </trk>
    <trk>
        <name>A 38 - Estación Nunez</name>
        <trkseg>
            <trkpt lon="-58.37587594985962" lat="-34.63953717571067">
                <ele>0.0</ele>
                <name>Av. Suárez</name>
            </trkpt>
            <trkpt lon="-58.37455630302429" lat="-34.63864563492624">
                <ele>0.0</ele>
                <name>Av. Montes de Oca</name>
            </trkpt>
            <trkpt lon="-58.37537169456482" lat="-34.63437316786456">
                <ele>0.0</ele>
                <name>Av. Montes de Oca</name>
            </trkpt>
            <trkpt lon="-58.37718486785889" lat="-34.629773840631294">
                <ele>0.0</ele>
                <name>Av. Montes de Oca</name>
            </trkpt>
            <trkpt lon="-58.378440141677856" lat="-34.62748732394911">
                <ele>0.0</ele>
                <name>Bernardo de Irigoyen</name>
            </trkpt>
            <trkpt lon="-58.379074" lat="-34.625961">
                <ele>0.0</ele>
                <name>Av. Juan de Garay</name>
            </trkpt>
            <trkpt lon="-58.380242586135864" lat="-34.62639259867494">
                <ele>0.0</ele>
                <name>Lima Este</name>
            </trkpt>
            <trkpt lon="-58.37987780570984" lat="-34.6273019279428">
                <ele>0.0</ele>
                <name>Av. Brasil Norte</name>
            </trkpt>
            <trkpt lon="-58.382205963134766" lat="-34.627363726657606">
                <ele>0.0</ele>
                <name>Lima Oeste</name>
            </trkpt>
            <trkpt lon="-58.38227033615112" lat="-34.62465336833649">
                <ele>0.0</ele>
                <name>Constitución</name>
            </trkpt>
            <trkpt lon="-58.382935523986816" lat="-34.62469751168937">
                <ele>0.0</ele>
                <name>Salta</name>
            </trkpt>
            <trkpt lon="-58.382967710494995" lat="-34.61858784837255">
                <ele>31.0</ele>
                <time>2011-08-20T16:30:44.035Z</time>
                <name>Salta</name>
            </trkpt>
            <trkpt lon="-58.383471965789795" lat="-34.608592458363425">
                <ele>0.0</ele>
                <name>Libertad</name>
            </trkpt>
            <trkpt lon="-58.383986949920654" lat="-34.599134581275855">
                <ele>25.0</ele>
                <time>2011-08-20T16:31:20.645Z</time>
                <name>Libertad</name>
            </trkpt>
            <trkpt lon="-58.384501934051514" lat="-34.592837563542474">
                <ele>0.0</ele>
                <name>Juncal</name>
            </trkpt>
            <trkpt lon="-58.38864326477051" lat="-34.592837563542474">
                <ele>0.0</ele>
                <name>Vicente López</name>
            </trkpt>
            <trkpt lon="-58.39300990104675" lat="-34.58919867650491">
                <ele>0.0</ele>
                <name>Junin</name>
            </trkpt>
            <trkpt lon="-58.393975496292114" lat="-34.59007308381113">
                <ele>42.0</ele>
                <time>2011-08-20T16:32:19.905Z</time>
                <name>Av. Las Heras</name>
            </trkpt>
            <trkpt lon="-58.40188264846802" lat="-34.58334256010772">
                <ele>0.0</ele>
                <name>Av. Las Heras</name>
            </trkpt>
            <trkpt lon="-58.40610980987549" lat="-34.58340439154656">
                <ele>0.0</ele>
                <name>Av. Las Heras</name>
            </trkpt>
            <trkpt lon="-58.41100215911865" lat="-34.58190275788161">
                <ele>0.0</ele>
                <name>Av. Las Heras</name>
            </trkpt>
            <trkpt lon="-58.42007875442505" lat="-34.58132859666303">
                <ele>0.0</ele>
                <name>Plaza Italia</name>
            </trkpt>
            <trkpt lon="-58.420411348342896" lat="-34.580710264761024">
                <ele>0.0</ele>
                <name>Plaza Italia</name>
            </trkpt>
            <trkpt lon="-58.421666622161865" lat="-34.58076326481858">
                <ele>0.0</ele>
                <name>Av. Santa Fe</name>
            </trkpt>
            <trkpt lon="-58.42587232589722" lat="-34.57829872638948">
                <ele>0.0</ele>
                <name>Av. Santa Fe</name>
            </trkpt>
            <trkpt lon="-58.43158006668091" lat="-34.576637992617776">
                <ele>0.0</ele>
                <name>:ign:Viaducto Carranza</name>
            </trkpt>
            <trkpt lon="-58.43705713748932" lat="-34.57416008081346">
                <ele>13.0</ele>
                <time>2011-08-20T16:34:42.633Z</time>
                <name>Av. Cabildo</name>
            </trkpt>
            <trkpt lon="-58.45425009727478" lat="-34.56484406181093">
                <ele>26.0</ele>
                <time>2011-08-20T16:35:05.389Z</time>
                <name>La Pampa</name>
            </trkpt>
            <trkpt lon="-58.446675539016724" lat="-34.56040875766112">
                <ele>18.0</ele>
                <time>2011-08-20T16:35:09.755Z</time>
                <name>Av. Virrey Vertiz</name>
            </trkpt>
            <trkpt lon="-58.45058083534241" lat="-34.558429581485704">
                <ele>37.0</ele>
                <time>2011-08-20T16:35:11.721Z</time>
                <name>Juramento</name>
            </trkpt>
            <trkpt lon="-58.45384240150452" lat="-34.56029389604529">
                <ele>27.0</ele>
                <time>2011-08-20T16:35:12.564Z</time>
                <name>Arcos</name>
            </trkpt>
            <trkpt lon="-58.4612774848938" lat="-34.551820205585976">
                <ele>23.0</ele>
                <time>2011-08-20T16:35:13.171Z</time>
                <name>Iberá</name>
            </trkpt>
            <trkpt lon="-58.46182465553284" lat="-34.55207646122702">
                <ele>13.0</ele>
                <time>2011-08-20T16:35:13.207Z</time>
                <name>Arcos</name>
            </trkpt>
            <trkpt lon="-58.46346616744995" lat="-34.54982315182524">
                <ele>13.0</ele>
                <time>2011-08-20T16:35:13.251Z</time>
                <name>Pedraza</name>
            </trkpt>
            <trkpt lon="-58.4627902507782" lat="-34.549452012659074">
                <ele>13.0</ele>
                <time>2011-08-20T16:35:13.275Z</time>
                <name>O Higgins</name>
            </trkpt>
            <trkpt lon="-58.463348150253296" lat="-34.54867438237182">
                <ele>13.0</ele>
                <time>2011-08-20T16:35:13.325Z</time>
                <name>Estación Nunez</name>
            </trkpt>
        </trkseg>
    </trk>
    <trk>
        <name>B 38 - Rincón de Milberg por Alto San Isidro y Bajo Tigre</name>
        <trkseg>
            <trkpt lon="-58.37587594985962" lat="-34.63953717571067">
                <ele>0.0</ele>
                <name>Av. Suárez</name>
            </trkpt>
            <trkpt lon="-58.37455630302429" lat="-34.63864563492624">
                <ele>0.0</ele>
                <name>Av. Montes de Oca</name>
            </trkpt>
            <trkpt lon="-58.37537169456482" lat="-34.63437316786456">
                <ele>0.0</ele>
                <name>Av. Montes de Oca</name>
            </trkpt>
            <trkpt lon="-58.37718486785889" lat="-34.629773840631294">
                <ele>0.0</ele>
                <name>Av. Montes de Oca</name>
            </trkpt>
            <trkpt lon="-58.378440141677856" lat="-34.62748732394911">
                <ele>0.0</ele>
                <name>Bernardo de Irigoyen</name>
            </trkpt>
            <trkpt lon="-58.379074" lat="-34.625961">
                <ele>0.0</ele>
                <name>Av. Juan de Garay</name>
            </trkpt>
            <trkpt lon="-58.380242586135864" lat="-34.62639259867494">
                <ele>0.0</ele>
                <name>Lima Este</name>
            </trkpt>
            <trkpt lon="-58.37987780570984" lat="-34.6273019279428">
                <ele>0.0</ele>
                <name>Av. Brasil Norte</name>
            </trkpt>
            <trkpt lon="-58.382205963134766" lat="-34.627363726657606">
                <ele>0.0</ele>
                <name>Lima Oeste</name>
            </trkpt>
            <trkpt lon="-58.38227033615112" lat="-34.62465336833649">
                <ele>0.0</ele>
                <name>Constitución</name>
            </trkpt>
            <trkpt lon="-58.382935523986816" lat="-34.62469751168937">
                <ele>0.0</ele>
                <name>Salta</name>
            </trkpt>
            <trkpt lon="-58.382967710494995" lat="-34.61858784837255">
                <ele>31.0</ele>
                <time>2011-08-20T16:30:44.035Z</time>
                <name>Salta</name>
            </trkpt>
            <trkpt lon="-58.383471965789795" lat="-34.608592458363425">
                <ele>0.0</ele>
                <name>Libertad</name>
            </trkpt>
            <trkpt lon="-58.383986949920654" lat="-34.599134581275855">
                <ele>25.0</ele>
                <time>2011-08-20T16:31:20.645Z</time>
                <name>Libertad</name>
            </trkpt>
            <trkpt lon="-58.384501934051514" lat="-34.592837563542474">
                <ele>0.0</ele>
                <name>Juncal</name>
            </trkpt>
            <trkpt lon="-58.38864326477051" lat="-34.592837563542474">
                <ele>0.0</ele>
                <name>Vicente López</name>
            </trkpt>
            <trkpt lon="-58.39300990104675" lat="-34.58919867650491">
                <ele>0.0</ele>
                <name>Junin</name>
            </trkpt>
            <trkpt lon="-58.393975496292114" lat="-34.59007308381113">
                <ele>42.0</ele>
                <time>2011-08-20T16:32:19.905Z</time>
                <name>Av. Las Heras</name>
            </trkpt>
            <trkpt lon="-58.40188264846802" lat="-34.58334256010772">
                <ele>0.0</ele>
                <name>Av. Las Heras</name>
            </trkpt>
            <trkpt lon="-58.40610980987549" lat="-34.58340439154656">
                <ele>0.0</ele>
                <name>Av. Las Heras</name>
            </trkpt>
            <trkpt lon="-58.41100215911865" lat="-34.58190275788161">
                <ele>0.0</ele>
                <name>Av. Las Heras</name>
            </trkpt>
            <trkpt lon="-58.42007875442505" lat="-34.58132859666303">
                <ele>0.0</ele>
                <name>Plaza Italia</name>
            </trkpt>
            <trkpt lon="-58.420411348342896" lat="-34.580710264761024">
                <ele>0.0</ele>
                <name>Plaza Italia</name>
            </trkpt>
            <trkpt lon="-58.421666622161865" lat="-34.58076326481858">
                <ele>0.0</ele>
                <name>Av. Santa Fe</name>
            </trkpt>
            <trkpt lon="-58.42587232589722" lat="-34.57829872638948">
                <ele>0.0</ele>
                <name>Av. Santa Fe</name>
            </trkpt>
            <trkpt lon="-58.43158006668091" lat="-34.576637992617776">
                <ele>0.0</ele>
                <name>:ign:Viaducto Carranza</name>
            </trkpt>
            <trkpt lon="-58.43705713748932" lat="-34.57416008081346">
                <ele>13.0</ele>
                <time>2011-08-20T16:34:42.633Z</time>
                <name>Av. Cabildo</name>
            </trkpt>
            <trkpt lon="-58.45425009727478" lat="-34.56484406181093">
                <ele>26.0</ele>
                <time>2011-08-20T16:35:05.389Z</time>
                <name>Av. Cabildo</name>
            </trkpt>
            <trkpt lon="-58.46250057220459" lat="-34.5554518928982">
                <ele>0.0</ele>
                <name>Av. Cabildo</name>
            </trkpt>
            <trkpt lon="-58.468862771987915" lat="-34.54809999169801">
                <ele>0.0</ele>
                <name>Av. Cabildo</name>
            </trkpt>
            <trkpt lon="-58.47626566886902" lat="-34.53810495933116">
                <ele>0.0</ele>
                <name>Av. Maipú</name>
            </trkpt>
            <trkpt lon="-58.48052501678467" lat="-34.52961133173244">
                <ele>34.0</ele>
                <time>2011-08-20T16:50:57.290Z</time>
                <name>Av. Maipú</name>
            </trkpt>
            <trkpt lon="-58.486586809158325" lat="-34.51854445273207">
                <ele>22.0</ele>
                <time>2011-08-20T16:50:57.290Z</time>
                <name>Av. Maipú</name>
            </trkpt>
            <trkpt lon="-58.497562408447266" lat="-34.497785670649534">
                <ele>0.0</ele>
                <name>Av. Santa Fe</name>
            </trkpt>
            <trkpt lon="-58.49817395210266" lat="-34.49404535746603">
                <ele>0.0</ele>
                <name>Av. Santa Fe</name>
            </trkpt>
            <trkpt lon="-58.50268006324768" lat="-34.48554723750784">
                <ele>0.0</ele>
                <name>Av. Santa Fe</name>
            </trkpt>
            <trkpt lon="-58.506585359573364" lat="-34.480727419447334">
                <ele>0.0</ele>
                <name>Av. Santa Fe</name>
            </trkpt>
            <trkpt lon="-58.51263642311096" lat="-34.474359526430774">
                <ele>24.0</ele>
                <time>2011-08-20T16:52:17.169Z</time>
                <name>Av. Centenario</name>
            </trkpt>
            <trkpt lon="-58.519030809402466" lat="-34.4672923651518">
                <ele>0.0</ele>
                <name>Av. Centenario</name>
            </trkpt>
            <trkpt lon="-58.52224946022034" lat="-34.46522252001821">
                <ele>0.0</ele>
                <name>Av. Centenario</name>
            </trkpt>
            <trkpt lon="-58.52792501449585" lat="-34.460374989547596">
                <ele>0.0</ele>
                <name>Av. Centenario</name>
            </trkpt>
            <trkpt lon="-58.53638470172882" lat="-34.455257354986216">
                <ele>0.0</ele>
                <name>Av. J.D. Perón</name>
            </trkpt>
            <trkpt lon="-58.5390830039978" lat="-34.45273159605992">
                <ele>0.0</ele>
                <name>Av. J.D. Perón</name>
            </trkpt>
            <trkpt lon="-58.54016661643982" lat="-34.451811510779">
                <ele>17.0</ele>
                <time>2011-08-20T16:54:23.959Z</time>
                <name>Av. J.D. Perón</name>
            </trkpt>
            <trkpt lon="-58.54295611381531" lat="-34.450325197758715">
                <ele>15.0</ele>
                <time>2011-08-20T16:54:23.959Z</time>
                <name>Av. J.D. Perón</name>
            </trkpt>
            <trkpt lon="-58.54695796966553" lat="-34.44733479737564">
                <ele>0.0</ele>
                <name>Quintana</name>
            </trkpt>
            <trkpt lon="-58.546260595321655" lat="-34.446538518869424">
                <ele>0.0</ele>
                <name>Av. San Martín</name>
            </trkpt>
            <trkpt lon="-58.553951" lat="-34.440781">
                <ele>0.0</ele>
                <name>Av. San Martín</name>
            </trkpt>
            <trkpt lon="-58.56361" lat="-34.433064">
                <ele>0.0</ele>
                <name>Colón</name>
            </trkpt>
            <trkpt lon="-58.565014600753784" lat="-34.43404480018621">
                <ele>0.0</ele>
                <name>Murcho</name>
            </trkpt>
            <trkpt lon="-58.565518856048584" lat="-34.433611202754534">
                <ele>0.0</ele>
                <name>Almirante Brown</name>
            </trkpt>
            <trkpt lon="-58.56659173965454" lat="-34.43441645333712">
                <ele>0.0</ele>
                <name>Av. Cazón</name>
            </trkpt>
            <trkpt lon="-58.570979833602905" lat="-34.430372424251956">
                <ele>6.0</ele>
                <time>2011-08-20T16:55:54.766Z</time>
                <name>Av. Cazón</name>
            </trkpt>
            <trkpt lon="-58.5746169090271" lat="-34.42739900890164">
                <ele>0.0</ele>
                <name>Av. Cazón</name>
            </trkpt>
            <trkpt lon="-58.58085036277771" lat="-34.422637784298495">
                <ele>0.0</ele>
                <name>Av. San Martín</name>
            </trkpt>
            <trkpt lon="-58.58630061149597" lat="-34.41923042180211">
                <ele>0.0</ele>
                <name>Av. San Martín</name>
            </trkpt>
            <trkpt lon="-58.587727" lat="-34.41901">
                <ele>0.0</ele>
                <name>Liniers</name>
            </trkpt>
            <trkpt lon="-58.58784556388855" lat="-34.42074383890848">
                <ele>0.0</ele>
                <name>Liniers</name>
            </trkpt>
            <trkpt lon="-58.58928859233856" lat="-34.423814840890856">
                <ele>0.0</ele>
                <name>Santa Maria de Las Conchas</name>
            </trkpt>
            <trkpt lon="-58.5902863740921" lat="-34.42349181573154">
                <ele>3.0</ele>
                <time>2011-08-20T16:59:35.055Z</time>
                <name>Santa Maria de Las Conchas</name>
            </trkpt>
            <trkpt lon="-58.59660029411316" lat="-34.41776565576947">
                <ele>0.0</ele>
                <name>Santa Maria de Las Conchas</name>
            </trkpt>
            <trkpt lon="-58.600689" lat="-34.415813">
                <ele>0.0</ele>
                <name>Santa Maria de Las Conchas</name>
            </trkpt>
            <trkpt lon="-58.6110520362854" lat="-34.411043333966155">
                <ele>3.0</ele>
                <time>2011-08-20T17:00:13.478Z</time>
                <name>Santa Maria de Las Conchas</name>
            </trkpt>
        </trkseg>
    </trk>
    <trk>
        <name>B 38 - Barracas por Alto San Isidro y Bajo Tigre</name>
        <trkseg>
            <trkpt lon="-58.6110520362854" lat="-34.411043333966155">
                <ele>3.0</ele>
                <time>2011-08-20T17:00:13.478Z</time>
                <name>Santa Maria de Las Conchas</name>
            </trkpt>
            <trkpt lon="-58.600689" lat="-34.415813">
                <ele>0.0</ele>
                <name>Santa Maria de Las Conchas</name>
            </trkpt>
            <trkpt lon="-58.59660029411316" lat="-34.41776565576947">
                <ele>0.0</ele>
                <name>Santa Maria de Las Conchas</name>
            </trkpt>
            <trkpt lon="-58.59035611152649" lat="-34.4235935909164">
                <ele>3.0</ele>
                <time>2011-08-20T16:59:35.055Z</time>
                <name>Santa Maria de Las Conchas</name>
            </trkpt>
            <trkpt lon="-58.58838200569153" lat="-34.42464673555512">
                <ele>0.0</ele>
                <name>Estrada</name>
            </trkpt>
            <trkpt lon="-58.5871696472168" lat="-34.4237351909675">
                <ele>7.0</ele>
                <time>2011-08-20T17:02:40.605Z</time>
                <name>Sargento Díaz</name>
            </trkpt>
            <trkpt lon="-58.588682413101196" lat="-34.4227262853703">
                <ele>5.0</ele>
                <time>2011-08-20T17:02:40.605Z</time>
                <name>Liniers</name>
            </trkpt>
            <trkpt lon="-58.58778119087219" lat="-34.42090314437884">
                <ele>0.0</ele>
                <name>Liniers</name>
            </trkpt>
            <trkpt lon="-58.587727" lat="-34.41901">
                <ele>0.0</ele>
                <name>Av. San Martín</name>
            </trkpt>
            <trkpt lon="-58.58630061149597" lat="-34.41923042180211">
                <ele>0.0</ele>
                <name>Av. San Martín</name>
            </trkpt>
            <trkpt lon="-58.58087182044983" lat="-34.422743985573426">
                <ele>0.0</ele>
                <name>Av. Cazón</name>
            </trkpt>
            <trkpt lon="-58.5746169090271" lat="-34.42739900890164">
                <ele>0.0</ele>
                <name>Av. Cazón</name>
            </trkpt>
            <trkpt lon="-58.570979833602905" lat="-34.430372424251956">
                <ele>6.0</ele>
                <time>2011-08-20T16:55:54.766Z</time>
                <name>Av. Cazón</name>
            </trkpt>
            <trkpt lon="-58.56606602668762" lat="-34.43485004659089">
                <ele>0.0</ele>
                <name>Colón</name>
            </trkpt>
            <trkpt lon="-58.56441378593445" lat="-34.43376163477139">
                <ele>0.0</ele>
                <name>Av. J.D. Perón</name>
            </trkpt>
            <trkpt lon="-58.555015325546265" lat="-34.44112362372802">
                <ele>0.0</ele>
                <name>Av. J.D. Perón</name>
            </trkpt>
            <trkpt lon="-58.54693651199341" lat="-34.44733479737564">
                <ele>0.0</ele>
                <name>Av. J.D. Perón</name>
            </trkpt>
            <trkpt lon="-58.54295611381531" lat="-34.450325197758715">
                <ele>15.0</ele>
                <time>2011-08-20T16:54:23.959Z</time>
                <name>Av. J.D. Perón</name>
            </trkpt>
            <trkpt lon="-58.54016661643982" lat="-34.451811510779">
                <ele>17.0</ele>
                <time>2011-08-20T16:54:23.959Z</time>
                <name>Av. J.D. Perón</name>
            </trkpt>
            <trkpt lon="-58.5390830039978" lat="-34.45273159605992">
                <ele>0.0</ele>
                <name>Av. J.D. Perón</name>
            </trkpt>
            <trkpt lon="-58.53638470172882" lat="-34.455257354986216">
                <ele>0.0</ele>
                <name>Av. Centenario</name>
            </trkpt>
            <trkpt lon="-58.52792501449585" lat="-34.460374989547596">
                <ele>0.0</ele>
                <name>Av. Centenario</name>
            </trkpt>
            <trkpt lon="-58.52224946022034" lat="-34.46522252001821">
                <ele>0.0</ele>
                <name>Av. Centenario</name>
            </trkpt>
            <trkpt lon="-58.519030809402466" lat="-34.4672923651518">
                <ele>0.0</ele>
                <name>Av. Centenario</name>
            </trkpt>
            <trkpt lon="-58.51263642311096" lat="-34.474359526430774">
                <ele>24.0</ele>
                <time>2011-08-20T16:52:17.169Z</time>
                <name>Av. Santa Fe</name>
            </trkpt>
            <trkpt lon="-58.506585359573364" lat="-34.480727419447334">
                <ele>0.0</ele>
                <name>Av. Santa Fe</name>
            </trkpt>
            <trkpt lon="-58.50268006324768" lat="-34.48554723750784">
                <ele>0.0</ele>
                <name>Av. Santa Fe</name>
            </trkpt>
            <trkpt lon="-58.49817395210266" lat="-34.49404535746603">
                <ele>0.0</ele>
                <name>Av. Santa Fe</name>
            </trkpt>
            <trkpt lon="-58.497562408447266" lat="-34.497785670649534">
                <ele>0.0</ele>
                <name>Av. Maipú</name>
            </trkpt>
            <trkpt lon="-58.486586809158325" lat="-34.51854445273207">
                <ele>22.0</ele>
                <time>2011-08-20T16:50:57.290Z</time>
                <name>Av. Maipú</name>
            </trkpt>
            <trkpt lon="-58.48052501678467" lat="-34.52961133173244">
                <ele>34.0</ele>
                <time>2011-08-20T16:50:57.290Z</time>
                <name>Av. Maipú</name>
            </trkpt>
            <trkpt lon="-58.47626566886902" lat="-34.53810495933116">
                <ele>0.0</ele>
                <name>Av. Cabildo</name>
            </trkpt>
            <trkpt lon="-58.468862771987915" lat="-34.54809999169801">
                <ele>0.0</ele>
                <name>Av. Cabildo</name>
            </trkpt>
            <trkpt lon="-58.46250057220459" lat="-34.5554518928982">
                <ele>0.0</ele>
                <name>Av. Cabildo</name>
            </trkpt>
            <trkpt lon="-58.45430374145508" lat="-34.56487940193001">
                <ele>0.0</ele>
                <name>Av. Cabildo</name>
            </trkpt>
            <trkpt lon="-58.43844652175903" lat="-34.57338709855965">
                <ele>0.0</ele>
                <name>:ign:Viaducto Carranza</name>
            </trkpt>
            <trkpt lon="-58.431644439697266" lat="-34.576646826395816">
                <ele>0.0</ele>
                <name>Av. Santa Fe</name>
            </trkpt>
            <trkpt lon="-58.42587232589722" lat="-34.57831639359166">
                <ele>0.0</ele>
                <name>Av. Santa Fe</name>
            </trkpt>
            <trkpt lon="-58.4217095375061" lat="-34.58116076417304">
                <ele>0.0</ele>
                <name>Av. Santa Fe</name>
            </trkpt>
            <trkpt lon="-58.42078685760498" lat="-34.58184092532557">
                <ele>0.0</ele>
                <name>Plaza Italia</name>
            </trkpt>
            <trkpt lon="-58.42008948326111" lat="-34.581425762686536">
                <ele>0.0</ele>
                <name>Av. Las Heras</name>
            </trkpt>
            <trkpt lon="-58.411173820495605" lat="-34.581982256814634">
                <ele>0.0</ele>
                <name>Av. Las Heras</name>
            </trkpt>
            <trkpt lon="-58.40615272521973" lat="-34.58346622293939">
                <ele>0.0</ele>
                <name>Av. Las Heras</name>
            </trkpt>
            <trkpt lon="-58.40200066566467" lat="-34.58345738988609">
                <ele>0.0</ele>
                <name>Av. Las Heras</name>
            </trkpt>
            <trkpt lon="-58.39190483093262" lat="-34.59176887781177">
                <ele>0.0</ele>
                <name>Av. Callao</name>
            </trkpt>
            <trkpt lon="-58.39000582695007" lat="-34.590037754401386">
                <ele>0.0</ele>
                <name>Guido</name>
            </trkpt>
            <trkpt lon="-58.38606834411621" lat="-34.59318201303856">
                <ele>0.0</ele>
                <name>Talcahuano</name>
            </trkpt>
            <trkpt lon="-58.385714292526245" lat="-34.595672605358075">
                <ele>42.0</ele>
                <time>2011-08-20T16:43:28.187Z</time>
                <name>Talcahuano</name>
            </trkpt>
            <trkpt lon="-58.38504910469055" lat="-34.60519269191887">
                <ele>0.0</ele>
                <name>Talcahuano</name>
            </trkpt>
            <trkpt lon="-58.38488817214966" lat="-34.60868959250213">
                <ele>35.0</ele>
                <time>2011-08-20T16:43:43.627Z</time>
                <name>Santiago del Estero</name>
            </trkpt>
            <trkpt lon="-58.38480234146118" lat="-34.61211570578882">
                <ele>29.0</ele>
                <time>2011-08-20T16:43:43.627Z</time>
                <name>Santiago del Estero</name>
            </trkpt>
            <trkpt lon="-58.38428735733032" lat="-34.61781086473161">
                <ele>32.0</ele>
                <time>2011-08-20T16:43:43.627Z</time>
                <name>Santiago del Estero</name>
            </trkpt>
            <trkpt lon="-58.3844268321991" lat="-34.62226959240814">
                <ele>29.0</ele>
                <time>2011-08-20T16:43:43.627Z</time>
                <name>Santiago del Estero</name>
            </trkpt>
            <trkpt lon="-58.38434100151062" lat="-34.628184762357506">
                <ele>0.0</ele>
                <name>Av. Brasil</name>
            </trkpt>
            <trkpt lon="-58.38284969329834" lat="-34.627866943050385">
                <ele>0.0</ele>
                <name>Av. Brasil</name>
            </trkpt>
            <trkpt lon="-58.37962031364441" lat="-34.627769831352595">
                <ele>0.0</ele>
                <name>Gral. Hornos</name>
            </trkpt>
            <trkpt lon="-58.378708362579346" lat="-34.63044477565281">
                <ele>0.0</ele>
                <name>Finochietto</name>
            </trkpt>
            <trkpt lon="-58.37952375411987" lat="-34.632228023938204">
                <ele>0.0</ele>
                <name>Herrera</name>
            </trkpt>
            <trkpt lon="-58.37709903717041" lat="-34.640375744929194">
                <ele>0.0</ele>
                <name>Suárez</name>
            </trkpt>
            <trkpt lon="-58.37584376335144" lat="-34.63955482988686">
                <ele>13.0</ele>
                <time>2011-08-20T16:45:19.165Z</time>
                <name>Suárez</name>
            </trkpt>
        </trkseg>
    </trk>
    <trk>
        <name>C 38 - Barracas por Alto San Isidro y Alto Tigre</name>
        <trkseg>
            <trkpt lon="-58.6110520362854" lat="-34.411043333966155">
                <ele>3.0</ele>
                <time>2011-08-20T17:00:13.478Z</time>
                <name>Santa Maria de Las Conchas</name>
            </trkpt>
            <trkpt lon="-58.600666522979736" lat="-34.41589372708865">
                <ele>0.0</ele>
                <name>Callao</name>
            </trkpt>
            <trkpt lon="-58.599668741226196" lat="-34.40827281898013">
                <ele>0.0</ele>
                <name>Callao</name>
            </trkpt>
            <trkpt lon="-58.59737277030945" lat="-34.40567925055254">
                <ele>0.0</ele>
                <name>Chubut</name>
            </trkpt>
            <trkpt lon="-58.5941219329834" lat="-34.407821384521746">
                <ele>0.0</ele>
                <name>Chubut</name>
            </trkpt>
            <trkpt lon="-58.59332799911499" lat="-34.40851181270712">
                <ele>0.0</ele>
                <name>Yagán Yagán</name>
            </trkpt>
            <trkpt lon="-58.594218492507935" lat="-34.40911371980904">
                <ele>0.0</ele>
                <name>Galarza</name>
            </trkpt>
            <trkpt lon="-58.59263062477112" lat="-34.410521103335356">
                <ele>0.0</ele>
                <name>Liniers</name>
            </trkpt>
            <trkpt lon="-58.58955144882202" lat="-34.417239041771325">
                <ele>0.0</ele>
                <name>Liniers</name>
            </trkpt>
            <trkpt lon="-58.587727" lat="-34.41901">
                <ele>0.0</ele>
                <name>Av. San Martín</name>
            </trkpt>
            <trkpt lon="-58.58630061149597" lat="-34.41923042180211">
                <ele>0.0</ele>
                <name>Av. San Martín</name>
            </trkpt>
            <trkpt lon="-58.58087182044983" lat="-34.422743985573426">
                <ele>0.0</ele>
                <name>Av. Cazón</name>
            </trkpt>
            <trkpt lon="-58.5746169090271" lat="-34.42739900890164">
                <ele>0.0</ele>
                <name>Av. Cazón</name>
            </trkpt>
            <trkpt lon="-58.570979833602905" lat="-34.430372424251956">
                <ele>6.0</ele>
                <time>2011-08-20T16:55:54.766Z</time>
                <name>Av. Cazón</name>
            </trkpt>
            <trkpt lon="-58.56606602668762" lat="-34.43485004659089">
                <ele>0.0</ele>
                <name>Colón</name>
            </trkpt>
            <trkpt lon="-58.56441378593445" lat="-34.43376163477139">
                <ele>0.0</ele>
                <name>Av. J.D. Perón</name>
            </trkpt>
            <trkpt lon="-58.555015325546265" lat="-34.44112362372802">
                <ele>0.0</ele>
                <name>Av. J.D. Perón</name>
            </trkpt>
            <trkpt lon="-58.54693651199341" lat="-34.44733479737564">
                <ele>0.0</ele>
                <name>Av. J.D. Perón</name>
            </trkpt>
            <trkpt lon="-58.54295611381531" lat="-34.450325197758715">
                <ele>15.0</ele>
                <time>2011-08-20T16:54:23.959Z</time>
                <name>Av. J.D. Perón</name>
            </trkpt>
            <trkpt lon="-58.54016661643982" lat="-34.451811510779">
                <ele>17.0</ele>
                <time>2011-08-20T16:54:23.959Z</time>
                <name>Av. J.D. Perón</name>
            </trkpt>
            <trkpt lon="-58.5390830039978" lat="-34.45273159605992">
                <ele>0.0</ele>
                <name>Av. J.D. Perón</name>
            </trkpt>
            <trkpt lon="-58.53638470172882" lat="-34.455257354986216">
                <ele>0.0</ele>
                <name>Av. Centenario</name>
            </trkpt>
            <trkpt lon="-58.52792501449585" lat="-34.460374989547596">
                <ele>0.0</ele>
                <name>Av. Centenario</name>
            </trkpt>
            <trkpt lon="-58.52224946022034" lat="-34.46522252001821">
                <ele>0.0</ele>
                <name>Av. Centenario</name>
            </trkpt>
            <trkpt lon="-58.519030809402466" lat="-34.4672923651518">
                <ele>0.0</ele>
                <name>Av. Centenario</name>
            </trkpt>
            <trkpt lon="-58.51263642311096" lat="-34.474359526430774">
                <ele>24.0</ele>
                <time>2011-08-20T16:52:17.169Z</time>
                <name>Av. Santa Fe</name>
            </trkpt>
            <trkpt lon="-58.506585359573364" lat="-34.480727419447334">
                <ele>0.0</ele>
                <name>Av. Santa Fe</name>
            </trkpt>
            <trkpt lon="-58.50268006324768" lat="-34.48554723750784">
                <ele>0.0</ele>
                <name>Av. Santa Fe</name>
            </trkpt>
            <trkpt lon="-58.49817395210266" lat="-34.49404535746603">
                <ele>0.0</ele>
                <name>Av. Santa Fe</name>
            </trkpt>
            <trkpt lon="-58.497562408447266" lat="-34.497785670649534">
                <ele>0.0</ele>
                <name>Av. Maipú</name>
            </trkpt>
            <trkpt lon="-58.486586809158325" lat="-34.51854445273207">
                <ele>22.0</ele>
                <time>2011-08-20T16:50:57.290Z</time>
                <name>Av. Maipú</name>
            </trkpt>
            <trkpt lon="-58.48052501678467" lat="-34.52961133173244">
                <ele>34.0</ele>
                <time>2011-08-20T16:50:57.290Z</time>
                <name>Av. Maipú</name>
            </trkpt>
            <trkpt lon="-58.47626566886902" lat="-34.53810495933116">
                <ele>0.0</ele>
                <name>Av. Cabildo</name>
            </trkpt>
            <trkpt lon="-58.468862771987915" lat="-34.54809999169801">
                <ele>0.0</ele>
                <name>Av. Cabildo</name>
            </trkpt>
            <trkpt lon="-58.46250057220459" lat="-34.5554518928982">
                <ele>0.0</ele>
                <name>Av. Cabildo</name>
            </trkpt>
            <trkpt lon="-58.45430374145508" lat="-34.56487940193001">
                <ele>0.0</ele>
                <name>Av. Cabildo</name>
            </trkpt>
            <trkpt lon="-58.43844652175903" lat="-34.57338709855965">
                <ele>0.0</ele>
                <name>:ign:Viaducto Carranza</name>
            </trkpt>
            <trkpt lon="-58.431644439697266" lat="-34.576646826395816">
                <ele>0.0</ele>
                <name>Av. Santa Fe</name>
            </trkpt>
            <trkpt lon="-58.42587232589722" lat="-34.57831639359166">
                <ele>0.0</ele>
                <name>Av. Santa Fe</name>
            </trkpt>
            <trkpt lon="-58.4217095375061" lat="-34.58116076417304">
                <ele>0.0</ele>
                <name>Av. Santa Fe</name>
            </trkpt>
            <trkpt lon="-58.42078685760498" lat="-34.58184092532557">
                <ele>0.0</ele>
                <name>Plaza Italia</name>
            </trkpt>
            <trkpt lon="-58.42008948326111" lat="-34.581425762686536">
                <ele>0.0</ele>
                <name>Av. Las Heras</name>
            </trkpt>
            <trkpt lon="-58.411173820495605" lat="-34.581982256814634">
                <ele>0.0</ele>
                <name>Av. Las Heras</name>
            </trkpt>
            <trkpt lon="-58.40615272521973" lat="-34.58346622293939">
                <ele>0.0</ele>
                <name>Av. Las Heras</name>
            </trkpt>
            <trkpt lon="-58.40200066566467" lat="-34.58345738988609">
                <ele>0.0</ele>
                <name>Av. Las Heras</name>
            </trkpt>
            <trkpt lon="-58.39190483093262" lat="-34.59176887781177">
                <ele>0.0</ele>
                <name>Av. Callao</name>
            </trkpt>
            <trkpt lon="-58.39000582695007" lat="-34.590037754401386">
                <ele>0.0</ele>
                <name>Guido</name>
            </trkpt>
            <trkpt lon="-58.38606834411621" lat="-34.59318201303856">
                <ele>0.0</ele>
                <name>Talcahuano</name>
            </trkpt>
            <trkpt lon="-58.385714292526245" lat="-34.595672605358075">
                <ele>42.0</ele>
                <time>2011-08-20T16:43:28.187Z</time>
                <name>Talcahuano</name>
            </trkpt>
            <trkpt lon="-58.38504910469055" lat="-34.60519269191887">
                <ele>0.0</ele>
                <name>Talcahuano</name>
            </trkpt>
            <trkpt lon="-58.38488817214966" lat="-34.60868959250213">
                <ele>35.0</ele>
                <time>2011-08-20T16:43:43.627Z</time>
                <name>Santiago del Estero</name>
            </trkpt>
            <trkpt lon="-58.38480234146118" lat="-34.61211570578882">
                <ele>29.0</ele>
                <time>2011-08-20T16:43:43.627Z</time>
                <name>Santiago del Estero</name>
            </trkpt>
            <trkpt lon="-58.38428735733032" lat="-34.61781086473161">
                <ele>32.0</ele>
                <time>2011-08-20T16:43:43.627Z</time>
                <name>Santiago del Estero</name>
            </trkpt>
            <trkpt lon="-58.3844268321991" lat="-34.62226959240814">
                <ele>29.0</ele>
                <time>2011-08-20T16:43:43.627Z</time>
                <name>Santiago del Estero</name>
            </trkpt>
            <trkpt lon="-58.38434100151062" lat="-34.628184762357506">
                <ele>0.0</ele>
                <name>Av. Brasil</name>
            </trkpt>
            <trkpt lon="-58.38284969329834" lat="-34.627866943050385">
                <ele>0.0</ele>
                <name>Av. Brasil</name>
            </trkpt>
            <trkpt lon="-58.37962031364441" lat="-34.627769831352595">
                <ele>0.0</ele>
                <name>Gral. Hornos</name>
            </trkpt>
            <trkpt lon="-58.378708362579346" lat="-34.63044477565281">
                <ele>0.0</ele>
                <name>Finochietto</name>
            </trkpt>
            <trkpt lon="-58.37952375411987" lat="-34.632228023938204">
                <ele>0.0</ele>
                <name>Herrera</name>
            </trkpt>
            <trkpt lon="-58.37709903717041" lat="-34.640375744929194">
                <ele>0.0</ele>
                <name>Suárez</name>
            </trkpt>
            <trkpt lon="-58.37584376335144" lat="-34.63955482988686">
                <ele>13.0</ele>
                <time>2011-08-20T16:45:19.165Z</time>
                <name>Suárez</name>
            </trkpt>
        </trkseg>
    </trk>
    <trk>
        <name>D 38 - Rincón de Milberg por Acceso Norte</name>
        <trkseg>
            <trkpt lon="-58.37587594985962" lat="-34.63953717571067">
                <ele>0.0</ele>
                <name>Av. Suárez</name>
            </trkpt>
            <trkpt lon="-58.37455630302429" lat="-34.63864563492624">
                <ele>0.0</ele>
                <name>Av. Montes de Oca</name>
            </trkpt>
            <trkpt lon="-58.37537169456482" lat="-34.63437316786456">
                <ele>0.0</ele>
                <name>Av. Montes de Oca</name>
            </trkpt>
            <trkpt lon="-58.37718486785889" lat="-34.629773840631294">
                <ele>0.0</ele>
                <name>Av. Montes de Oca</name>
            </trkpt>
            <trkpt lon="-58.378440141677856" lat="-34.62748732394911">
                <ele>0.0</ele>
                <name>Bernardo de Irigoyen</name>
            </trkpt>
            <trkpt lon="-58.379074" lat="-34.625961">
                <ele>0.0</ele>
                <name>Av. Juan de Garay</name>
            </trkpt>
            <trkpt lon="-58.380242586135864" lat="-34.62639259867494">
                <ele>0.0</ele>
                <name>Lima Este</name>
            </trkpt>
            <trkpt lon="-58.37987780570984" lat="-34.6273019279428">
                <ele>0.0</ele>
                <name>Av. Brasil Norte</name>
            </trkpt>
            <trkpt lon="-58.382205963134766" lat="-34.627363726657606">
                <ele>0.0</ele>
                <name>Lima Oeste</name>
            </trkpt>
            <trkpt lon="-58.38227033615112" lat="-34.62465336833649">
                <ele>0.0</ele>
                <name>Constitución</name>
            </trkpt>
            <trkpt lon="-58.382935523986816" lat="-34.62469751168937">
                <ele>0.0</ele>
                <name>Salta</name>
            </trkpt>
            <trkpt lon="-58.382967710494995" lat="-34.61858784837255">
                <ele>31.0</ele>
                <time>2011-08-20T16:30:44.035Z</time>
                <name>Salta</name>
            </trkpt>
            <trkpt lon="-58.383471965789795" lat="-34.608592458363425">
                <ele>0.0</ele>
                <name>Libertad</name>
            </trkpt>
            <trkpt lon="-58.383986949920654" lat="-34.599134581275855">
                <ele>25.0</ele>
                <time>2011-08-20T16:31:20.645Z</time>
                <name>Libertad</name>
            </trkpt>
            <trkpt lon="-58.384501934051514" lat="-34.592837563542474">
                <ele>0.0</ele>
                <name>Juncal</name>
            </trkpt>
            <trkpt lon="-58.38864326477051" lat="-34.592837563542474">
                <ele>0.0</ele>
                <name>Vicente López</name>
            </trkpt>
            <trkpt lon="-58.39300990104675" lat="-34.58919867650491">
                <ele>0.0</ele>
                <name>Junin</name>
            </trkpt>
            <trkpt lon="-58.393975496292114" lat="-34.59007308381113">
                <ele>42.0</ele>
                <time>2011-08-20T16:32:19.905Z</time>
                <name>Av. Las Heras</name>
            </trkpt>
            <trkpt lon="-58.40188264846802" lat="-34.58334256010772">
                <ele>0.0</ele>
                <name>Av. Las Heras</name>
            </trkpt>
            <trkpt lon="-58.40610980987549" lat="-34.58340439154656">
                <ele>0.0</ele>
                <name>Av. Las Heras</name>
            </trkpt>
            <trkpt lon="-58.41100215911865" lat="-34.58190275788161">
                <ele>0.0</ele>
                <name>Av. Las Heras</name>
            </trkpt>
            <trkpt lon="-58.42007875442505" lat="-34.58132859666303">
                <ele>0.0</ele>
                <name>Plaza Italia</name>
            </trkpt>
            <trkpt lon="-58.420411348342896" lat="-34.580710264761024">
                <ele>0.0</ele>
                <name>Plaza Italia</name>
            </trkpt>
            <trkpt lon="-58.421666622161865" lat="-34.58076326481858">
                <ele>0.0</ele>
                <name>Av. Santa Fe</name>
            </trkpt>
            <trkpt lon="-58.42587232589722" lat="-34.57829872638948">
                <ele>0.0</ele>
                <name>Av. Santa Fe</name>
            </trkpt>
            <trkpt lon="-58.43158006668091" lat="-34.576637992617776">
                <ele>0.0</ele>
                <name>:ign:Viaducto Carranza</name>
            </trkpt>
            <trkpt lon="-58.43705713748932" lat="-34.57416008081346">
                <ele>13.0</ele>
                <time>2011-08-20T16:34:42.633Z</time>
                <name>Av. Cabildo</name>
            </trkpt>
            <trkpt lon="-58.45425009727478" lat="-34.56484406181093">
                <ele>26.0</ele>
                <time>2011-08-20T16:35:05.389Z</time>
                <name>Av. Cabildo</name>
            </trkpt>
            <trkpt lon="-58.46250057220459" lat="-34.5554518928982">
                <ele>0.0</ele>
                <name>Av. Cabildo</name>
            </trkpt>
            <trkpt lon="-58.468862771987915" lat="-34.54809999169801">
                <ele>0.0</ele>
                <name>Av. Cabildo</name>
            </trkpt>
            <trkpt lon="-58.475391268730164" lat="-34.53929806341256">
                <ele>0.0</ele>
                <name>Lateral Av. Gral. Paz</name>
            </trkpt>
            <trkpt lon="-58.46997320652008" lat="-34.53685881014492">
                <ele>25.0</ele>
                <time>2011-08-18T17:35:40.629Z</time>
                <name>Grecia</name>
            </trkpt>
            <trkpt lon="-58.47020924091339" lat="-34.53617386204531">
                <ele>23.0</ele>
                <time>2011-08-18T17:35:40.629Z</time>
                <name>Zufriategui</name>
            </trkpt>
            <trkpt lon="-58.47523033618927" lat="-34.53805635102457">
                <ele>25.0</ele>
                <time>2011-08-18T17:35:40.629Z</time>
                <name>Au. Av. Gral. Paz</name>
            </trkpt>
            <trkpt lon="-58.47893178462982" lat="-34.54023485907703">
                <ele>24.0</ele>
                <time>2011-08-18T17:35:40.629Z</time>
                <name>Au. Av. Gral. Paz</name>
            </trkpt>
            <trkpt lon="-58.48374366760254" lat="-34.54224981779855">
                <ele>20.0</ele>
                <time>2011-08-18T17:35:40.629Z</time>
                <name>Au. Av. Gral. Paz</name>
            </trkpt>
            <trkpt lon="-58.49138259887695" lat="-34.545775878189616">
                <ele>16.0</ele>
                <time>2011-08-18T17:35:40.629Z</time>
                <name>Au. Av. Gral. Paz</name>
            </trkpt>
            <trkpt lon="-58.493592739105225" lat="-34.546049826502255">
                <ele>0.0</ele>
                <name>Au. Ing. Palazzo</name>
            </trkpt>
            <trkpt lon="-58.49500894546509" lat="-34.5444326347028">
                <ele>0.0</ele>
                <name>Au. Ing. Palazzo</name>
            </trkpt>
            <trkpt lon="-58.496548533439636" lat="-34.54226749265924">
                <ele>0.0</ele>
                <name>Au. Ing. Palazzo</name>
            </trkpt>
            <trkpt lon="-58.502089977264404" lat="-34.535599385100404">
                <ele>23.0</ele>
                <time>2011-08-18T17:39:39.793Z</time>
                <name>Au. Ing. Palazzo</name>
            </trkpt>
            <trkpt lon="-58.50287318229675" lat="-34.5339201220713">
                <ele>0.0</ele>
                <name>Lateral Au. Ing. Palazzo</name>
            </trkpt>
            <trkpt lon="-58.503586649894714" lat="-34.532872775085444">
                <ele>25.0</ele>
                <time>2011-08-18T17:37:46.076Z</time>
                <name>Lateral Au. Ing. Palazzo</name>
            </trkpt>
            <trkpt lon="-58.503795862197876" lat="-34.53251481803152">
                <ele>24.0</ele>
                <time>2011-08-18T17:37:46.076Z</time>
                <name>Au. Ing. Palazzo</name>
            </trkpt>
            <trkpt lon="-58.5052227973938" lat="-34.53075152563899">
                <ele>29.0</ele>
                <time>2011-08-18T17:37:46.076Z</time>
                <name>Au. Ing. Palazzo</name>
            </trkpt>
            <trkpt lon="-58.50746512413025" lat="-34.52776400769297">
                <ele>30.0</ele>
                <time>2011-08-18T17:37:46.076Z</time>
                <name>Latral Au. Ing. Palazzo</name>
            </trkpt>
            <trkpt lon="-58.5081946849823" lat="-34.52663703151536">
                <ele>29.0</ele>
                <time>2011-08-18T17:37:46.076Z</time>
                <name>Au. Ing. Palazzo</name>
            </trkpt>
            <trkpt lon="-58.510576486587524" lat="-34.52349025651004">
                <ele>0.0</ele>
                <name>Lateral Au. Ing. Palazzo</name>
            </trkpt>
            <trkpt lon="-58.511525988578796" lat="-34.522093616027966">
                <ele>28.0</ele>
                <time>2011-08-18T17:41:33.338Z</time>
                <name>Au. Ing. Palazzo</name>
            </trkpt>
            <trkpt lon="-58.51409554481506" lat="-34.51939308336519">
                <ele>0.0</ele>
                <name>Lateral Au. Ing. Palazzo</name>
            </trkpt>
            <trkpt lon="-58.5148948431015" lat="-34.51859307242888">
                <ele>27.0</ele>
                <time>2011-08-18T17:41:59.068Z</time>
                <name>Au. Ing. Palazzo</name>
            </trkpt>
            <trkpt lon="-58.519046902656555" lat="-34.514698986842895">
                <ele>0.0</ele>
                <name>Lateral Au. Ing. Palazzo</name>
            </trkpt>
            <trkpt lon="-58.52091372013092" lat="-34.51282039012556">
                <ele>28.0</ele>
                <time>2011-08-18T17:43:12.151Z</time>
                <name>Lateral Au. Ing. Palazzo</name>
            </trkpt>
            <trkpt lon="-58.52248549461365" lat="-34.51193632995603">
                <ele>0.0</ele>
                <name>Au. Ing. Palazzo</name>
            </trkpt>
            <trkpt lon="-58.52488338947296" lat="-34.51053065497389">
                <ele>0.0</ele>
                <name>Lateral Au. Ing. Palazzo</name>
            </trkpt>
            <trkpt lon="-58.52642834186554" lat="-34.509580263799265">
                <ele>28.0</ele>
                <time>2011-08-18T17:43:44.745Z</time>
                <name>Au. Ing. Palazzo</name>
            </trkpt>
            <trkpt lon="-58.52995812892914" lat="-34.507997727933386">
                <ele>26.0</ele>
                <time>2011-08-18T17:43:44.745Z</time>
                <name>Lateral Au. Ing. Palazzo</name>
            </trkpt>
            <trkpt lon="-58.53073060512543" lat="-34.50756893510833">
                <ele>26.0</ele>
                <time>2011-08-18T17:43:44.745Z</time>
                <name>Au. Ing. Palazzo</name>
            </trkpt>
            <trkpt lon="-58.53665292263031" lat="-34.50473973127499">
                <ele>29.0</ele>
                <time>2011-08-18T17:43:44.745Z</time>
                <name>Lateral Au. Ing. Palazzo</name>
            </trkpt>
            <trkpt lon="-58.53807985782623" lat="-34.5040456775405">
                <ele>29.0</ele>
                <time>2011-08-18T17:43:44.745Z</time>
                <name>Au. Ing. Palazzo</name>
            </trkpt>
            <trkpt lon="-58.54307413101196" lat="-34.50160981265125">
                <ele>0.0</ele>
                <name>Lateral Au. Ing. Palazzo</name>
            </trkpt>
            <trkpt lon="-58.54641616344452" lat="-34.499783972514656">
                <ele>27.0</ele>
                <time>2011-08-18T17:45:22.609Z</time>
                <name>Lateral Au. Ing. Palazzo</name>
            </trkpt>
            <trkpt lon="-58.55086863040924" lat="-34.4976176696375">
                <ele>0.0</ele>
                <name>Lateral Au. Ing. Palazzo</name>
            </trkpt>
            <trkpt lon="-58.55419993400574" lat="-34.49471738827526">
                <ele>17.0</ele>
                <time>2011-08-20T18:06:57.758Z</time>
                <name>Lateral Au. Ing. Palazzo</name>
            </trkpt>
            <trkpt lon="-58.555487394332886" lat="-34.494487483607934">
                <ele>19.0</ele>
                <time>2011-08-20T18:06:57.758Z</time>
                <name>Lateral Au. Ing. Palazzo</name>
            </trkpt>
            <trkpt lon="-58.557536602020264" lat="-34.492038075300755">
                <ele>0.0</ele>
                <name>Au. Pascual Palazzo Ramal Tigre</name>
            </trkpt>
            <trkpt lon="-58.5602080821991" lat="-34.48483975871781">
                <ele>0.0</ele>
                <name>Au. Pascual Palazzo Ramal Tigre</name>
            </trkpt>
            <trkpt lon="-58.56292247772217" lat="-34.478379315461915">
                <ele>0.0</ele>
                <name>Au. Pascual Palazzo Ramal Tigre</name>
            </trkpt>
            <trkpt lon="-58.56593728065491" lat="-34.47282054603606">
                <ele>15.0</ele>
                <time>2011-07-18T20:25:32.011Z</time>
                <name>Au. Pascual Palazzo Ramal Tigre</name>
            </trkpt>
            <trkpt lon="-58.5660982131958" lat="-34.47159995519684">
                <ele>18.0</ele>
                <time>2011-07-18T20:25:32.011Z</time>
                <name>Colectora</name>
            </trkpt>
            <trkpt lon="-58.566516637802124" lat="-34.4709188931284">
                <ele>18.0</ele>
                <time>2011-07-18T20:25:32.011Z</time>
                <name>Au. Pascual Palazzo Ramal Tigre</name>
            </trkpt>
            <trkpt lon="-58.56762170791626" lat="-34.46985748661678">
                <ele>0.0</ele>
                <name>Au. Pascual Palazzo Ramal Tigre</name>
            </trkpt>
            <trkpt lon="-58.56944561004639" lat="-34.466597999749006">
                <ele>13.0</ele>
                <time>2011-07-18T20:25:56.511Z</time>
                <name>Au. Pascual Palazzo Ramal Tigre</name>
            </trkpt>
            <trkpt lon="-58.569477796554565" lat="-34.46579748214822">
                <ele>7.0</ele>
                <time>2011-07-18T20:25:56.511Z</time>
                <name>Colectora</name>
            </trkpt>
            <trkpt lon="-58.56987476348877" lat="-34.46515175517465">
                <ele>6.0</ele>
                <time>2011-07-18T20:25:56.511Z</time>
                <name>Au. Pascual Palazzo Ramal Tigre</name>
            </trkpt>
            <trkpt lon="-58.57067942619324" lat="-34.464081429600405">
                <ele>7.0</ele>
                <time>2011-07-18T20:25:56.511Z</time>
                <name>Au. Pascual Palazzo Ramal Tigre</name>
            </trkpt>
            <trkpt lon="-58.5715913772583" lat="-34.4619318913316">
                <ele>6.0</ele>
                <time>2011-07-18T20:25:56.511Z</time>
                <name>Au. Pascual Palazzo Ramal Tigre</name>
            </trkpt>
            <trkpt lon="-58.57139825820923" lat="-34.460604988229775">
                <ele>10.0</ele>
                <time>2011-07-18T20:25:56.511Z</time>
                <name>Colectora</name>
            </trkpt>
            <trkpt lon="-58.5716986656189" lat="-34.45986191328103">
                <ele>11.0</ele>
                <time>2011-07-18T20:25:56.511Z</time>
                <name>Au. Pascual Palazzo Ramal Tigre</name>
            </trkpt>
            <trkpt lon="-58.572717905044556" lat="-34.45899498414881">
                <ele>0.0</ele>
                <name>Au. Pascual Palazzo Ramal Tigre</name>
            </trkpt>
            <trkpt lon="-58.57434868812561" lat="-34.45452750254899">
                <ele>5.0</ele>
                <time>2011-07-18T20:27:12.482Z</time>
                <name>Au. Pascual Palazzo Ramal Tigre</name>
            </trkpt>
            <trkpt lon="-58.574219942092896" lat="-34.45295276889508">
                <ele>5.0</ele>
                <time>2011-07-18T20:27:12.482Z</time>
                <name>Colectora</name>
            </trkpt>
            <trkpt lon="-58.5746169090271" lat="-34.45208576802893">
                <ele>6.0</ele>
                <time>2011-07-18T20:27:12.482Z</time>
                <name>Au. Pascual Palazzo Ramal Tigre</name>
            </trkpt>
            <trkpt lon="-58.575679063797" lat="-34.450971039404074">
                <ele>7.0</ele>
                <time>2011-07-18T20:27:12.482Z</time>
                <name>Au. Pascual Palazzo Ramal Tigre</name>
            </trkpt>
            <trkpt lon="-58.576494455337524" lat="-34.44922814022973">
                <ele>0.0</ele>
                <name>Au. Pascual Palazzo Ramal Tigre</name>
            </trkpt>
            <trkpt lon="-58.578693866729736" lat="-34.44558297464235">
                <ele>5.0</ele>
                <time>2011-07-18T20:28:03.543Z</time>
                <name>Au. Pascual Palazzo Ramal Tigre</name>
            </trkpt>
            <trkpt lon="-58.57879042625427" lat="-34.4444416158239">
                <ele>7.0</ele>
                <time>2011-07-18T20:28:03.543Z</time>
                <name>Colectora</name>
            </trkpt>
            <trkpt lon="-58.57931613922119" lat="-34.44366300551205">
                <ele>7.0</ele>
                <time>2011-07-18T20:28:03.543Z</time>
                <name>Au. Pascual Palazzo Ramal Tigre</name>
            </trkpt>
            <trkpt lon="-58.5806679725647" lat="-34.44295517165867">
                <ele>0.0</ele>
                <name>Au. Pascual Palazzo Ramal Tigre</name>
            </trkpt>
            <trkpt lon="-58.58105421066284" lat="-34.44253046846796">
                <ele>7.0</ele>
                <time>2011-07-18T20:28:22.375Z</time>
                <name>Au. Pascual Palazzo Ramal Tigre</name>
            </trkpt>
            <trkpt lon="-58.5815155506134" lat="-34.441026293970495">
                <ele>7.0</ele>
                <time>2011-07-18T20:28:22.375Z</time>
                <name>Colectora</name>
            </trkpt>
            <trkpt lon="-58.58331799507141" lat="-34.440008748807536">
                <ele>7.0</ele>
                <time>2011-07-18T20:28:22.375Z</time>
                <name>Au. Pascual Palazzo Ramal Tigre</name>
            </trkpt>
            <trkpt lon="-58.585195541381836" lat="-34.436814461310675">
                <ele>7.0</ele>
                <time>2011-07-18T20:28:22.375Z</time>
                <name>Au. Pascual Palazzo Ramal Tigre</name>
            </trkpt>
            <trkpt lon="-58.588500022888184" lat="-34.43435451126008">
                <ele>0.0</ele>
                <name>Au. Pascual Palazzo Ramal Tigre</name>
            </trkpt>
            <trkpt lon="-58.591450452804565" lat="-34.43075294298688">
                <ele>0.0</ele>
                <name>Liniers</name>
            </trkpt>
            <trkpt lon="-58.59182596206665" lat="-34.42884148253425">
                <ele>4.0</ele>
                <time>2011-07-18T20:31:08.257Z</time>
                <name>Liniers</name>
            </trkpt>
            <trkpt lon="-58.59138607978821" lat="-34.42731051277635">
                <ele>6.0</ele>
                <time>2011-08-04T07:33:46.715Z</time>
                <name>Liniers</name>
            </trkpt>
            <trkpt lon="-58.58942270278931" lat="-34.42408034008732">
                <ele>7.0</ele>
                <time>2011-08-12T13:05:05.944Z</time>
                <name>25 de Mayo</name>
            </trkpt>
            <trkpt lon="-58.58829617500305" lat="-34.42461133595081">
                <ele>11.0</ele>
                <time>2011-08-16T15:50:45.559Z</time>
                <name>Estrada</name>
            </trkpt>
            <trkpt lon="-58.587244749069214" lat="-34.423695365977366">
                <ele>10.0</ele>
                <time>2011-08-18T17:13:35.366Z</time>
                <name>Sargento Díaz</name>
            </trkpt>
            <trkpt lon="-58.58867704868317" lat="-34.42263335924245">
                <ele>8.0</ele>
                <time>2011-08-19T17:55:00.270Z</time>
                <name>Liniers</name>
            </trkpt>
            <trkpt lon="-58.58939051628113" lat="-34.423823690877654">
                <ele>5.0</ele>
                <time>2011-08-20T18:36:25.174Z</time>
                <name>Santa Maria de Las Conchas</name>
            </trkpt>
            <trkpt lon="-58.590243458747864" lat="-34.42353164081863">
                <ele>4.0</ele>
                <time>2011-08-24T04:05:37.273Z</time>
                <name>Santa Maria de Las Conchas</name>
            </trkpt>
            <trkpt lon="-58.59657883644104" lat="-34.417761230455575">
                <ele>5.0</ele>
                <time>2011-08-27T13:34:49.373Z</time>
                <name>Santa Maria de Las Conchas</name>
            </trkpt>
            <trkpt lon="-58.61104130744934" lat="-34.41100792860269">
                <ele>4.0</ele>
                <time>2011-08-30T10:07:01.112Z</time>
                <name>Santa Maria de Las Conchas</name>
            </trkpt>
        </trkseg>
    </trk>
    <trk>
        <name>D 38 - Barracas por Acceso Norte</name>
        <trkseg>
            <trkpt lon="-58.61103057861328" lat="-34.411140698638405">
                <ele>4.0</ele>
                <time>2011-07-18T20:31:08.257Z</time>
                <name>Santa Maria de Las Conchas</name>
            </trkpt>
            <trkpt lon="-58.59665393829346" lat="-34.41784973668905">
                <ele>4.0</ele>
                <time>2011-07-18T20:31:08.257Z</time>
                <name>Santa Maria de Las Conchas</name>
            </trkpt>
            <trkpt lon="-58.589690923690796" lat="-34.42412458987142">
                <ele>5.0</ele>
                <time>2011-07-18T20:31:08.257Z</time>
                <name>Liniers</name>
            </trkpt>
            <trkpt lon="-58.59139680862427" lat="-34.42739015929333">
                <ele>6.0</ele>
                <time>2011-07-18T20:31:08.257Z</time>
                <name>Liniers</name>
            </trkpt>
            <trkpt lon="-58.592233657836914" lat="-34.42986801302619">
                <ele>10.0</ele>
                <time>2011-07-18T20:31:08.257Z</time>
                <name>Liniers</name>
            </trkpt>
            <trkpt lon="-58.59214782714844" lat="-34.43096532478333">
                <ele>4.0</ele>
                <time>2011-07-18T20:31:08.257Z</time>
                <name>Liniers</name>
            </trkpt>
            <trkpt lon="-58.5911500453949" lat="-34.431398935942056">
                <ele>3.0</ele>
                <time>2011-07-18T20:31:08.257Z</time>
                <name>Au. Pascual Palazzo Ramal Tigre</name>
            </trkpt>
            <trkpt lon="-58.58513116836548" lat="-34.438743436232556">
                <ele>7.0</ele>
                <time>2011-07-18T20:28:22.375Z</time>
                <name>Au. Pascual Palazzo Ramal Tigre</name>
            </trkpt>
            <trkpt lon="-58.583961725234985" lat="-34.4396371205282">
                <ele>5.0</ele>
                <time>2011-07-18T20:28:22.375Z</time>
                <name>Au. Pascual Palazzo Ramal Tigre</name>
            </trkpt>
            <trkpt lon="-58.58341455459595" lat="-34.44084933048452">
                <ele>7.0</ele>
                <time>2011-07-18T20:28:22.375Z</time>
                <name>Colectora</name>
            </trkpt>
            <trkpt lon="-58.582953214645386" lat="-34.44158372650142">
                <ele>8.0</ele>
                <time>2011-07-18T20:28:22.375Z</time>
                <name>Au. Pascual Palazzo Ramal Tigre</name>
            </trkpt>
            <trkpt lon="-58.58142971992493" lat="-34.442282723943">
                <ele>7.0</ele>
                <time>2011-07-18T20:28:22.375Z</time>
                <name>Au. Pascual Palazzo Ramal Tigre</name>
            </trkpt>
            <trkpt lon="-58.58036756515503" lat="-34.44354798291897">
                <ele>7.0</ele>
                <time>2011-07-18T20:28:03.543Z</time>
                <name>Au. Pascual Palazzo Ramal Tigre</name>
            </trkpt>
            <trkpt lon="-58.580474853515625" lat="-34.44454778939508">
                <ele>7.0</ele>
                <time>2011-07-18T20:28:03.543Z</time>
                <name>Colectora</name>
            </trkpt>
            <trkpt lon="-58.57989549636841" lat="-34.4452998483278">
                <ele>7.0</ele>
                <time>2011-07-18T20:28:03.543Z</time>
                <name>Au. Pascual Palazzo Ramal Tigre</name>
            </trkpt>
            <trkpt lon="-58.57866168022156" lat="-34.4459368811861">
                <ele>5.0</ele>
                <time>2011-07-18T20:28:03.543Z</time>
                <name>Au. Pascual Palazzo Ramal Tigre</name>
            </trkpt>
            <trkpt lon="-58.575679063797" lat="-34.450971039404074">
                <ele>7.0</ele>
                <time>2011-07-18T20:27:12.482Z</time>
                <name>Au. Pascual Palazzo Ramal Tigre</name>
            </trkpt>
            <trkpt lon="-58.57583999633789" lat="-34.45254581042573">
                <ele>6.0</ele>
                <time>2011-07-18T20:27:12.482Z</time>
                <name>Colectora</name>
            </trkpt>
            <trkpt lon="-58.57553958892822" lat="-34.45343934707059">
                <ele>5.0</ele>
                <time>2011-07-18T20:27:12.482Z</time>
                <name>Au. Pascual Palazzo Ramal Tigre</name>
            </trkpt>
            <trkpt lon="-58.57454180717468" lat="-34.454359414417326">
                <ele>5.0</ele>
                <time>2011-07-18T20:27:12.482Z</time>
                <name>Au. Pascual Palazzo Ramal Tigre</name>
            </trkpt>
            <trkpt lon="-58.572750091552734" lat="-34.45926037157388">
                <ele>0.0</ele>
                <name>Au. Pascual Palazzo Ramal Tigre</name>
            </trkpt>
            <trkpt lon="-58.572975397109985" lat="-34.460560757763176">
                <ele>11.0</ele>
                <time>2011-07-18T20:25:56.511Z</time>
                <name>Colectora</name>
            </trkpt>
            <trkpt lon="-58.572750091552734" lat="-34.46122421230173">
                <ele>10.0</ele>
                <time>2011-07-18T20:25:56.511Z</time>
                <name>Au. Pascual Palazzo Ramal Tigre</name>
            </trkpt>
            <trkpt lon="-58.57160210609436" lat="-34.46232111224106">
                <ele>6.0</ele>
                <time>2011-07-18T20:25:56.511Z</time>
                <name>Au. Pascual Palazzo Ramal Tigre</name>
            </trkpt>
            <trkpt lon="-58.57079744338989" lat="-34.464311418071496">
                <ele>7.0</ele>
                <time>2011-07-18T20:25:56.511Z</time>
                <name>Au. Pascual Palazzo Ramal Tigre</name>
            </trkpt>
            <trkpt lon="-58.57066869735718" lat="-34.46554096107182">
                <ele>7.0</ele>
                <time>2011-07-18T20:25:56.511Z</time>
                <name>Colectora</name>
            </trkpt>
            <trkpt lon="-58.57029318809509" lat="-34.46623975801486">
                <ele>10.0</ele>
                <time>2011-07-18T20:25:56.511Z</time>
                <name>Au. Pascual Palazzo Ramal Tigre</name>
            </trkpt>
            <trkpt lon="-58.56938123703003" lat="-34.46709776651321">
                <ele>13.0</ele>
                <time>2011-07-18T20:25:56.511Z</time>
                <name>Au. Pascual Palazzo Ramal Tigre</name>
            </trkpt>
            <trkpt lon="-58.567750453948975" lat="-34.469990163168944">
                <ele>0.0</ele>
                <name>Au. Pascual Palazzo Ramal Tigre</name>
            </trkpt>
            <trkpt lon="-58.56735348701477" lat="-34.47134345195339">
                <ele>18.0</ele>
                <time>2011-07-18T20:25:32.011Z</time>
                <name>Colectora</name>
            </trkpt>
            <trkpt lon="-58.56685996055603" lat="-34.472112959318615">
                <ele>14.0</ele>
                <time>2011-07-18T20:25:32.011Z</time>
                <name>Au. Pascual Palazzo Ramal Tigre</name>
            </trkpt>
            <trkpt lon="-58.565990924835205" lat="-34.472970907440605">
                <ele>15.0</ele>
                <time>2011-07-18T20:25:32.011Z</time>
                <name>Au. Pascual Palazzo Ramal Tigre</name>
            </trkpt>
            <trkpt lon="-58.56309413909912" lat="-34.4785075563687">
                <ele>0.0</ele>
                <name>Au. Pascual Palazzo Ramal Tigre</name>
            </trkpt>
            <trkpt lon="-58.56044411659241" lat="-34.48460098327181">
                <ele>0.0</ele>
                <name>Au. Pascual Palazzo Ramal Tigre</name>
            </trkpt>
            <trkpt lon="-58.55855584144592" lat="-34.49003516630328">
                <ele>0.0</ele>
                <name>Au. Pascual Palazzo Ramal Tigre</name>
            </trkpt>
            <trkpt lon="-58.558389544487" lat="-34.4913748657281">
                <ele>21.0</ele>
                <time>2011-08-20T18:13:48.621Z</time>
                <name>Lateral Au. Pascual Palazzo Ramal Tigre</name>
            </trkpt>
            <trkpt lon="-58.55807840824127" lat="-34.49241831307683">
                <ele>20.0</ele>
                <time>2011-08-20T18:13:48.621Z</time>
                <name>Lateral Au. Pascual Palazzo Ramal Tigre</name>
            </trkpt>
            <trkpt lon="-58.55853974819183" lat="-34.494659912167855">
                <ele>20.0</ele>
                <time>2011-08-20T18:13:48.621Z</time>
                <name>Lateral Au. Pascual Palazzo</name>
            </trkpt>
            <trkpt lon="-58.55620622634888" lat="-34.49656544507285">
                <ele>14.0</ele>
                <time>2011-08-20T18:08:34.207Z</time>
                <name>Lateral Au. Pascual Palazzo</name>
            </trkpt>
            <trkpt lon="-58.554039001464844" lat="-34.498254303262236">
                <ele>19.0</ele>
                <time>2011-08-20T18:08:34.207Z</time>
                <name>Lateral Au. Pascual Palazzo</name>
            </trkpt>
            <trkpt lon="-58.54456543922424" lat="-34.50150813253293">
                <ele>26.0</ele>
                <time>2011-07-18T20:23:26.440Z</time>
                <name>Au. Pascual Palazzo</name>
            </trkpt>
            <trkpt lon="-58.542993664741516" lat="-34.502237574113444">
                <ele>0.0</ele>
                <name>Au. Ing. Palazzo</name>
            </trkpt>
            <trkpt lon="-58.537741899490356" lat="-34.50487235235003">
                <ele>29.0</ele>
                <time>2011-08-18T17:43:44.745Z</time>
                <name>Lateral Au. Ing. Palazzo</name>
            </trkpt>
            <trkpt lon="-58.53671193122864" lat="-34.50541167588127">
                <ele>29.0</ele>
                <time>2011-08-18T17:43:44.745Z</time>
                <name>Au. Ing. Palazzo</name>
            </trkpt>
            <trkpt lon="-58.532516956329346" lat="-34.50738327155121">
                <ele>29.0</ele>
                <time>2011-08-18T17:43:44.745Z</time>
                <name>Lateral Au. Ing. Palazzo</name>
            </trkpt>
            <trkpt lon="-58.53165864944458" lat="-34.507745757159164">
                <ele>26.0</ele>
                <time>2011-08-18T17:43:44.745Z</time>
                <name>Au. Ing. Palazzo</name>
            </trkpt>
            <trkpt lon="-58.5268360376358" lat="-34.51026101020709">
                <ele>28.0</ele>
                <time>2011-08-18T17:43:44.745Z</time>
                <name>Lateral Au. Ing. Palazzo</name>
            </trkpt>
            <trkpt lon="-58.52608501911163" lat="-34.51058369974335">
                <ele>0.0</ele>
                <name>Au. Ing. Palazzo</name>
            </trkpt>
            <trkpt lon="-58.52416455745697" lat="-34.51172857445512">
                <ele>0.0</ele>
                <name>Lateral Au. Ing. Palazzo</name>
            </trkpt>
            <trkpt lon="-58.5226035118103" lat="-34.51326241669304">
                <ele>27.0</ele>
                <time>2011-08-18T17:43:12.151Z</time>
                <name>Lateral Au. Ing. Palazzo</name>
            </trkpt>
            <trkpt lon="-58.519776463508606" lat="-34.515030499513955">
                <ele>28.0</ele>
                <time>2011-08-18T17:43:12.151Z</time>
                <name>Au. Ing. Palazzo</name>
            </trkpt>
            <trkpt lon="-58.51536154747009" lat="-34.519083687781546">
                <ele>27.0</ele>
                <time>2011-08-18T17:41:59.068Z</time>
                <name>Lateral Au. Ing. Palazzo</name>
            </trkpt>
            <trkpt lon="-58.51466953754425" lat="-34.51970247779975">
                <ele>0.0</ele>
                <name>Au. Ing. Palazzo</name>
            </trkpt>
            <trkpt lon="-58.51164937019348" lat="-34.52304828420674">
                <ele>28.0</ele>
                <time>2011-08-18T17:41:33.338Z</time>
                <name>Lateral Au. Ing. Palazzo</name>
            </trkpt>
            <trkpt lon="-58.51113975048065" lat="-34.523680303879416">
                <ele>0.0</ele>
                <name>Au. Ing. Palazzo</name>
            </trkpt>
            <trkpt lon="-58.508559465408325" lat="-34.52729554101633">
                <ele>29.0</ele>
                <time>2011-08-18T17:37:46.076Z</time>
                <name>Latral Au. Ing. Palazzo</name>
            </trkpt>
            <trkpt lon="-58.50814640522003" lat="-34.52783029993438">
                <ele>30.0</ele>
                <time>2011-08-18T17:37:46.076Z</time>
                <name>Au. Ing. Palazzo</name>
            </trkpt>
            <trkpt lon="-58.50571095943451" lat="-34.5312464886767">
                <ele>29.0</ele>
                <time>2011-08-18T17:37:46.076Z</time>
                <name>Au. Ing. Palazzo</name>
            </trkpt>
            <trkpt lon="-58.50388169288635" lat="-34.53400408602716">
                <ele>24.0</ele>
                <time>2011-08-18T17:37:46.076Z</time>
                <name>Lateral Au. Ing. Palazzo</name>
            </trkpt>
            <trkpt lon="-58.50316822528839" lat="-34.53488791200476">
                <ele>25.0</ele>
                <time>2011-08-18T17:37:46.076Z</time>
                <name>Au. Ing. Palazzo</name>
            </trkpt>
            <trkpt lon="-58.49824905395508" lat="-34.54124234453489">
                <ele>0.0</ele>
                <name>Au. Ing. Palazzo</name>
            </trkpt>
            <trkpt lon="-58.49603891372681" lat="-34.54415868106688">
                <ele>0.0</ele>
                <name>Au. Av. Gral. Paz</name>
            </trkpt>
            <trkpt lon="-58.49419355392456" lat="-34.547817213294515">
                <ele>0.0</ele>
                <name>Au. Av. Gral. Paz</name>
            </trkpt>
            <trkpt lon="-58.49116802215576" lat="-34.54656237253624">
                <ele>16.0</ele>
                <time>2011-08-18T17:35:40.629Z</time>
                <name>Au. Av. Gral. Paz</name>
            </trkpt>
            <trkpt lon="-58.48576068878174" lat="-34.544008448045">
                <ele>20.0</ele>
                <time>2011-08-18T17:35:40.629Z</time>
                <name>Vedia</name>
            </trkpt>
            <trkpt lon="-58.481318950653076" lat="-34.54199353189673">
                <ele>21.0</ele>
                <time>2011-08-19T18:08:13.477Z</time>
                <name>Vedia</name>
            </trkpt>
            <trkpt lon="-58.47496747970581" lat="-34.540013917653354">
                <ele>20.0</ele>
                <time>2011-08-20T18:40:46.325Z</time>
                <name>Av. Cabildo</name>
            </trkpt>
            <trkpt lon="-58.468862771987915" lat="-34.54809999169801">
                <ele>0.0</ele>
                <name>Av. Cabildo</name>
            </trkpt>
            <trkpt lon="-58.46250057220459" lat="-34.5554518928982">
                <ele>0.0</ele>
                <name>Av. Cabildo</name>
            </trkpt>
            <trkpt lon="-58.45430374145508" lat="-34.56487940193001">
                <ele>0.0</ele>
                <name>Av. Cabildo</name>
            </trkpt>
            <trkpt lon="-58.43844652175903" lat="-34.57338709855965">
                <ele>0.0</ele>
                <name>:ign:Viaducto Carranza</name>
            </trkpt>
            <trkpt lon="-58.431644439697266" lat="-34.576646826395816">
                <ele>0.0</ele>
                <name>Av. Santa Fe</name>
            </trkpt>
            <trkpt lon="-58.42587232589722" lat="-34.57831639359166">
                <ele>0.0</ele>
                <name>Av. Santa Fe</name>
            </trkpt>
            <trkpt lon="-58.4217095375061" lat="-34.58116076417304">
                <ele>0.0</ele>
                <name>Av. Santa Fe</name>
            </trkpt>
            <trkpt lon="-58.42078685760498" lat="-34.58184092532557">
                <ele>0.0</ele>
                <name>Plaza Italia</name>
            </trkpt>
            <trkpt lon="-58.42008948326111" lat="-34.581425762686536">
                <ele>0.0</ele>
                <name>Av. Las Heras</name>
            </trkpt>
            <trkpt lon="-58.411173820495605" lat="-34.581982256814634">
                <ele>0.0</ele>
                <name>Av. Las Heras</name>
            </trkpt>
            <trkpt lon="-58.40615272521973" lat="-34.58346622293939">
                <ele>0.0</ele>
                <name>Av. Las Heras</name>
            </trkpt>
            <trkpt lon="-58.40200066566467" lat="-34.58345738988609">
                <ele>0.0</ele>
                <name>Av. Las Heras</name>
            </trkpt>
            <trkpt lon="-58.39190483093262" lat="-34.59176887781177">
                <ele>0.0</ele>
                <name>Av. Callao</name>
            </trkpt>
            <trkpt lon="-58.39000582695007" lat="-34.590037754401386">
                <ele>0.0</ele>
                <name>Guido</name>
            </trkpt>
            <trkpt lon="-58.38606834411621" lat="-34.59318201303856">
                <ele>0.0</ele>
                <name>Talcahuano</name>
            </trkpt>
            <trkpt lon="-58.385714292526245" lat="-34.595672605358075">
                <ele>42.0</ele>
                <time>2011-08-20T16:43:28.187Z</time>
                <name>Talcahuano</name>
            </trkpt>
            <trkpt lon="-58.38504910469055" lat="-34.60519269191887">
                <ele>0.0</ele>
                <name>Talcahuano</name>
            </trkpt>
            <trkpt lon="-58.38488817214966" lat="-34.60868959250213">
                <ele>35.0</ele>
                <time>2011-08-20T16:43:43.627Z</time>
                <name>Santiago del Estero</name>
            </trkpt>
            <trkpt lon="-58.38480234146118" lat="-34.61211570578882">
                <ele>29.0</ele>
                <time>2011-08-20T16:43:43.627Z</time>
                <name>Santiago del Estero</name>
            </trkpt>
            <trkpt lon="-58.38428735733032" lat="-34.61781086473161">
                <ele>32.0</ele>
                <time>2011-08-20T16:43:43.627Z</time>
                <name>Santiago del Estero</name>
            </trkpt>
            <trkpt lon="-58.3844268321991" lat="-34.62226959240814">
                <ele>29.0</ele>
                <time>2011-08-20T16:43:43.627Z</time>
                <name>Santiago del Estero</name>
            </trkpt>
            <trkpt lon="-58.38434100151062" lat="-34.628184762357506">
                <ele>0.0</ele>
                <name>Av. Brasil</name>
            </trkpt>
            <trkpt lon="-58.38284969329834" lat="-34.627866943050385">
                <ele>0.0</ele>
                <name>Av. Brasil</name>
            </trkpt>
            <trkpt lon="-58.37962031364441" lat="-34.627769831352595">
                <ele>0.0</ele>
                <name>Gral. Hornos</name>
            </trkpt>
            <trkpt lon="-58.378708362579346" lat="-34.63044477565281">
                <ele>0.0</ele>
                <name>Finochietto</name>
            </trkpt>
            <trkpt lon="-58.37952375411987" lat="-34.632228023938204">
                <ele>0.0</ele>
                <name>Herrera</name>
            </trkpt>
            <trkpt lon="-58.37709903717041" lat="-34.640375744929194">
                <ele>0.0</ele>
                <name>Suárez</name>
            </trkpt>
            <trkpt lon="-58.37584376335144" lat="-34.63955482988686">
                <ele>13.0</ele>
                <time>2011-08-20T16:45:19.165Z</time>
                <name>Suárez</name>
            </trkpt>
        </trkseg>
    </trk>
    <trk>
        <name>E 38 - Escobar por RN 27 y Larghi</name>
        <trkseg>
            <trkpt lon="-58.463380336761475" lat="-34.54868321912045">
                <ele>0.0</ele>
                <name>Azurduy</name>
            </trkpt>
            <trkpt lon="-58.466899394989014" lat="-34.5504328768617">
                <ele>13.0</ele>
                <time>2011-08-20T18:47:35.296Z</time>
                <name>Av. Cabildo</name>
            </trkpt>
            <trkpt lon="-58.468862771987915" lat="-34.54809999169801">
                <ele>0.0</ele>
                <name>Av. Cabildo</name>
            </trkpt>
