<?xml version="1.0" encoding="UTF-8" standalone="yes"?>
<gpx xmlns="http://www.topografix.com/GPX/1/1" xmlns:gpxtrx="http://www.garmin.com/xmlschemas/GpxExtensions/v3" xmlns:rcxx="http://www.routeconverter.de/xmlschemas/RouteCatalogExtensions/1.0" xmlns:xsi="http://www.w3.org/2001/XMLSchema-instance" xmlns:gpxtpx="http://www.garmin.com/xmlschemas/TrackPointExtension/v1" xmlns:gpxx="http://www.garmin.com/xmlschemas/WaypointExtension/v1" xmlns:nmea="http://trekbuddy.net/2009/01/gpx/nmea" creator="Generated by Christian Pesch's RouteConverter. See http://www.routeconverter.com" version="1.1">
    <trk>
        <name>A - Retiro</name>
        <trkseg>
            <trkpt lon="-58.39484453201294" lat="-34.65854854573116">
                <ele>0.0</ele>
                <name>Zepita</name>
            </trkpt>
            <trkpt lon="-58.39165806770325" lat="-34.65836321915825">
                <ele>0.0</ele>
                <name>Magaldi</name>
            </trkpt>
            <trkpt lon="-58.39202284812927" lat="-34.65397703596587">
                <ele>0.0</ele>
                <name>Santo Domingo</name>
            </trkpt>
            <trkpt lon="-58.395187854766846" lat="-34.65418884893883">
                <ele>0.0</ele>
                <name>Luna</name>
            </trkpt>
            <trkpt lon="-58.3954131603241" lat="-34.65149701880564">
                <ele>0.0</ele>
                <name>Iriarte</name>
            </trkpt>
            <trkpt lon="-58.38901877403259" lat="-34.65118811467463">
                <ele>0.0</ele>
                <name>Iriarte</name>
            </trkpt>
            <trkpt lon="-58.37710976600647" lat="-34.648999275285824">
                <ele>0.0</ele>
                <name>Vieytes</name>
            </trkpt>
            <trkpt lon="-58.37756037712097" lat="-34.647843050508094">
                <ele>0.0</ele>
                <name>California</name>
            </trkpt>
            <trkpt lon="-58.3719277381897" lat="-34.64638671391097">
                <ele>15.0</ele>
                <time>2011-08-21T14:55:50.497Z</time>
                <name>California</name>
            </trkpt>
            <trkpt lon="-58.36843013763428" lat="-34.645671775674614">
                <ele>0.0</ele>
                <name>Av. Patricios</name>
            </trkpt>
            <trkpt lon="-58.370468616485596" lat="-34.63172483399729">
                <ele>0.0</ele>
                <name>Liberti</name>
            </trkpt>
            <trkpt lon="-58.37138056755066" lat="-34.631830768975334">
                <ele>0.0</ele>
                <name>Guzmán</name>
            </trkpt>
            <trkpt lon="-58.37161660194397" lat="-34.63098328536315">
                <ele>0.0</ele>
                <name>Piedras</name>
            </trkpt>
            <trkpt lon="-58.373719453811646" lat="-34.62970321557655">
                <ele>0.0</ele>
                <name>Piedras</name>
            </trkpt>
            <trkpt lon="-58.376251459121704" lat="-34.62625134274876">
                <ele>0.0</ele>
                <name>Piedras</name>
            </trkpt>
            <trkpt lon="-58.37677717208862" lat="-34.62513011530484">
                <ele>0.0</ele>
                <name>Piedras</name>
            </trkpt>
            <trkpt lon="-58.37717413902283" lat="-34.62207535579687">
                <ele>33.0</ele>
                <time>2011-08-21T14:56:51.970Z</time>
                <name>Piedras</name>
            </trkpt>
            <trkpt lon="-58.37780714035034" lat="-34.60821275109452">
                <ele>42.0</ele>
                <time>2011-08-21T14:56:51.970Z</time>
                <name>Esmeralda</name>
            </trkpt>
            <trkpt lon="-58.378504514694214" lat="-34.595125034727076">
                <ele>0.0</ele>
                <name>Av. Santa Fe</name>
            </trkpt>
            <trkpt lon="-58.377753496170044" lat="-34.59506321200972">
                <ele>0.0</ele>
                <name>Av. Santa Fe</name>
            </trkpt>
            <trkpt lon="-58.37609052658081" lat="-34.59629082592594">
                <ele>0.0</ele>
                <name>Av. Santa Fe</name>
            </trkpt>
            <trkpt lon="-58.37553262710571" lat="-34.59614951877322">
                <ele>0.0</ele>
                <name>Florida</name>
            </trkpt>
            <trkpt lon="-58.37384819984436" lat="-34.59369426862224">
                <ele>17.0</ele>
                <time>2011-08-21T14:57:44.008Z</time>
                <name>San Martín</name>
            </trkpt>
            <trkpt lon="-58.37234616279602" lat="-34.591627562967055">
                <ele>0.0</ele>
                <name>Gilardo Gilardi</name>
            </trkpt>
            <trkpt lon="-58.373697996139526" lat="-34.59088565608882">
                <ele>0.0</ele>
                <name>Av. Dr. Jose Maria Ramos Mejia</name>
            </trkpt>
            <trkpt lon="-58.3722710609436" lat="-34.58926933602292">
                <ele>6.0</ele>
                <time>2011-08-21T14:58:18.553Z</time>
                <name>Av. Antartida Argentina</name>
            </trkpt>
            <trkpt lon="-58.370994329452515" lat="-34.58918101161601">
                <ele>6.0</ele>
                <time>2011-08-21T14:58:18.553Z</time>
                <name>Av. Antartida Argentina</name>
            </trkpt>
            <trkpt lon="-58.3723247051239" lat="-34.58592177534841">
                <ele>0.0</ele>
                <name>Luisoni</name>
            </trkpt>
            <trkpt lon="-58.37160587310791" lat="-34.58494132967098">
                <ele>0.0</ele>
                <name>Gendarmeria Nacional</name>
            </trkpt>
            <trkpt lon="-58.37655186653137" lat="-34.582388583506926">
                <ele>0.0</ele>
                <name>Calle 10</name>
            </trkpt>
            <trkpt lon="-58.377251" lat="-34.58326">
                <ele>0.0</ele>
                <name>Perette</name>
            </trkpt>
            <trkpt lon="-58.37554335594177" lat="-34.58426119389215">
                <ele>0.0</ele>
                <name>Terminal de Omnibus</name>
            </trkpt>
            <trkpt lon="-58.37384819984436" lat="-34.5858687785805">
                <ele>7.0</ele>
                <time>2011-08-21T14:59:20.012Z</time>
                <name>Terminal de Omnibus</name>
            </trkpt>
        </trkseg>
    </trk>
    <trk>
        <name>A - Luna y Zepita</name>
        <trkseg>
            <trkpt lon="-58.37532877922058" lat="-34.58503849147071">
                <ele>0.0</ele>
                <name>Terminal de Omnibus</name>
            </trkpt>
            <trkpt lon="-58.37241053581238" lat="-34.586222089728096">
                <ele>0.0</ele>
                <name>Av. Antártida Argentina</name>
            </trkpt>
            <trkpt lon="-58.371723890304565" lat="-34.588244767130334">
                <ele>0.0</ele>
                <name>Av. Dr. Jose Maria Ramos Mejia</name>
            </trkpt>
            <trkpt lon="-58.37563991546631" lat="-34.59287289176165">
                <ele>0.0</ele>
                <name>Juncal</name>
            </trkpt>
            <trkpt lon="-58.38284969329834" lat="-34.592837563542474">
                <ele>0.0</ele>
                <name>Cerrito</name>
            </trkpt>
            <trkpt lon="-58.381991386413574" lat="-34.60845117214064">
                <ele>0.0</ele>
                <name>Lima</name>
            </trkpt>
            <trkpt lon="-58.38178753852844" lat="-34.61313998024519">
                <ele>0.0</ele>
                <name>Av. Belgrano</name>
            </trkpt>
            <trkpt lon="-58.37905168533325" lat="-34.61292806242903">
                <ele>27.0</ele>
                <time>2011-08-21T15:01:45.944Z</time>
                <name>Tacuari</name>
            </trkpt>
            <trkpt lon="-58.37860107421875" lat="-34.62368220863179">
                <ele>25.0</ele>
                <time>2011-08-21T15:01:45.944Z</time>
                <name>Tacuari</name>
            </trkpt>
            <trkpt lon="-58.378086" lat="-34.625629">
                <ele>0.0</ele>
                <name>Tacuari</name>
            </trkpt>
            <trkpt lon="-58.37662696838379" lat="-34.627893428039144">
                <ele>0.0</ele>
                <name>Tacuari</name>
            </trkpt>
            <trkpt lon="-58.37433099746704" lat="-34.63043594759565">
                <ele>0.0</ele>
                <name>Tacuari</name>
            </trkpt>
            <trkpt lon="-58.37258219718933" lat="-34.631504135691856">
                <ele>0.0</ele>
                <name>Av. Martín García</name>
            </trkpt>
            <trkpt lon="-58.370736837387085" lat="-34.62954430898355">
                <ele>0.0</ele>
                <name>Av. Patricios</name>
            </trkpt>
            <trkpt lon="-58.370018005371094" lat="-34.63556489051995">
                <ele>0.0</ele>
                <name>Av. Patricios</name>
            </trkpt>
            <trkpt lon="-58.368204832077026" lat="-34.647322302784296">
                <ele>0.0</ele>
                <name>Iriarte</name>
            </trkpt>
            <trkpt lon="-58.38902950286865" lat="-34.651135159565165">
                <ele>0.0</ele>
                <name>Iriarte</name>
            </trkpt>
            <trkpt lon="-58.39226961135864" lat="-34.65131167646518">
                <ele>0.0</ele>
                <name>Magaldi</name>
            </trkpt>
            <trkpt lon="-58.39234471321106" lat="-34.64982009682922">
                <ele>0.0</ele>
                <name>California</name>
            </trkpt>
            <trkpt lon="-58.39559555053711" lat="-34.65000544250457">
                <ele>0.0</ele>
                <name>Luna</name>
            </trkpt>
            <trkpt lon="-58.394855260849" lat="-34.65852207053184">
                <ele>0.0</ele>
                <name>Luna</name>
            </trkpt>
        </trkseg>
    </trk>
    <trk>
        <name>B - Retiro</name>
        <trkseg>
            <trkpt lon="-58.404908180236816" lat="-34.674449787009294">
                <ele>0.0</ele>
                <name>Pres. Perón</name>
            </trkpt>
            <trkpt lon="-58.41762185096741" lat="-34.665008241553736">
                <ele>0.0</ele>
                <name>Av. Remedios de Escalada</name>
            </trkpt>
            <trkpt lon="-58.41699957847595" lat="-34.661822580182324">
                <ele>0.0</ele>
                <name>Av. Sáenz</name>
            </trkpt>
            <trkpt lon="-58.41662406921387" lat="-34.659413397591614">
                <ele>0.0</ele>
                <name>Av. Sáenz</name>
            </trkpt>
            <trkpt lon="-58.416430950164795" lat="-34.652388421415715">
                <ele>0.0</ele>
                <name>Traful</name>
            </trkpt>
            <trkpt lon="-58.41272950172424" lat="-34.651117507854494">
                <ele>6.0</ele>
                <time>2011-08-21T15:08:17.354Z</time>
                <name>Traful</name>
            </trkpt>
            <trkpt lon="-58.4108304977417" lat="-34.65066738796234">
                <ele>0.0</ele>
                <name>Traful</name>
            </trkpt>
            <trkpt lon="-58.407912254333496" lat="-34.65035848073982">
                <ele>0.0</ele>
                <name>Pepiri</name>
            </trkpt>
            <trkpt lon="-58.40558409690857" lat="-34.65721595019746">
                <ele>0.0</ele>
                <name>Osvaldo Cruz</name>
            </trkpt>
            <trkpt lon="-58.402719497680664" lat="-34.65587450788724">
                <ele>0.0</ele>
                <name>Iguazú</name>
            </trkpt>
            <trkpt lon="-58.403921127319336" lat="-34.65207952060646">
                <ele>0.0</ele>
                <name>Iguazú</name>
            </trkpt>
            <trkpt lon="-58.40458631515503" lat="-34.65045556599093">
                <ele>0.0</ele>
                <name>Iriarte</name>
            </trkpt>
            <trkpt lon="-58.4013569355011" lat="-34.65114398541908">
                <ele>0.0</ele>
                <name>Magaldi</name>
            </trkpt>
            <trkpt lon="-58.399178981781006" lat="-34.650976294033796">
                <ele>0.0</ele>
                <name>Iriarte</name>
            </trkpt>
            <trkpt lon="-58.39751601219177" lat="-34.651426412248625">
                <ele>0.0</ele>
                <name>Iriarte</name>
            </trkpt>
            <trkpt lon="-58.3954131603241" lat="-34.65149701880564">
                <ele>0.0</ele>
                <name>Iriarte</name>
            </trkpt>
            <trkpt lon="-58.38901877403259" lat="-34.65118811467463">
                <ele>0.0</ele>
                <name>Iriarte</name>
            </trkpt>
            <trkpt lon="-58.37710976600647" lat="-34.648999275285824">
                <ele>0.0</ele>
                <name>Vieytes</name>
            </trkpt>
            <trkpt lon="-58.37756037712097" lat="-34.647843050508094">
                <ele>0.0</ele>
                <name>California</name>
            </trkpt>
            <trkpt lon="-58.3719277381897" lat="-34.64638671391097">
                <ele>15.0</ele>
                <time>2011-08-21T14:55:50.497Z</time>
                <name>California</name>
            </trkpt>
            <trkpt lon="-58.36843013763428" lat="-34.645671775674614">
                <ele>0.0</ele>
                <name>Av. Patricios</name>
            </trkpt>
            <trkpt lon="-58.370468616485596" lat="-34.63172483399729">
                <ele>0.0</ele>
                <name>Liberti</name>
            </trkpt>
            <trkpt lon="-58.37138056755066" lat="-34.631830768975334">
                <ele>0.0</ele>
                <name>Guzmán</name>
            </trkpt>
            <trkpt lon="-58.37161660194397" lat="-34.63098328536315">
                <ele>0.0</ele>
                <name>Piedras</name>
            </trkpt>
            <trkpt lon="-58.373719453811646" lat="-34.62970321557655">
                <ele>0.0</ele>
                <name>Piedras</name>
            </trkpt>
            <trkpt lon="-58.376251459121704" lat="-34.62625134274876">
                <ele>0.0</ele>
                <name>Piedras</name>
            </trkpt>
            <trkpt lon="-58.37677717208862" lat="-34.62513011530484">
                <ele>0.0</ele>
                <name>Piedras</name>
            </trkpt>
            <trkpt lon="-58.37717413902283" lat="-34.62207535579687">
                <ele>33.0</ele>
                <time>2011-08-21T14:56:51.970Z</time>
                <name>Piedras</name>
            </trkpt>
            <trkpt lon="-58.37780714035034" lat="-34.60821275109452">
                <ele>42.0</ele>
                <time>2011-08-21T14:56:51.970Z</time>
                <name>Esmeralda</name>
            </trkpt>
            <trkpt lon="-58.378504514694214" lat="-34.595125034727076">
                <ele>0.0</ele>
                <name>Av. Santa Fe</name>
            </trkpt>
            <trkpt lon="-58.377753496170044" lat="-34.59506321200972">
                <ele>0.0</ele>
                <name>Av. Santa Fe</name>
            </trkpt>
            <trkpt lon="-58.37609052658081" lat="-34.59629082592594">
                <ele>0.0</ele>
                <name>Av. Santa Fe</name>
            </trkpt>
            <trkpt lon="-58.37553262710571" lat="-34.59614951877322">
                <ele>0.0</ele>
                <name>Florida</name>
            </trkpt>
            <trkpt lon="-58.37384819984436" lat="-34.59369426862224">
                <ele>17.0</ele>
                <time>2011-08-21T14:57:44.008Z</time>
                <name>San Martín</name>
            </trkpt>
            <trkpt lon="-58.37234616279602" lat="-34.591627562967055">
                <ele>0.0</ele>
                <name>Gilardo Gilardi</name>
            </trkpt>
            <trkpt lon="-58.373697996139526" lat="-34.59088565608882">
                <ele>0.0</ele>
                <name>Av. Dr. Jose Maria Ramos Mejia</name>
            </trkpt>
            <trkpt lon="-58.3722710609436" lat="-34.58926933602292">
                <ele>6.0</ele>
                <time>2011-08-21T14:58:18.553Z</time>
                <name>Av. Antartida Argentina</name>
            </trkpt>
            <trkpt lon="-58.370994329452515" lat="-34.58918101161601">
                <ele>6.0</ele>
                <time>2011-08-21T14:58:18.553Z</time>
                <name>Av. Antartida Argentina</name>
            </trkpt>
            <trkpt lon="-58.3723247051239" lat="-34.58592177534841">
                <ele>0.0</ele>
                <name>Luisoni</name>
            </trkpt>
            <trkpt lon="-58.37160587310791" lat="-34.58494132967098">
                <ele>0.0</ele>
                <name>Gendarmeria Nacional</name>
            </trkpt>
            <trkpt lon="-58.37655186653137" lat="-34.582388583506926">
                <ele>0.0</ele>
                <name>Calle 10</name>
            </trkpt>
            <trkpt lon="-58.377251" lat="-34.58326">
                <ele>0.0</ele>
                <name>Perette</name>
            </trkpt>
            <trkpt lon="-58.37554335594177" lat="-34.58426119389215">
                <ele>0.0</ele>
                <name>Terminal de Omnibus</name>
            </trkpt>
            <trkpt lon="-58.37384819984436" lat="-34.5858687785805">
                <ele>7.0</ele>
                <time>2011-08-21T14:59:20.012Z</time>
                <name>Terminal de Omnibus</name>
            </trkpt>
        </trkseg>
    </trk>
    <trk>
        <name>B - Puente Alsina</name>
        <trkseg>
            <trkpt lon="-58.37532877922058" lat="-34.58503849147071">
                <ele>0.0</ele>
                <name>Terminal de Omnibus</name>
            </trkpt>
            <trkpt lon="-58.37241053581238" lat="-34.586222089728096">
                <ele>0.0</ele>
                <name>Av. Antártida Argentina</name>
            </trkpt>
            <trkpt lon="-58.371723890304565" lat="-34.588244767130334">
                <ele>0.0</ele>
                <name>Av. Dr. Jose Maria Ramos Mejia</name>
            </trkpt>
            <trkpt lon="-58.37563991546631" lat="-34.59287289176165">
                <ele>0.0</ele>
                <name>Juncal</name>
            </trkpt>
            <trkpt lon="-58.38284969329834" lat="-34.592837563542474">
                <ele>0.0</ele>
                <name>Cerrito</name>
            </trkpt>
            <trkpt lon="-58.381991386413574" lat="-34.60845117214064">
                <ele>0.0</ele>
                <name>Lima</name>
            </trkpt>
            <trkpt lon="-58.38178753852844" lat="-34.61313998024519">
                <ele>0.0</ele>
                <name>Av. Belgrano</name>
            </trkpt>
            <trkpt lon="-58.37905168533325" lat="-34.61292806242903">
                <ele>27.0</ele>
                <time>2011-08-21T15:01:45.944Z</time>
                <name>Tacuari</name>
            </trkpt>
            <trkpt lon="-58.37860107421875" lat="-34.62368220863179">
                <ele>25.0</ele>
                <time>2011-08-21T15:01:45.944Z</time>
                <name>Tacuari</name>
            </trkpt>
            <trkpt lon="-58.378086" lat="-34.625629">
                <ele>0.0</ele>
                <name>Tacuari</name>
            </trkpt>
            <trkpt lon="-58.37662696838379" lat="-34.627893428039144">
                <ele>0.0</ele>
                <name>Tacuari</name>
            </trkpt>
            <trkpt lon="-58.37433099746704" lat="-34.63043594759565">
                <ele>0.0</ele>
                <name>Tacuari</name>
            </trkpt>
            <trkpt lon="-58.37258219718933" lat="-34.631504135691856">
                <ele>0.0</ele>
                <name>Av. Martín García</name>
            </trkpt>
            <trkpt lon="-58.370736837387085" lat="-34.62954430898355">
                <ele>0.0</ele>
                <name>Av. Patricios</name>
            </trkpt>
            <trkpt lon="-58.370018005371094" lat="-34.63556489051995">
                <ele>0.0</ele>
                <name>Av. Patricios</name>
            </trkpt>
            <trkpt lon="-58.368204832077026" lat="-34.647322302784296">
                <ele>0.0</ele>
                <name>Iriarte</name>
            </trkpt>
            <trkpt lon="-58.38902950286865" lat="-34.651135159565165">
                <ele>0.0</ele>
                <name>Iriarte</name>
            </trkpt>
            <trkpt lon="-58.39226961135864" lat="-34.65131167646518">
                <ele>0.0</ele>
                <name>Iriarte</name>
            </trkpt>
            <trkpt lon="-58.397462368011475" lat="-34.65144406389352">
                <ele>0.0</ele>
                <name>Iriarte</name>
            </trkpt>
            <trkpt lon="-58.399189710617065" lat="-34.650949816415626">
                <ele>0.0</ele>
                <name>Iriarte</name>
            </trkpt>
            <trkpt lon="-58.40134620666504" lat="-34.65107337856137">
                <ele>0.0</ele>
                <name>Iriarte</name>
            </trkpt>
            <trkpt lon="-58.404693603515625" lat="-34.650437914135544">
                <ele>0.0</ele>
                <name>Iguazú</name>
            </trkpt>
            <trkpt lon="-58.403964042663574" lat="-34.65207952060646">
                <ele>6.0</ele>
                <time>2011-08-21T15:14:35.704Z</time>
                <name>Iguazú</name>
            </trkpt>
            <trkpt lon="-58.40323448181152" lat="-34.65438301035522">
                <ele>0.0</ele>
                <name>Santo Domingo</name>
            </trkpt>
            <trkpt lon="-58.40476870536804" lat="-34.65491253917913">
                <ele>0.0</ele>
                <name>Elia</name>
            </trkpt>
            <trkpt lon="-58.40615272521973" lat="-34.65079977641963">
                <ele>0.0</ele>
                <name>Elia</name>
            </trkpt>
            <trkpt lon="-58.40681791305542" lat="-34.650076050271906">
                <ele>0.0</ele>
                <name>Traful</name>
            </trkpt>
            <trkpt lon="-58.41202139854431" lat="-34.65085273174334">
                <ele>0.0</ele>
                <name>Traful</name>
            </trkpt>
            <trkpt lon="-58.41372728347778" lat="-34.65154114787325">
                <ele>7.0</ele>
                <time>2011-08-21T15:17:00.439Z</time>
                <name>Traful</name>
            </trkpt>
            <trkpt lon="-58.41654896736145" lat="-34.65178827021771">
                <ele>0.0</ele>
                <name>Av. Sáenz</name>
            </trkpt>
            <trkpt lon="-58.416699171066284" lat="-34.65993406935911">
                <ele>0.0</ele>
                <name>Av. Remedios de Escalada</name>
            </trkpt>
            <trkpt lon="-58.417686223983765" lat="-34.66493764650689">
                <ele>0.0</ele>
                <name>Pres. Perón</name>
            </trkpt>
            <trkpt lon="-58.40562701225281" lat="-34.67396450016068">
                <ele>0.0</ele>
                <name>Pres. Perón</name>
            </trkpt>
        </trkseg>
    </trk>
</gpx>
