<?xml version="1.0" encoding="UTF-8" standalone="yes"?>
<gpx xmlns="http://www.topografix.com/GPX/1/1" xmlns:gpxtrx="http://www.garmin.com/xmlschemas/GpxExtensions/v3" xmlns:rcxx="http://www.routeconverter.de/xmlschemas/RouteCatalogExtensions/1.0" xmlns:xsi="http://www.w3.org/2001/XMLSchema-instance" xmlns:gpxtpx="http://www.garmin.com/xmlschemas/TrackPointExtension/v1" xmlns:gpxx="http://www.garmin.com/xmlschemas/WaypointExtension/v1" xmlns:nmea="http://trekbuddy.net/2009/01/gpx/nmea" creator="Generated by Christian Pesch's RouteConverter. See http://www.routeconverter.com" version="1.1">
    <trk>
        <name>A - Estación Lanús por Colombres</name>
        <trkseg>
            <trkpt lon="-58.37536096572876" lat="-34.58512682028096">
                <ele>0.0</ele>
                <name>Terminal de Omnibus</name>
            </trkpt>
            <trkpt lon="-58.37230324745178" lat="-34.586345748274866">
                <ele>0.0</ele>
                <name>Av. Antártida Argentina</name>
            </trkpt>
            <trkpt lon="-58.371734619140625" lat="-34.58818293929296">
                <ele>0.0</ele>
                <name>Av. Dr. José Maria Ramos Mejía</name>
            </trkpt>
            <trkpt lon="-58.37563991546631" lat="-34.59287289176165">
                <ele>0.0</ele>
                <name>Juncal</name>
            </trkpt>
            <trkpt lon="-58.38288187980652" lat="-34.592828731485326">
                <ele>0.0</ele>
                <name>Cerrito</name>
            </trkpt>
            <trkpt lon="-58.38237762451172" lat="-34.60135122987598">
                <ele>0.0</ele>
                <name>Tucumán</name>
            </trkpt>
            <trkpt lon="-58.39556336402893" lat="-34.60213719863793">
                <ele>41.0</ele>
                <time>2011-08-21T16:22:27.741Z</time>
                <name>Tucumán</name>
            </trkpt>
            <trkpt lon="-58.400917053222656" lat="-34.60222550926995">
                <ele>0.0</ele>
                <name>Tucumán</name>
            </trkpt>
            <trkpt lon="-58.4048330783844" lat="-34.60182811068638">
                <ele>0.0</ele>
                <name>Av. Pueyrredón</name>
            </trkpt>
            <trkpt lon="-58.406163454055786" lat="-34.60770941552662">
                <ele>0.0</ele>
                <name>Av. Pueyrredón</name>
            </trkpt>
            <trkpt lon="-58.40604543685913" lat="-34.61005828873802">
                <ele>0.0</ele>
                <name>Av. Rivadavia</name>
            </trkpt>
            <trkpt lon="-58.41034770011902" lat="-34.610411497007135">
                <ele>0.0</ele>
                <name>Gral. Urquiza</name>
            </trkpt>
            <trkpt lon="-58.40953230857849" lat="-34.61659239846609">
                <ele>30.0</ele>
                <time>2011-08-21T16:23:48.727Z</time>
                <name>Gral. Urquiza</name>
            </trkpt>
            <trkpt lon="-58.40924263000488" lat="-34.619956381414895">
                <ele>0.0</ele>
                <name>Av. Independencia</name>
            </trkpt>
            <trkpt lon="-58.41252565383911" lat="-34.62058325030489">
                <ele>32.0</ele>
                <time>2011-08-21T16:23:58.814Z</time>
                <name>Av. Independencia</name>
            </trkpt>
            <trkpt lon="-58.41662406921387" lat="-34.62083929398248">
                <ele>0.0</ele>
                <name>Av. Boedo</name>
            </trkpt>
            <trkpt lon="-58.415915966033936" lat="-34.62785811471891">
                <ele>0.0</ele>
                <name>Av. Boedo</name>
            </trkpt>
            <trkpt lon="-58.41622710227966" lat="-34.637145000082995">
                <ele>0.0</ele>
                <name>Av. Boedo</name>
            </trkpt>
            <trkpt lon="-58.41598033905029" lat="-34.63885748706988">
                <ele>0.0</ele>
                <name>Av. Sáenz</name>
            </trkpt>
            <trkpt lon="-58.41614127159119" lat="-34.639148782883744">
                <ele>11.0</ele>
                <time>2011-08-21T16:24:37.466Z</time>
                <name>Av. Sáenz</name>
            </trkpt>
            <trkpt lon="-58.41633439064026" lat="-34.648434404126554">
                <ele>11.0</ele>
                <time>2011-08-21T16:24:37.466Z</time>
                <name>Av. Sáenz</name>
            </trkpt>
            <trkpt lon="-58.4167206287384" lat="-34.659554597038294">
                <ele>0.0</ele>
                <name>Av. Remedios de Escalada</name>
            </trkpt>
            <trkpt lon="-58.41771841049194" lat="-34.66491117334882">
                <ele>0.0</ele>
                <name>Pres. Perón</name>
            </trkpt>
            <trkpt lon="-58.416398763656616" lat="-34.66594362024579">
                <ele>0.0</ele>
                <name>Habana</name>
            </trkpt>
            <trkpt lon="-58.41573357582092" lat="-34.6652817967921">
                <ele>0.0</ele>
                <name>Habana</name>
            </trkpt>
            <trkpt lon="-58.41613054275513" lat="-34.665158255828544">
                <ele>0.0</ele>
                <name>Habana</name>
            </trkpt>
            <trkpt lon="-58.41422080993652" lat="-34.66378164405813">
                <ele>0.0</ele>
                <name>Quindimil</name>
            </trkpt>
            <trkpt lon="-58.410905599594116" lat="-34.66633188754474">
                <ele>0.0</ele>
                <name>Yatay</name>
            </trkpt>
            <trkpt lon="-58.40929627418518" lat="-34.66481410503019">
                <ele>0.0</ele>
                <name>Brasil</name>
            </trkpt>
            <trkpt lon="-58.40251564979553" lat="-34.67076153564901">
                <ele>0.0</ele>
                <name>Farrell</name>
            </trkpt>
            <trkpt lon="-58.4108304977417" lat="-34.67847314663942">
                <ele>0.0</ele>
                <name>Callao</name>
            </trkpt>
            <trkpt lon="-58.411667346954346" lat="-34.67788200736433">
                <ele>0.0</ele>
                <name>Rucci</name>
            </trkpt>
            <trkpt lon="-58.412439823150635" lat="-34.678579021884914">
                <ele>0.0</ele>
                <name>Rucci</name>
            </trkpt>
            <trkpt lon="-58.41480016708374" lat="-34.67969952660269">
                <ele>0.0</ele>
                <name>Liniers</name>
            </trkpt>
            <trkpt lon="-58.41056227684021" lat="-34.685769398844926">
                <ele>0.0</ele>
                <name>Liniers</name>
            </trkpt>
            <trkpt lon="-58.40962886810303" lat="-34.68640459231249">
                <ele>0.0</ele>
                <name>Pilcomayo</name>
            </trkpt>
            <trkpt lon="-58.411710262298584" lat="-34.68855715615368">
                <ele>0.0</ele>
                <name>D Elia</name>
            </trkpt>
            <trkpt lon="-58.40855598449707" lat="-34.69064791252784">
                <ele>0.0</ele>
                <name>Plaul</name>
            </trkpt>
            <trkpt lon="-58.41532588005066" lat="-34.69751968905627">
                <ele>0.0</ele>
                <name>Moreno</name>
            </trkpt>
            <trkpt lon="-58.411678075790405" lat="-34.699936583929876">
                <ele>0.0</ele>
                <name>Moreno</name>
            </trkpt>
            <trkpt lon="-58.411656618118286" lat="-34.70018356191232">
                <ele>0.0</ele>
                <name>Moreno</name>
            </trkpt>
            <trkpt lon="-58.40732199999999" lat="-34.700722">
                <ele>0.0</ele>
                <name>Santiago del Estero</name>
            </trkpt>
            <trkpt lon="-58.40827703475952" lat="-34.705466950032225">
                <ele>0.0</ele>
                <name>25 de Mayo</name>
            </trkpt>
            <trkpt lon="-58.40487599372864" lat="-34.70589913212845">
                <ele>0.0</ele>
                <name>25 de Mayo</name>
            </trkpt>
            <trkpt lon="-58.39900732040405" lat="-34.707592558586214">
                <ele>0.0</ele>
                <name>25 de Mayo</name>
            </trkpt>
            <trkpt lon="-58.39164733886719" lat="-34.708227584570615">
                <ele>0.0</ele>
                <name>Estación Lanús</name>
            </trkpt>
            <trkpt lon="-58.39136838912964" lat="-34.70682081905703">
                <ele>16.0</ele>
                <time>2011-08-21T16:28:42.715Z</time>
                <name>Estación Lanús</name>
            </trkpt>
        </trkseg>
    </trk>
    <trk>
        <name>A - Retiro por Colombres</name>
        <trkseg>
            <trkpt lon="-58.39135766029358" lat="-34.70812174724509">
                <ele>0.0</ele>
                <name>Estación Lanús</name>
            </trkpt>
            <trkpt lon="-58.391443490982056" lat="-34.70676348954757">
                <ele>0.0</ele>
                <name>Pineiro</name>
            </trkpt>
            <trkpt lon="-58.39902877807617" lat="-34.70674584969051">
                <ele>0.0</ele>
                <name>20 de Septiembre</name>
            </trkpt>
            <trkpt lon="-58.39899659156799" lat="-34.70751758991911">
                <ele>0.0</ele>
                <name>25 de Mayo</name>
            </trkpt>
            <trkpt lon="-58.40475797653198" lat="-34.70581534189848">
                <ele>0.0</ele>
                <name>25 de Mayo</name>
            </trkpt>
            <trkpt lon="-58.406837" lat="-34.705475">
                <ele>0.0</ele>
                <name>Noya</name>
            </trkpt>
            <trkpt lon="-58.40610444545746" lat="-34.70202705285074">
                <ele>0.0</ele>
                <name>Tejedor</name>
            </trkpt>
            <trkpt lon="-58.41257929801941" lat="-34.701145004894734">
                <ele>0.0</ele>
                <name>Tejedor</name>
            </trkpt>
            <trkpt lon="-58.41448366641998" lat="-34.69948672928197">
                <ele>0.0</ele>
                <name>Tejedor</name>
            </trkpt>
            <trkpt lon="-58.41480553150177" lat="-34.69852526703142">
                <ele>0.0</ele>
                <name>Fernández</name>
            </trkpt>
            <trkpt lon="-58.40764939785004" lat="-34.69121690670337">
                <ele>0.0</ele>
                <name>D Elia</name>
            </trkpt>
            <trkpt lon="-58.413845" lat="-34.687031">
                <ele>0.0</ele>
                <name>Av. Rivadavia</name>
            </trkpt>
            <trkpt lon="-58.41161370277405" lat="-34.686219328054555">
                <ele>0.0</ele>
                <name>Ocampo</name>
            </trkpt>
            <trkpt lon="-58.415894508361816" lat="-34.68022007088059">
                <ele>0.0</ele>
                <name>Rucci</name>
            </trkpt>
            <trkpt lon="-58.412418365478516" lat="-34.67862313653059">
                <ele>0.0</ele>
                <name>Rucci</name>
            </trkpt>
            <trkpt lon="-58.40389966964722" lat="-34.67071741681579">
                <ele>0.0</ele>
                <name>Republica Argentina</name>
            </trkpt>
            <trkpt lon="-58.410701751708984" lat="-34.664893524572065">
                <ele>0.0</ele>
                <name>Luna</name>
            </trkpt>
            <trkpt lon="-58.41123819351196" lat="-34.664681738957874">
                <ele>7.0</ele>
                <time>2011-08-21T16:33:54.107Z</time>
                <name>Luna</name>
            </trkpt>
            <trkpt lon="-58.413963317871094" lat="-34.665246499392744">
                <ele>0.0</ele>
                <name>Palacios</name>
            </trkpt>
            <trkpt lon="-58.417095" lat="-34.662525">
                <ele>0.0</ele>
                <name>Av. Remedios de Escalada</name>
            </trkpt>
            <trkpt lon="-58.41657042503357" lat="-34.65899862282567">
                <ele>0.0</ele>
                <name>Av. Sáenz</name>
            </trkpt>
            <trkpt lon="-58.41630220413208" lat="-34.64835496881111">
                <ele>9.0</ele>
                <time>2011-08-21T16:38:05.408Z</time>
                <name>Av. Almafuerte</name>
            </trkpt>
            <trkpt lon="-58.41533660888672" lat="-34.64707516712684">
                <ele>11.0</ele>
                <time>2011-08-21T16:38:05.408Z</time>
                <name>Ochoa</name>
            </trkpt>
            <trkpt lon="-58.415958881378174" lat="-34.646254318406385">
                <ele>12.0</ele>
                <time>2011-08-21T16:38:05.408Z</time>
                <name>Dekay</name>
            </trkpt>
            <trkpt lon="-58.417396545410156" lat="-34.646324929368475">
                <ele>12.0</ele>
                <time>2011-08-21T16:38:05.408Z</time>
                <name>Quilmes</name>
            </trkpt>
            <trkpt lon="-58.41735363006592" lat="-34.64418892116129">
                <ele>11.0</ele>
                <time>2011-08-21T16:38:05.408Z</time>
                <name>Quilmes</name>
            </trkpt>
            <trkpt lon="-58.418641090393066" lat="-34.639307671078235">
                <ele>0.0</ele>
                <name>Castro</name>
            </trkpt>
            <trkpt lon="-58.419392108917236" lat="-34.636297570764185">
                <ele>0.0</ele>
                <name>Castro</name>
            </trkpt>
            <trkpt lon="-58.41925263404846" lat="-34.633137289248324">
                <ele>0.0</ele>
                <name>Inclan</name>
            </trkpt>
            <trkpt lon="-58.41660261154175" lat="-34.632810661109225">
                <ele>0.0</ele>
                <name>Colombres</name>
            </trkpt>
            <trkpt lon="-58.416409492492676" lat="-34.63024173010045">
                <ele>0.0</ele>
                <name>Colombres</name>
            </trkpt>
            <trkpt lon="-58.41747164726257" lat="-34.62714301675054">
                <ele>0.0</ele>
                <name>Colombres</name>
            </trkpt>
            <trkpt lon="-58.41797590255737" lat="-34.622596262047296">
                <ele>0.0</ele>
                <name>Estados Unidos</name>
            </trkpt>
            <trkpt lon="-58.413695096969604" lat="-34.6221548162837">
                <ele>29.0</ele>
                <time>2011-08-21T16:40:15.343Z</time>
                <name>Estados Unidos</name>
            </trkpt>
            <trkpt lon="-58.41073393821716" lat="-34.62155444627671">
                <ele>0.0</ele>
                <name>24 de Noviembre</name>
            </trkpt>
            <trkpt lon="-58.41103434562683" lat="-34.616689523244766">
                <ele>30.0</ele>
                <time>2011-08-21T16:40:33.287Z</time>
                <name>24 de Noviembre</name>
            </trkpt>
            <trkpt lon="-58.41179609298706" lat="-34.6092635646384">
                <ele>0.0</ele>
                <name>Av. Mitre</name>
            </trkpt>
            <trkpt lon="-58.405959606170654" lat="-34.60887503008774">
                <ele>0.0</ele>
                <name>Av. Pueyrredón</name>
            </trkpt>
            <trkpt lon="-58.40609908103943" lat="-34.60766526313826">
                <ele>27.0</ele>
                <time>2011-08-21T16:41:13.923Z</time>
                <name>Av. Pueyrredón</name>
            </trkpt>
            <trkpt lon="-58.40454339981079" lat="-34.60089200872979">
                <ele>0.0</ele>
                <name>Viamonte</name>
            </trkpt>
            <trkpt lon="-58.400959968566895" lat="-34.60115694431632">
                <ele>42.0</ele>
                <time>2011-08-21T16:41:33.882Z</time>
                <name>Viamonte</name>
            </trkpt>
            <trkpt lon="-58.383954763412476" lat="-34.6004504475408">
                <ele>0.0</ele>
                <name>Libertad</name>
            </trkpt>
            <trkpt lon="-58.3842658996582" lat="-34.59561078304824">
                <ele>0.0</ele>
                <name>Av. Santa Fe</name>
            </trkpt>
            <trkpt lon="-58.377753496170044" lat="-34.595027884722">
                <ele>0.0</ele>
                <name>Av. Santa Fe</name>
            </trkpt>
            <trkpt lon="-58.37638020515442" lat="-34.59620250898366">
                <ele>0.0</ele>
                <name>Av. Santa Fe</name>
            </trkpt>
            <trkpt lon="-58.37552189826965" lat="-34.59621134068211">
                <ele>0.0</ele>
                <name>Florida</name>
            </trkpt>
            <trkpt lon="-58.37381601333618" lat="-34.59357062101193">
                <ele>18.0</ele>
                <time>2011-08-21T16:42:16.348Z</time>
                <name>Av. San Martín</name>
            </trkpt>
            <trkpt lon="-58.37236762046814" lat="-34.59164522733579">
                <ele>0.0</ele>
                <name>Gilardo Gilardi</name>
            </trkpt>
            <trkpt lon="-58.373837" lat="-34.590839">
                <ele>0.0</ele>
                <name>Av. Ramos Mejía</name>
            </trkpt>
            <trkpt lon="-58.37207794189453" lat="-34.58918984406093">
                <ele>6.0</ele>
                <time>2011-08-21T16:42:38.278Z</time>
                <name>Av. Antártida Argentina</name>
            </trkpt>
            <trkpt lon="-58.37103724479675" lat="-34.58922517383121">
                <ele>0.0</ele>
                <name>Av. Antártida Argentina</name>
            </trkpt>
            <trkpt lon="-58.372238874435425" lat="-34.58587761137749">
                <ele>0.0</ele>
                <name>Luisoni</name>
            </trkpt>
            <trkpt lon="-58.37154150009155" lat="-34.58497666124765">
                <ele>0.0</ele>
                <name>Gendarmeria Nacional</name>
            </trkpt>
            <trkpt lon="-58.37657332420349" lat="-34.58235325082995">
                <ele>0.0</ele>
                <name>Calle</name>
            </trkpt>
            <trkpt lon="-58.377195596694946" lat="-34.58328956169496">
                <ele>0.0</ele>
                <name>Perette</name>
            </trkpt>
            <trkpt lon="-58.37576866149902" lat="-34.58415519820448">
                <ele>0.0</ele>
                <name>Terminal de Omnibus</name>
            </trkpt>
            <trkpt lon="-58.37319374084473" lat="-34.58629275177736">
                <ele>9.0</ele>
                <time>2011-08-21T16:43:23.712Z</time>
                <name>Terminal de Omnibus</name>
            </trkpt>
        </trkseg>
    </trk>
    <trk>
        <name>B - Estación Lanús por Hospital Penna</name>
        <trkseg>
            <trkpt lon="-58.37536096572876" lat="-34.58512682028096">
                <ele>0.0</ele>
                <name>Terminal de Omnibus</name>
            </trkpt>
            <trkpt lon="-58.37230324745178" lat="-34.586345748274866">
                <ele>0.0</ele>
                <name>Av. Antártida Argentina</name>
            </trkpt>
            <trkpt lon="-58.371734619140625" lat="-34.58818293929296">
                <ele>0.0</ele>
                <name>Av. Dr. José Maria Ramos Mejía</name>
            </trkpt>
            <trkpt lon="-58.37563991546631" lat="-34.59287289176165">
                <ele>0.0</ele>
                <name>Juncal</name>
            </trkpt>
            <trkpt lon="-58.38288187980652" lat="-34.592828731485326">
                <ele>0.0</ele>
                <name>Cerrito</name>
            </trkpt>
            <trkpt lon="-58.38237762451172" lat="-34.60135122987598">
                <ele>0.0</ele>
                <name>Tucumán</name>
            </trkpt>
            <trkpt lon="-58.39556336402893" lat="-34.60213719863793">
                <ele>41.0</ele>
                <time>2011-08-21T16:22:27.741Z</time>
                <name>Tucumán</name>
            </trkpt>
            <trkpt lon="-58.400917053222656" lat="-34.60222550926995">
                <ele>0.0</ele>
                <name>Tucumán</name>
            </trkpt>
            <trkpt lon="-58.4048330783844" lat="-34.60182811068638">
                <ele>0.0</ele>
                <name>Av. Pueyrredón</name>
            </trkpt>
            <trkpt lon="-58.406163454055786" lat="-34.60770941552662">
                <ele>0.0</ele>
                <name>Av. Pueyrredón</name>
            </trkpt>
            <trkpt lon="-58.40604543685913" lat="-34.61005828873802">
                <ele>0.0</ele>
                <name>Av. Rivadavia</name>
            </trkpt>
            <trkpt lon="-58.41034770011902" lat="-34.610411497007135">
                <ele>0.0</ele>
                <name>Gral. Urquiza</name>
            </trkpt>
            <trkpt lon="-58.40953230857849" lat="-34.61659239846609">
                <ele>30.0</ele>
                <time>2011-08-21T16:23:48.727Z</time>
                <name>Gral. Urquiza</name>
            </trkpt>
            <trkpt lon="-58.40913534164429" lat="-34.622437341842925">
                <ele>0.0</ele>
                <name>Gral. Urquiza</name>
            </trkpt>
            <trkpt lon="-58.407676219940186" lat="-34.636332880492">
                <ele>32.0</ele>
                <time>2011-08-21T16:23:58.814Z</time>
                <name>Rondeau</name>
            </trkpt>
            <trkpt lon="-58.409167528152466" lat="-34.63665066736591">
                <ele>0.0</ele>
                <name>24 de Noviembre</name>
            </trkpt>
            <trkpt lon="-58.40909242630005" lat="-34.637736429998284">
                <ele>18.0</ele>
                <time>2011-08-21T16:50:11.827Z</time>
                <name>Pepiri</name>
            </trkpt>
            <trkpt lon="-58.40864181518555" lat="-34.639272362616886">
                <ele>0.0</ele>
                <name>Pepiri</name>
            </trkpt>
            <trkpt lon="-58.40932846069336" lat="-34.642714866880326">
                <ele>0.0</ele>
                <name>Chutro</name>
            </trkpt>
            <trkpt lon="-58.41147422790527" lat="-34.6430149758643">
                <ele>0.0</ele>
                <name>Chutro</name>
            </trkpt>
            <trkpt lon="-58.41311573982239" lat="-34.64275017387599">
                <ele>11.0</ele>
                <time>2011-08-21T16:50:35.840Z</time>
                <name>Achala</name>
            </trkpt>
            <trkpt lon="-58.41614127159119" lat="-34.64214112609376">
                <ele>11.0</ele>
                <time>2011-08-21T16:24:37.466Z</time>
                <name>Av. Sáenz</name>
            </trkpt>
            <trkpt lon="-58.41633439064026" lat="-34.648434404126554">
                <ele>11.0</ele>
                <time>2011-08-21T16:24:37.466Z</time>
                <name>Av. Sáenz</name>
            </trkpt>
            <trkpt lon="-58.4167206287384" lat="-34.659554597038294">
                <ele>0.0</ele>
                <name>Av. Remedios de Escalada</name>
            </trkpt>
            <trkpt lon="-58.41771841049194" lat="-34.66491117334882">
                <ele>0.0</ele>
                <name>Pres. Perón</name>
            </trkpt>
            <trkpt lon="-58.416398763656616" lat="-34.66594362024579">
                <ele>0.0</ele>
                <name>Habana</name>
            </trkpt>
            <trkpt lon="-58.41573357582092" lat="-34.6652817967921">
                <ele>0.0</ele>
                <name>Habana</name>
            </trkpt>
            <trkpt lon="-58.41613054275513" lat="-34.665158255828544">
                <ele>0.0</ele>
                <name>Habana</name>
            </trkpt>
            <trkpt lon="-58.41422080993652" lat="-34.66378164405813">
                <ele>0.0</ele>
                <name>Quindimil</name>
            </trkpt>
            <trkpt lon="-58.410905599594116" lat="-34.66633188754474">
                <ele>0.0</ele>
                <name>Yatay</name>
            </trkpt>
            <trkpt lon="-58.40929627418518" lat="-34.66481410503019">
                <ele>0.0</ele>
                <name>Brasil</name>
            </trkpt>
            <trkpt lon="-58.40251564979553" lat="-34.67076153564901">
                <ele>0.0</ele>
                <name>Farrell</name>
            </trkpt>
            <trkpt lon="-58.4108304977417" lat="-34.67847314663942">
                <ele>0.0</ele>
                <name>Callao</name>
            </trkpt>
            <trkpt lon="-58.411667346954346" lat="-34.67788200736433">
                <ele>0.0</ele>
                <name>Rucci</name>
            </trkpt>
            <trkpt lon="-58.412439823150635" lat="-34.678579021884914">
                <ele>0.0</ele>
                <name>Rucci</name>
            </trkpt>
            <trkpt lon="-58.41480016708374" lat="-34.67969952660269">
                <ele>0.0</ele>
                <name>Liniers</name>
            </trkpt>
            <trkpt lon="-58.41056227684021" lat="-34.685769398844926">
                <ele>0.0</ele>
                <name>Liniers</name>
            </trkpt>
            <trkpt lon="-58.40962886810303" lat="-34.68640459231249">
                <ele>0.0</ele>
                <name>Pilcomayo</name>
            </trkpt>
            <trkpt lon="-58.411710262298584" lat="-34.68855715615368">
                <ele>0.0</ele>
                <name>D Elia</name>
            </trkpt>
            <trkpt lon="-58.40855598449707" lat="-34.69064791252784">
                <ele>0.0</ele>
                <name>Plaul</name>
            </trkpt>
            <trkpt lon="-58.41532588005066" lat="-34.69751968905627">
                <ele>0.0</ele>
                <name>Moreno</name>
            </trkpt>
            <trkpt lon="-58.411678075790405" lat="-34.699936583929876">
                <ele>0.0</ele>
                <name>Moreno</name>
            </trkpt>
            <trkpt lon="-58.411656618118286" lat="-34.70018356191232">
                <ele>0.0</ele>
                <name>Moreno</name>
            </trkpt>
            <trkpt lon="-58.40732199999999" lat="-34.700722">
                <ele>0.0</ele>
                <name>Santiago del Estero</name>
            </trkpt>
            <trkpt lon="-58.40827703475952" lat="-34.705466950032225">
                <ele>0.0</ele>
                <name>25 de Mayo</name>
            </trkpt>
            <trkpt lon="-58.40487599372864" lat="-34.70589913212845">
                <ele>0.0</ele>
                <name>25 de Mayo</name>
            </trkpt>
            <trkpt lon="-58.39900732040405" lat="-34.707592558586214">
                <ele>0.0</ele>
                <name>25 de Mayo</name>
            </trkpt>
            <trkpt lon="-58.39164733886719" lat="-34.708227584570615">
                <ele>0.0</ele>
                <name>Estación Lanús</name>
            </trkpt>
            <trkpt lon="-58.39136838912964" lat="-34.70682081905703">
                <ele>16.0</ele>
                <time>2011-08-21T16:28:42.715Z</time>
                <name>Estación Lanús</name>
            </trkpt>
        </trkseg>
    </trk>
    <trk>
        <name>B - Retiro por Hospital Penna</name>
        <trkseg>
            <trkpt lon="-58.39135766029358" lat="-34.70812174724509">
                <ele>0.0</ele>
                <name>Estación Lanús</name>
            </trkpt>
            <trkpt lon="-58.391443490982056" lat="-34.70676348954757">
                <ele>0.0</ele>
                <name>Pineiro</name>
            </trkpt>
            <trkpt lon="-58.39902877807617" lat="-34.70674584969051">
                <ele>0.0</ele>
                <name>20 de Septiembre</name>
            </trkpt>
            <trkpt lon="-58.39899659156799" lat="-34.70751758991911">
                <ele>0.0</ele>
                <name>25 de Mayo</name>
            </trkpt>
            <trkpt lon="-58.40475797653198" lat="-34.70581534189848">
                <ele>0.0</ele>
                <name>25 de Mayo</name>
            </trkpt>
            <trkpt lon="-58.406837" lat="-34.705475">
                <ele>0.0</ele>
                <name>Noya</name>
            </trkpt>
            <trkpt lon="-58.40610444545746" lat="-34.70202705285074">
                <ele>0.0</ele>
                <name>Tejedor</name>
            </trkpt>
            <trkpt lon="-58.41257929801941" lat="-34.701145004894734">
                <ele>0.0</ele>
                <name>Tejedor</name>
            </trkpt>
            <trkpt lon="-58.41448366641998" lat="-34.69948672928197">
                <ele>0.0</ele>
                <name>Tejedor</name>
            </trkpt>
            <trkpt lon="-58.41480553150177" lat="-34.69852526703142">
                <ele>0.0</ele>
                <name>Fernández</name>
            </trkpt>
            <trkpt lon="-58.40764939785004" lat="-34.69121690670337">
                <ele>0.0</ele>
                <name>D Elia</name>
            </trkpt>
            <trkpt lon="-58.413845" lat="-34.687031">
                <ele>0.0</ele>
                <name>Av. Rivadavia</name>
            </trkpt>
            <trkpt lon="-58.41161370277405" lat="-34.686219328054555">
                <ele>0.0</ele>
                <name>Ocampo</name>
            </trkpt>
            <trkpt lon="-58.415894508361816" lat="-34.68022007088059">
                <ele>0.0</ele>
                <name>Rucci</name>
            </trkpt>
            <trkpt lon="-58.412418365478516" lat="-34.67862313653059">
                <ele>0.0</ele>
                <name>Rucci</name>
            </trkpt>
            <trkpt lon="-58.40389966964722" lat="-34.67071741681579">
                <ele>0.0</ele>
                <name>Republica Argentina</name>
            </trkpt>
            <trkpt lon="-58.410701751708984" lat="-34.664893524572065">
                <ele>0.0</ele>
                <name>Luna</name>
            </trkpt>
            <trkpt lon="-58.41123819351196" lat="-34.664681738957874">
                <ele>7.0</ele>
                <time>2011-08-21T16:33:54.107Z</time>
                <name>Luna</name>
            </trkpt>
            <trkpt lon="-58.413963317871094" lat="-34.665246499392744">
                <ele>0.0</ele>
                <name>Palacios</name>
            </trkpt>
            <trkpt lon="-58.417095" lat="-34.662525">
                <ele>0.0</ele>
                <name>Av. Remedios de Escalada</name>
            </trkpt>
            <trkpt lon="-58.41657042503357" lat="-34.65899862282567">
                <ele>0.0</ele>
                <name>Av. Sáenz</name>
            </trkpt>
            <trkpt lon="-58.41630220413208" lat="-34.64835496881111">
                <ele>9.0</ele>
                <time>2011-08-21T16:38:05.408Z</time>
                <name>Av. Almafuerte</name>
            </trkpt>
            <trkpt lon="-58.413898944854736" lat="-34.64455963727578">
                <ele>10.0</ele>
                <time>2011-08-21T16:38:05.408Z</time>
                <name>Av. Almafuerte</name>
            </trkpt>
            <trkpt lon="-58.411216735839844" lat="-34.638071865986376">
                <ele>0.0</ele>
                <name>Loria</name>
            </trkpt>
            <trkpt lon="-58.4104" lat="-34.63504">
                <ele>0.0</ele>
                <name>Av. Brasil</name>
            </trkpt>
            <trkpt lon="-58.40934991836548" lat="-34.63479689343699">
                <ele>0.0</ele>
                <name>24 de Noviembre</name>
            </trkpt>
            <trkpt lon="-58.41073393821716" lat="-34.62155444627671">
                <ele>0.0</ele>
                <name>24 de Noviembre</name>
            </trkpt>
            <trkpt lon="-58.41103434562683" lat="-34.616689523244766">
                <ele>30.0</ele>
                <time>2011-08-21T16:40:33.287Z</time>
                <name>24 de Noviembre</name>
            </trkpt>
            <trkpt lon="-58.41179609298706" lat="-34.6092635646384">
                <ele>0.0</ele>
                <name>Av. Mitre</name>
            </trkpt>
            <trkpt lon="-58.405959606170654" lat="-34.60887503008774">
                <ele>0.0</ele>
                <name>Av. Pueyrredón</name>
            </trkpt>
            <trkpt lon="-58.40609908103943" lat="-34.60766526313826">
                <ele>27.0</ele>
                <time>2011-08-21T16:41:13.923Z</time>
                <name>Av. Pueyrredón</name>
            </trkpt>
            <trkpt lon="-58.40454339981079" lat="-34.60089200872979">
                <ele>0.0</ele>
                <name>Viamonte</name>
            </trkpt>
            <trkpt lon="-58.400959968566895" lat="-34.60115694431632">
                <ele>42.0</ele>
                <time>2011-08-21T16:41:33.882Z</time>
                <name>Viamonte</name>
            </trkpt>
            <trkpt lon="-58.383954763412476" lat="-34.6004504475408">
                <ele>0.0</ele>
                <name>Libertad</name>
            </trkpt>
            <trkpt lon="-58.3842658996582" lat="-34.59561078304824">
                <ele>0.0</ele>
                <name>Av. Santa Fe</name>
            </trkpt>
            <trkpt lon="-58.377753496170044" lat="-34.595027884722">
                <ele>0.0</ele>
                <name>Av. Santa Fe</name>
            </trkpt>
            <trkpt lon="-58.37638020515442" lat="-34.59620250898366">
                <ele>0.0</ele>
                <name>Av. Santa Fe</name>
            </trkpt>
            <trkpt lon="-58.37552189826965" lat="-34.59621134068211">
                <ele>0.0</ele>
                <name>Florida</name>
            </trkpt>
            <trkpt lon="-58.37381601333618" lat="-34.59357062101193">
                <ele>18.0</ele>
                <time>2011-08-21T16:42:16.348Z</time>
                <name>Av. San Martín</name>
            </trkpt>
            <trkpt lon="-58.37236762046814" lat="-34.59164522733579">
                <ele>0.0</ele>
                <name>Gilardo Gilardi</name>
            </trkpt>
            <trkpt lon="-58.373837" lat="-34.590839">
                <ele>0.0</ele>
                <name>Av. Ramos Mejía</name>
            </trkpt>
            <trkpt lon="-58.37207794189453" lat="-34.58918984406093">
                <ele>6.0</ele>
                <time>2011-08-21T16:42:38.278Z</time>
                <name>Av. Antártida Argentina</name>
            </trkpt>
            <trkpt lon="-58.37103724479675" lat="-34.58922517383121">
                <ele>0.0</ele>
                <name>Av. Antártida Argentina</name>
            </trkpt>
            <trkpt lon="-58.372238874435425" lat="-34.58587761137749">
                <ele>0.0</ele>
                <name>Luisoni</name>
            </trkpt>
            <trkpt lon="-58.37154150009155" lat="-34.58497666124765">
                <ele>0.0</ele>
                <name>Gendarmeria Nacional</name>
            </trkpt>
            <trkpt lon="-58.37657332420349" lat="-34.58235325082995">
                <ele>0.0</ele>
                <name>Calle</name>
            </trkpt>
            <trkpt lon="-58.377195596694946" lat="-34.58328956169496">
                <ele>0.0</ele>
                <name>Perette</name>
            </trkpt>
            <trkpt lon="-58.37576866149902" lat="-34.58415519820448">
                <ele>0.0</ele>
                <name>Terminal de Omnibus</name>
            </trkpt>
            <trkpt lon="-58.37319374084473" lat="-34.58629275177736">
                <ele>9.0</ele>
                <time>2011-08-21T16:43:23.712Z</time>
                <name>Terminal de Omnibus</name>
            </trkpt>
        </trkseg>
    </trk>
</gpx>
