<?xml version="1.0" encoding="UTF-8" standalone="yes"?>
<gpx xmlns="http://www.topografix.com/GPX/1/1" xmlns:gpxtrx="http://www.garmin.com/xmlschemas/GpxExtensions/v3" xmlns:rcxx="http://www.routeconverter.de/xmlschemas/RouteCatalogExtensions/1.0" xmlns:xsi="http://www.w3.org/2001/XMLSchema-instance" xmlns:gpxtpx="http://www.garmin.com/xmlschemas/TrackPointExtension/v1" xmlns:gpxx="http://www.garmin.com/xmlschemas/WaypointExtension/v1" xmlns:nmea="http://trekbuddy.net/2009/01/gpx/nmea" creator="Generated by Christian Pesch's RouteConverter. See http://www.routeconverter.com" version="1.1">
    <trk>
        <name>A - Villa del Parque</name>
        <trkseg>
            <trkpt lon="-58.38216304779053" lat="-34.62784045805317">
                <ele>0.0</ele>
                <name>Av. Brasil</name>
            </trkpt>
            <trkpt lon="-58.37964177131653" lat="-34.627769831352595">
                <ele>0.0</ele>
                <name>Av. Brasil</name>
            </trkpt>
            <trkpt lon="-58.37840795516968" lat="-34.62743435370387">
                <ele>0.0</ele>
                <name>Bernardo de Irigoyen</name>
            </trkpt>
            <trkpt lon="-58.379051" lat="-34.626053">
                <ele>0.0</ele>
                <name>Av. Juan de Garay</name>
            </trkpt>
            <trkpt lon="-58.382238149642944" lat="-34.62696644840217">
                <ele>0.0</ele>
                <name>Av. Juan de Garay</name>
            </trkpt>
            <trkpt lon="-58.39125037193298" lat="-34.62726661437083">
                <ele>0.0</ele>
                <name>Av. Entre Rios</name>
            </trkpt>
            <trkpt lon="-58.391711711883545" lat="-34.613837539235604">
                <ele>0.0</ele>
                <name>Av. Belgrano</name>
            </trkpt>
            <trkpt lon="-58.3903706073761" lat="-34.61376690061723">
                <ele>33.0</ele>
                <time>2011-08-26T14:00:36.543Z</time>
                <name>Solís</name>
            </trkpt>
            <trkpt lon="-58.39038133621216" lat="-34.614799984421985">
                <ele>32.0</ele>
                <time>2011-08-26T14:00:36.543Z</time>
                <name>Venezuela</name>
            </trkpt>
            <trkpt lon="-58.39778423309326" lat="-34.61539157363194">
                <ele>0.0</ele>
                <name>Pasco</name>
            </trkpt>
            <trkpt lon="-58.39789152145386" lat="-34.614844133016064">
                <ele>0.0</ele>
                <name>Venezuela</name>
            </trkpt>
            <trkpt lon="-58.40129256248474" lat="-34.615506359109645">
                <ele>0.0</ele>
                <name>Venezuela</name>
            </trkpt>
            <trkpt lon="-58.40290188789368" lat="-34.61541806260242">
                <ele>0.0</ele>
                <name>Venezuela</name>
            </trkpt>
            <trkpt lon="-58.406957387924194" lat="-34.61636283035561">
                <ele>0.0</ele>
                <name>Venezuela</name>
            </trkpt>
            <trkpt lon="-58.40950012207031" lat="-34.61660122799612">
                <ele>31.0</ele>
                <time>2011-08-26T14:01:51.524Z</time>
                <name>Venezuela</name>
            </trkpt>
            <trkpt lon="-58.4127938747406" lat="-34.61661888705336">
                <ele>0.0</ele>
                <name>Sánchez de Loria</name>
            </trkpt>
            <trkpt lon="-58.41275095939636" lat="-34.618049258213105">
                <ele>0.0</ele>
                <name>Agrelo</name>
            </trkpt>
            <trkpt lon="-58.419649600982666" lat="-34.618729117343975">
                <ele>31.0</ele>
                <time>2011-08-26T14:02:15.299Z</time>
                <name>Agrelo</name>
            </trkpt>
            <trkpt lon="-58.42828631401062" lat="-34.6194089709059">
                <ele>0.0</ele>
                <name>Guayaquil</name>
            </trkpt>
            <trkpt lon="-58.43547463417053" lat="-34.62038900974666">
                <ele>0.0</ele>
                <name>Av. José Maria Moreno</name>
            </trkpt>
            <trkpt lon="-58.43646168708801" lat="-34.61825233360171">
                <ele>40.0</ele>
                <time>2011-08-26T14:02:42.457Z</time>
                <name>Av. Acoyte</name>
            </trkpt>
            <trkpt lon="-58.43745946884155" lat="-34.61639814856778">
                <ele>0.0</ele>
                <name>Av. Acoyte</name>
            </trkpt>
            <trkpt lon="-58.4378457069397" lat="-34.61408477392653">
                <ele>0.0</ele>
                <name>Av. Acoyte</name>
            </trkpt>
            <trkpt lon="-58.438392877578735" lat="-34.612804443453086">
                <ele>0.0</ele>
                <name>Dr. Aranguren</name>
            </trkpt>
            <trkpt lon="-58.446160554885864" lat="-34.61597432902991">
                <ele>0.0</ele>
                <name>Neuquén</name>
            </trkpt>
            <trkpt lon="-58.44675064086914" lat="-34.61597432902991">
                <ele>0.0</ele>
                <name>Gainza</name>
            </trkpt>
            <trkpt lon="-58.44672918319702" lat="-34.61659239846609">
                <ele>0.0</ele>
                <name>Dr. Aranguren</name>
            </trkpt>
            <trkpt lon="-58.44853162765503" lat="-34.61698972638762">
                <ele>30.0</ele>
                <time>2011-08-26T14:03:52.341Z</time>
                <name>Dr. Aranguren</name>
            </trkpt>
            <trkpt lon="-58.45452904701233" lat="-34.619303020067754">
                <ele>0.0</ele>
                <name>Seguí</name>
            </trkpt>
            <trkpt lon="-58.457382917404175" lat="-34.612945722267696">
                <ele>0.0</ele>
                <name>Av. Gaona</name>
            </trkpt>
            <trkpt lon="-58.46801519393921" lat="-34.61721046329996">
                <ele>0.0</ele>
                <name>Av. Gaona</name>
            </trkpt>
            <trkpt lon="-58.474174" lat="-34.620449">
                <ele>0.0</ele>
                <name>Av. Nazca</name>
            </trkpt>
            <trkpt lon="-58.488099575042725" lat="-34.60348834103477">
                <ele>0.0</ele>
                <name>Sastre</name>
            </trkpt>
            <trkpt lon="-58.48698377609253" lat="-34.60279952608905">
                <ele>0.0</ele>
                <name>Terrada</name>
            </trkpt>
            <trkpt lon="-58.487831354141235" lat="-34.601854603984435">
                <ele>0.0</ele>
                <name>Baigorria</name>
            </trkpt>
            <trkpt lon="-58.491350412368774" lat="-34.60392988607183">
                <ele>0.0</ele>
                <name>Helguera</name>
            </trkpt>
            <trkpt lon="-58.492786" lat="-34.602127">
                <ele>0.0</ele>
                <name>Melincué</name>
            </trkpt>
            <trkpt lon="-58.498045206069946" lat="-34.60521918414356">
                <ele>0.0</ele>
                <name>Concordia</name>
            </trkpt>
            <trkpt lon="-58.500609397888184" lat="-34.60194291491696">
                <ele>0.0</ele>
                <name>Simbrón</name>
            </trkpt>
            <trkpt lon="-58.503291606903076" lat="-34.60339120081155">
                <ele>0.0</ele>
                <name>Simbrón</name>
            </trkpt>
        </trkseg>
    </trk>
    <trk>
        <name>A - Estación Constitución</name>
        <trkseg>
            <trkpt lon="-58.5026478767395" lat="-34.6021636918374">
                <ele>0.0</ele>
                <name>Lamarca</name>
            </trkpt>
            <trkpt lon="-58.50121021270752" lat="-34.60381508458805">
                <ele>0.0</ele>
                <name>Tinogasta</name>
            </trkpt>
            <trkpt lon="-58.497862815856934" lat="-34.601810448482965">
                <ele>0.0</ele>
                <name>Gutiérrez</name>
            </trkpt>
            <trkpt lon="-58.495062589645386" lat="-34.60174863074147">
                <ele>0.0</ele>
                <name>Cuenca</name>
            </trkpt>
            <trkpt lon="-58.49344253540039" lat="-34.60384157725224">
                <ele>0.0</ele>
                <name>Nogoyá</name>
            </trkpt>
            <trkpt lon="-58.489805459976196" lat="-34.60174863074147">
                <ele>0.0</ele>
                <name>Av. Nazca</name>
            </trkpt>
            <trkpt lon="-58.48347544670105" lat="-34.60887503008774">
                <ele>0.0</ele>
                <name>Av. Nazca</name>
            </trkpt>
            <trkpt lon="-58.474280834198" lat="-34.62046847184816">
                <ele>0.0</ele>
                <name>Av. Gaona</name>
            </trkpt>
            <trkpt lon="-58.47578287124634" lat="-34.62126308867854">
                <ele>0.0</ele>
                <name>Argerich</name>
            </trkpt>
            <trkpt lon="-58.475579023361206" lat="-34.62171336817183">
                <ele>0.0</ele>
                <name>Neuquén</name>
            </trkpt>
            <trkpt lon="-58.467854261398315" lat="-34.61928536158158">
                <ele>23.0</ele>
                <time>2011-08-26T14:09:07.996Z</time>
                <name>Neuquén</name>
            </trkpt>
            <trkpt lon="-58.46323013305664" lat="-34.617360564065045">
                <ele>25.0</ele>
                <time>2011-08-26T14:09:07.996Z</time>
                <name>Neuquén</name>
            </trkpt>
            <trkpt lon="-58.45853090286255" lat="-34.61588603302048">
                <ele>0.0</ele>
                <name>Neuquén</name>
            </trkpt>
            <trkpt lon="-58.45325231552124" lat="-34.61569178146911">
                <ele>31.0</ele>
                <time>2011-08-26T14:09:25.410Z</time>
                <name>Neuquén</name>
            </trkpt>
            <trkpt lon="-58.44899296760559" lat="-34.61587720341438">
                <ele>0.0</ele>
                <name>Méndez de Andes</name>
            </trkpt>
            <trkpt lon="-58.44052791595459" lat="-34.612610184690425">
                <ele>0.0</ele>
                <name>Hidalgo</name>
            </trkpt>
            <trkpt lon="-58.43733072280884" lat="-34.619806285344296">
                <ele>0.0</ele>
                <name>Rosario</name>
            </trkpt>
            <trkpt lon="-58.435925245285034" lat="-34.619338337028836">
                <ele>0.0</ele>
                <name>Rosario</name>
            </trkpt>
            <trkpt lon="-58.42857599258423" lat="-34.61831413905615">
                <ele>0.0</ele>
                <name>Venezuela</name>
            </trkpt>
            <trkpt lon="-58.41825485229492" lat="-34.617475346819894">
                <ele>0.0</ele>
                <name>Colombres</name>
            </trkpt>
            <trkpt lon="-58.418458700180054" lat="-34.6158153961453">
                <ele>0.0</ele>
                <name>Av. Belgrano</name>
            </trkpt>
            <trkpt lon="-58.409714698791504" lat="-34.61527678799549">
                <ele>30.0</ele>
                <time>2011-08-26T14:10:54.772Z</time>
                <name>Av. Belgrano</name>
            </trkpt>
            <trkpt lon="-58.404918909072876" lat="-34.61463221955033">
                <ele>30.0</ele>
                <time>2011-08-26T14:10:54.772Z</time>
                <name>Av. Belgrano</name>
            </trkpt>
            <trkpt lon="-58.39324593544006" lat="-34.61394349705045">
                <ele>0.0</ele>
                <name>Combate de Los Pozos</name>
            </trkpt>
            <trkpt lon="-58.39317083358765" lat="-34.621642736256014">
                <ele>0.0</ele>
                <name>Combate de Los Pozos</name>
            </trkpt>
            <trkpt lon="-58.392173051834106" lat="-34.627293099551224">
                <ele>0.0</ele>
                <name>Av. Juan de Garay</name>
            </trkpt>
            <trkpt lon="-58.38227033615112" lat="-34.62696644840217">
                <ele>0.0</ele>
                <name>Lima Oeste</name>
            </trkpt>
            <trkpt lon="-58.382195234298706" lat="-34.627822801383665">
                <ele>0.0</ele>
                <name>Brasil</name>
            </trkpt>
            <trkpt lon="-58.37980270385742" lat="-34.62774334632439">
                <ele>24.0</ele>
                <time>2011-08-26T14:12:02.112Z</time>
                <name>Brasil</name>
            </trkpt>
        </trkseg>
    </trk>
</gpx>
